     2.11           OBSERVATION DATA    M (MIXED)           RINEX VERSION / TYPE
teqc  2015Nov6      anonyme             20160629 07:46:29UTCPGM / RUN BY / DATE
Linux 2.4.21-27.ELsmp|Opteron|gcc|Linux x86_64|=+           COMMENT
-Unknown-                                                   MARKER NAME
-Unknown-           -Unknown-                               OBSERVER / AGENCY
-Unknown-           U-BLOX              -Unknown-           REC # / TYPE / VERS
-Unknown-           UBLOX           NONE                    ANT # / TYPE
        0.0000        0.0000        0.0000                  APPROX POSITION XYZ
        0.0000        0.0000        0.0000                  ANTENNA: DELTA H/E/N
     1     0                                                WAVELENGTH FACT L1/2
     4    L1    C1    S1    D1                              # / TYPES OF OBSERV
 SNR is mapped to RINEX snr flag value [0-9]                COMMENT
  L1 & L2: min(max(int(snr_dBHz/6), 0), 9)                  COMMENT
  2016     6    24     0     1    0.0000000     GPS         TIME OF FIRST OBS
    17                                                      LEAP SECONDS
                                                            END OF HEADER
 16  6 24  0  1  0.0000000  0 11G09G19G06G03S20G07G22G01G23G17G31
 -22341092.535 8  20516610.653          49.000         559.994
   4110419.594 7  23281241.530          45.000       -3174.539
  -1902923.946 8  20994082.272          48.000         615.139
  -4178946.160 7  22059859.364          47.000       -3054.349
 106334333.280 6  38595037.575          39.000        -724.791
  12244195.194 7  24789402.058          42.000        2929.751
   9507276.493 6  23923677.805          36.000       -3604.697
  23764656.02514  25451775.224          29.000       -4456.165
 -19818276.278 7  20762940.789          44.000       -1242.667
   6016371.947 7  23976775.205          45.000       -3751.510
  11405461.64615  25209451.903          32.000       -3619.973
 16  6 24  0  2  0.0000000  0  9G09G19G03S20G07G22G23G17G31
 -22373648.095 8  20510417.257          50.000         526.271
   4301762.918 7  23317651.671          44.000       -3202.428
  -3995100.879 7  22094839.756          44.000       -3072.519
 106377908.680 6  38603329.971          39.000        -727.413
  12068439.503 6  24755962.590          41.000        2928.881
   9723889.809 5  23964902.060          34.000       -3614.342
 -19742759.229 7  20777311.409          44.000       -1273.742
   6241920.946 7  24019695.150          45.000       -3765.661
  11623543.59515  25250953.756          33.000       -3646.069
 16  6 24  0  3  0.0000000  0 11G09G19G06G03S20G07G22G02G23G17G31
 -22404234.273 8  20504594.852          48.000         493.811
   4494726.782 7  23354369.966          45.000       -3229.441
    -33557.63618  20980879.385          48.000         542.366
  -3810260.351 7  22130016.219          46.000       -3088.479
 106421551.332 6  38611634.530          39.000        -727.884
  11892751.596 6  24722532.614          41.000        2927.514
   9941043.617 5  24006217.213          32.000       -3623.656
  -3470012.52715  24256731.474          30.000        2554.786
 -19665452.477 7  20792022.885          46.000       -1303.111
   6468261.942 7  24062765.847          45.000       -3778.474
  11842955.357 6  25292711.289          36.000       -3666.558
 16  6 24  0  4  0.0000000  0 11G09G19G06G03S20G07G22G02G23G17G31
 -22432855.717 8  20499148.500          48.000         460.266
   4689280.721 7  23391395.227          46.000       -3256.022
    -64986.574 8  20974899.317          48.000         505.271
  -3624436.894 7  22165376.677          46.000       -3105.323
 106465246.134 6  38619949.733          39.000        -729.526
  11717145.656 7  24689112.306          42.000        2926.195
  10158737.62713  24047610.839          22.000       -3631.369
  -3622961.45815  24227629.135          32.000        2543.038
 -19586371.213 7  20807069.894          44.000       -1333.247
   6695363.317 7  24105983.929          45.000       -3791.485
  12063669.125 5  25334709.357          34.000       -3690.148
 16  6 24  0  5  0.0000000  0 11G09G19G06G03S20G07G22G02G23G17G31
 -22459499.819 8  20494076.803          48.000         428.208
   4885411.437 7  23428718.032          46.000       -3281.023
    -94214.760 8  20969337.671          48.000         469.305
  -3437625.554 7  22200925.650          46.000       -3120.782
 106509003.744 6  38628276.628          39.000        -729.590
  11541652.278 7  24655713.375          43.000        2924.856
  10376951.20215  24089168.411          35.000       -3640.562
  -3775170.82315  24198665.665          31.000        2532.035
 -19505512.477 7  20822454.774          43.000       -1361.315
   6923211.287 7  24149341.578          44.000       -3803.023
  12285674.05615  25376959.004          30.000       -3711.571
 16  6 24  0  6  0.0000000  0 11G09G19G06G03S20G07G22G02G23G17G31
 -22484197.167 8  20489378.123          48.000         395.453
   5083063.340 7  23466328.329          46.000       -3306.367
   -121261.736 8  20964189.613          48.000         432.688
  -3249863.983 7  22236656.646          46.000       -3137.025
 106552790.249 6  38636608.077          39.000        -729.197
  11366259.678 7  24622335.872          45.000        2922.337
  10595664.366 6  24130791.403          39.000       -3649.365
  -3926655.55814  24169835.009          28.000        2519.737
 -19422917.329 7  20838172.516          44.000       -1390.489
   7151748.988 7  24192829.667          45.000       -3814.381
  12508916.38214  25419449.568          29.000       -3730.749
 16  6 24  0  7  0.0000000  0 11G09G19G06G03S20G07G22G02G23G17G31
 -22506965.099 8  20485045.705          48.000         363.158
   5282192.636 7  23504221.128          46.000       -3330.843
   -146133.825 8  20959456.974          48.000         396.390
  -3061176.782 7  22272559.230          43.000       -3152.914
 106596581.958 6  38644941.533          39.000        -729.623
  11190969.235 7  24588978.018          44.000        2920.218
  10814850.097 6  24172500.250          37.000       -3657.960
  -4077415.74614  24141143.378          29.000        2505.423
 -19338612.872 7  20854218.253          44.000       -1419.794
   7380933.038 7  24236443.136          46.000       -3824.950
  12733333.62714  25462152.712          25.000       -3751.064
 16  6 24  0  8  0.0000000  0 11G09G19G06G03S20G07G22G02G23G17G31
 -22527735.005 8  20481093.667          49.000         330.079
   5482842.895 7  23542402.326          45.000       -3356.054
   -168751.608 8  20955153.070          48.000         358.642
  -2871501.957 7  22308657.326          44.000       -3168.852
 106640456.242 6  38653290.956          39.000        -731.406
  11015869.607 6  24555658.765          39.000        2917.080
  11034570.76115  24214301.915          32.000       -3668.948
  -4227366.18415  24112613.424          33.000        2494.574
 -19252540.432 7  20870595.806          44.000       -1448.535
   7610806.006 7  24280187.446          46.000       -3836.354
  12959016.81114  25505092.829          27.000       -3771.029
 16  6 24  0  9  0.0010000  0 11G09G19G06G03S20G07G22G02G23G17G31
 -22546563.499 8  20477509.968          48.000         297.550
   5684935.895 7  23580860.635          45.000       -3379.691
   -189160.552 8  20951269.088          48.000         322.108
  -2680899.509 7  22344924.132          43.000       -3184.039
 106684360.474 6  38661646.749          39.000        -731.778
  10840920.64713  24522399.104          23.000        2914.154
  11254765.99315  24256215.210          35.000       -3672.556
  -4376548.471 5  24084223.875          34.000        2481.890
 -19164764.669 7  20887300.726          45.000       -1476.630
   7841289.665 7  24324046.963          46.000       -3845.756
  13185868.71515  25548262.731          31.000       -3792.095
 16  6 24  0 10  0.0010000  0 11G09G19G06G03S20G07G22G02G23G17G31
 -22563465.837 8  20474295.167          49.000         264.510
   5888423.738 7  23619584.238          45.000       -3403.867
   -207365.174 8  20947804.819          48.000         283.820
  -2489398.198 7  22381365.142          44.000       -3200.370
 106728272.699 6  38670002.263          39.000        -733.132
  10666119.71215  24489106.357          35.000        2910.621
  11475408.171 6  24298205.564          37.000       -3682.401
  -4524956.345 5  24055981.011          34.000        2467.135
 -19075313.976 7  20904321.581          45.000       -1505.456
   8072334.992 7  24368012.578          45.000       -3856.069
  13413843.19214  25591645.630          29.000       -3809.928
 16  6 24  0 11  0.0010000  0 11G09G19G06G03S20G07G22G02G23G17G31
 -22578360.231 8  20471459.472          48.000         232.796
   6093366.773 7  23658580.955          43.000       -3426.108
   -223272.743 8  20944778.654          48.000         246.714
  -2296918.811 7  22417995.173          44.000       -3215.464
 106772279.606 6  38678378.053          39.000        -733.876
  10491592.190 6  24455890.408          41.000        2906.820
  11696576.650 6  24340294.739          37.000       -3691.044
  -4672492.21715  24027902.040          31.000        2452.253
 -18984114.282 7  20921676.904          45.000       -1533.511
   8304002.882 7  24412096.330          43.000       -3865.216
  13643004.54715  25635251.229          30.000       -3828.928
 16  6 24  0 12  0.0010000  0 11G09G19G06G03S20G07G22G02G23G17G31
 -22591344.517 8  20468986.898          48.000         200.300
   6299642.073 7  23697836.564          44.000       -3448.361
   -236970.432 8  20942171.435          48.000         210.650
  -2103565.244 7  22454788.574          43.000       -3229.626
 106816271.581 6  38686747.544          39.000        -733.205
  10317246.451 7  24422710.163          43.000        2904.106
  11918167.560 6  24382463.120          36.000       -3696.777
  -4819235.96316  23999987.852          36.000        2438.588
 -18891273.074 7  20939343.871          45.000       -1560.732
   8536170.477 7  24456276.966          44.000       -3873.069
  13873232.80315  25679061.815          31.000       -3851.046
 16  6 24  0 13  0.0010000  0 11G09G19G06G03S20G07G22G02G23G17G31
 -22602411.870 8  20466882.018          48.000         167.230
   6507231.913 7  23737338.011          44.000       -3471.636
   -248440.549 8  20939988.901          49.000         171.796
  -1909336.475 6  22491747.140          41.000       -3244.992
 106860251.951 6  38695118.885          39.000        -733.841
  10143111.930 7  24389572.863          43.000        2899.252
  12140182.857 5  24424721.946          34.000       -3704.114
  -4965162.480 6  23972217.104          37.000        2425.201
 -18796793.332 7  20957321.016          44.000       -1589.041
   8768820.280 7  24500550.489          45.000       -3882.444
  14104513.10115  25723073.690          31.000       -3865.145
 16  6 24  0 14  0.0010000  0 10G09G19G06G03S20G07G22G02G23G17
 -22611490.358 8  20465154.272          48.000         135.657
   6716183.278 7  23777099.170          43.000       -3492.848
   -257600.624 8  20938244.385          48.000         133.981
  -1714166.144 7  22528891.900          45.000       -3259.935
 106904302.458 6  38703500.783          39.000        -734.278
   9969280.858 6  24356490.618          41.000        2895.788
  12362689.109 6  24467068.110          36.000       -3711.115
  -5110181.410 6  23944619.777          38.000        2410.107
 -18700611.711 7  20975623.868          43.000       -1616.778
   9001999.236 7  24544923.426          46.000       -3890.152
 16  6 24  0 15  0.0010000  0 10G09G19G06G03S20G07G22G02G23G17
 -22618700.514 8  20463783.644          49.000         105.432
   6926351.092 7  23817093.638          43.000       -3512.353
   -264560.723 8  20936921.188          48.000          98.258
  -1518180.300 7  22566180.206          42.000       -3272.073
 106948308.150 6  38711875.578          40.000        -732.380
   9795652.946 6  24323442.627          37.000        2892.621
  12585560.164 6  24509475.926          39.000       -3717.656
  -5254394.111 6  23917177.756          39.000        2398.368
 -18602858.388 7  20994227.301          44.000       -1641.348
   9235562.390 7  24589367.979          46.000       -3895.003
 16  6 24  0 16  0.0010000  0 10G09G19G06G03S20G07G22G02G23G17
 -22624067.305 8  20462761.777          48.000          73.561
   7137685.851 7  23857310.998          44.000       -3533.023
   -269335.231 8  20936014.317          50.000          60.422
  -1321409.215 7  22603630.520          43.000       -3287.059
 106992238.744 6  38720235.943          40.000        -732.668
   9622225.750 5  24290435.000          35.000        2887.117
  12808766.296 6  24551947.767          39.000       -3724.552
  -5397806.762 6  23889883.295          39.000        2382.849
 -18503566.949 7  21013120.512          43.000       -1668.791
   9469461.375 7  24633876.557          44.000       -3901.992
 16  6 24  0 17  0.0010000  0 10G09G19G06G03S20G07G22G02G23G17
 -22627494.831 8  20462109.924          48.000          41.629
   7350259.223 7  23897763.464          44.000       -3552.710
   -271817.775 8  20935540.858          49.000          22.614
  -1123761.593 7  22641242.545          43.000       -3301.473
 107036196.604 6  38728601.699          40.000        -733.127
   9449116.345 6  24257502.251          39.000        2883.535
  13032399.297 6  24594503.054          38.000       -3730.843
  -5540303.443 6  23862767.733          39.000        2367.755
 -18402650.835 7  21032323.849          42.000       -1694.926
   9703768.870 7  24678465.091          44.000       -3908.405
 16  6 24  0 18  0.0010000  0 10G09G19G06G03S20G07G22G02G23G17
 -22629032.807 8  20461816.132          48.000           9.615
   7563996.964 7  23938435.664          44.000       -3572.072
   -272047.850 8  20935495.976          49.000         -14.696
   -925292.272 6  22678998.743          38.000       -3314.854
 107080121.458 6  38736959.359          40.000        -731.282
   9276296.835 7  24224617.280          43.000        2877.988
  13256404.519 5  24637132.156          35.000       -3736.300
  -5681914.924 7  23835826.988          42.000        2352.808
 -18300168.731 7  21051826.875          43.000       -1720.652
   9938411.581 7  24723113.847          43.000       -3913.510
 16  6 24  0 19  0.0000000  0 10G09G19G06G03S20G07G22G02G23G17
 -22628681.033 8  20162090.407          48.000         -22.553
   7778876.196 7  23679532.001          44.000       -3591.622
   -270015.025 8  20636092.207          50.000         -53.651
   -726005.677 7  22417140.409          44.000       -3329.423
 107124011.510 6  38445519.276          40.000        -731.855
   9103789.244 7  23892000.338          43.000        2870.996
  13480778.358 6  24380035.987          36.000       -3743.816
  -5822621.336 7  23509259.424          43.000        2336.923
 -18196128.551 7  20771832.652          43.000       -1747.965
  10173365.944 7  24468033.020          43.000       -3919.137
 16  6 24  0 20  0.0000000  0 10G09G19G06G03S20G07G22G02G23G17
 -22626372.399 8  20162530.833          48.000         -54.339
   7994939.073 7  23720648.221          44.000       -3610.476
   -265642.061 8  20636923.465          49.000         -91.856
   -525838.922 7  22455227.062          42.000       -3342.242
 107167944.394 6  38453880.164          41.000        -732.255
   8931684.194 6  23859249.664          41.000        2866.146
  13705583.037 6  24422810.833          37.000       -3749.375
  -5962335.137 6  23482663.827          40.000        2320.647
 -18090472.414 7  20791939.264          42.000       -1773.815
  10408675.616 7  24512811.430          43.000       -3924.580
 16  6 24  0 21  0.0000000  0 11G09G19G06G03S20G07G22G02G23G17G31
 -22622204.914 8  20163323.753          48.000         -84.957
   8212064.179 7  23761963.357          44.000       -3627.117
   -259017.059 8  20638183.005          49.000        -129.189
   -324894.536 6  22493467.120          41.000       -3354.940
 107211829.164 6  38462231.402          41.000        -730.308
   8759905.529 6  23826557.641          40.000        2861.578
  13930716.808 6  24465647.017          39.000       -3755.347
  -6101133.907 6  23456248.734          40.000        2306.416
 -17983306.619 7  20812330.611          42.000       -1798.837
  10644220.913 7  24557634.182          42.000       -3927.120
  15985854.27212  25782048.899          16.000       -3977.682
 16  6 24  0 22  0.0000000  0 11G09G19G06G03S20G07G22G02G23G17G31
 -22616151.314 7  20164475.363          47.000        -116.413
   8430256.866 7  23803484.422          44.000       -3645.291
   -250102.711 8  20639881.539          50.000        -167.740
   -123148.961 6  22531858.769          41.000       -3368.879
 107255688.822 6  38470578.207          40.000        -730.562
   8588503.976 7  23793942.905          42.000        2853.601
  14156204.389 5  24508554.886          35.000       -3760.012
  -6238969.041 7  23430023.814          42.000        2289.353
 -17874611.799 7  20833014.145          43.000       -1823.807
  10880007.083 7  24602506.806          43.000       -3931.785
  16225458.11211  25827669.736           9.000       -4000.951
 16  6 24  0 23  0.0000000  0 10G09G19G06G03S20G07G22G02G23G17
 -22608275.378 7  20165972.626          47.000        -145.966
   8649427.865 7  23845192.222          45.000       -3660.794
   -238953.063 8  20642001.234          49.000        -204.469
     79330.050 6  22570379.339          37.000       -3380.932
 107299467.913 6  38478909.622          40.000        -727.686
   8417438.245 7  23761393.904          44.000        2848.172
  14381977.814 5  24551517.008          33.000       -3764.716
  -6375884.657 7  23403977.218          44.000        2274.586
 -17764460.432 7  20853978.086          44.000       -1847.430
  11115947.812 7  24647403.825          42.000       -3933.968
 16  6 24  0 24  0.0000000  0 10G09G19G06G03S20G07G22G02G23G17
 -22598584.387 7  20167817.655          47.000        -177.227
   8869547.346 7  23887080.720          46.000       -3677.235
   -225565.860 8  20644549.874          49.000        -242.257
    282531.564 6  22609055.670          40.000       -3393.076
 107343149.444 6  38487220.637          41.000        -727.846
   8246724.768 6  23728905.874          41.000        2841.469
  14608026.29714  24594531.149          29.000       -3769.752
  -6511866.449 7  23378099.208          44.000        2258.564
 -17652868.020 6  20875208.614          40.000       -1871.182
  11352013.248 6  24692324.769          41.000       -3935.558
 16  6 24  0 25  0.0000000  0 10G09G19G06G03S20G07G22G02G23G17
 -22586998.430 7  20170023.433          47.000        -208.968
   9090672.549 7  23929157.383          45.000       -3693.417
   -209851.586 8  20647539.340          49.000        -281.158
    486532.031 6  22647875.041          40.000       -3406.546
 107386811.887 6  38495529.820          41.000        -727.430
   8076467.013 6  23696504.309          37.000        2833.442
  14834426.08615  24637632.349          31.000       -3774.554
  -6646813.021 7  23352413.552          43.000        2240.419
 -17539762.217 6  20896733.981          41.000       -1897.678
  11588262.636 6  24737279.741          40.000       -3939.224
 16  6 24  0 26  0.0000000  0 11G26G09G19G06G03S20G07G22G02G23G17
   -673901.30012  25384177.722          13.000         892.462
 -22573558.447 7  20172581.355          47.000        -239.264
   9312739.247 7  23971417.465          46.000       -3708.372
   -191841.752 8  20650967.750          50.000        -319.509
    691287.217 6  22686836.578          39.000       -3418.750
 107430427.798 6  38503830.836          40.000        -726.914
   7906648.09115  23664177.397          35.000        2826.545
  15061133.38915  24680769.200          33.000       -3781.102
  -6780743.662 7  23326930.842          45.000        2223.814
 -17425192.062 7  20918538.691          43.000       -1921.598
  11824633.041 6  24782259.038          40.000       -3940.156
 16  6 24  0 27  0.0000000  0 11G26G09G19G06G03S20G07G22G02G23G17
   -726410.43812  25374215.498          13.000         856.325
 -22558277.433 7  20175486.119          45.000        -270.246
   9535712.248 7  24013848.874          47.000       -3723.642
   -171540.147 8  20654830.059          50.000        -357.779
    896781.068 6  22725945.430          37.000       -3431.471
 107473990.374 6  38512119.934          40.000        -726.826
   7737277.606 6  23631955.483          37.000        2818.739
  15288133.31115  24723959.641          34.000       -3788.335
  -6913650.241 7  23301640.416          45.000        2206.540
 -17309178.306 7  20940616.306          43.000       -1946.195
  12061090.929 6  24827258.124          39.000       -3941.194
 16  6 24  0 28  0.0000000  0 10G09G19G06G03S20G07G22G02G23G17
 -22541061.370 7  20178761.088          45.000        -302.883
   9759663.409 7  24056464.923          46.000       -3740.737
   -148843.616 8  20659147.801          49.000        -398.249
   1103104.72015  22765206.640          35.000       -3444.725
 107517593.057 6  38520417.233          41.000        -726.786
   7568475.645 6  23599836.856          41.000        2808.725
  15515516.125 5  24767230.125          32.000       -3792.150
  -7045416.162 7  23276564.086          44.000        2186.687
 -17191634.075 7  20962984.274          43.000       -1971.461
  12297709.445 6  24872282.024          38.000       -3944.632
 16  6 24  0 29  0.0000000  0 10G09G19G06G03S20G07G22G02G23G17
 -22521991.512 7  20182391.135          45.000        -332.752
   9984488.077 7  24099245.981          46.000       -3753.470
   -123824.587 8  20663910.088          50.000        -435.671
   1310174.64615  22804611.937          33.000       -3456.164
 107561161.253 6  38528708.600          40.000        -725.391
   7400184.398 6  23567811.902          41.000        2801.422
  15743199.98915  24810552.263          31.000       -3796.777
  -7176100.896 7  23251692.954          43.000        2169.469
 -17072648.428 6  20985622.755          41.000       -1994.622
  12534386.842 6  24917319.954          36.000       -3945.079
 16  6 24  0 30  0.0000000  0 10G26G09G19G06S20G07G22G02G23G17
   -874597.78214  25346277.001          24.000         773.758
 -22501095.094 7  20186370.343          46.000        -364.676
  10210137.486 7  24142186.099          47.000       -3768.455
    -96501.401 8  20669109.834          50.000        -475.721
 107604660.939 6  38536985.238          40.000        -725.258
   7232401.863 6  23535881.442          39.000        2791.297
  15971153.21915  24853927.187          31.000       -3802.816
  -7305708.897 7  23227029.078          42.000        2150.350
 -16952256.277 6  21008533.984          41.000       -2019.408
  12771075.439 5  24962361.689          34.000       -3947.484
 16  6 24  0 31  0.0000000  0 10G09G19G06G03S20G07G22G02G23G17
 -22478244.835 7  20190718.344          47.000        -397.052
  10436717.128 7  24185302.952          47.000       -3783.890
    -66738.138 8  20674773.302          49.000        -516.388
   1726353.83715  22883848.053          32.000       -3484.748
 107648218.404 6  38545274.964          40.000        -725.619
   7065279.549 6  23504081.543          40.000        2780.116
  16199502.77715  24897381.493          30.000       -3808.671
  -7434090.457 7  23202603.223          44.000        2129.877
 -16830336.747 6  21031733.787          40.000       -2044.400
  13007883.165 5  25007428.621          35.000       -3946.703
 16  6 24  0 32  0.0000000  0 10G09G19G06G03S20G07G22G02G23G17
 -22453539.871 7  20195418.298          47.000        -427.221
  10664105.973 7  24228575.112          47.000       -3796.482
    -34625.445 8  20680884.473          50.000        -554.814
   1935719.36015  22923681.264          33.000       -3496.099
 107691744.593 6  38553556.855          40.000        -725.254
   6898742.870 7  23472394.967          43.000        2770.575
  16428145.78414  24940893.366          28.000       -3813.273
  -7561321.835 7  23178391.500          44.000        2111.178
 -16706996.397 6  21055204.574          40.000       -2067.288
  13244691.309 5  25052489.987          33.000       -3947.944
 16  6 24  0 33  0.0000000  0  9G09G19G06G03S20G07G02G23G17
 -22426994.231 7  20200468.897          46.000        -458.031
  10892268.526 7  24271994.080          46.000       -3809.112
      -169.058 8  20687441.409          50.000        -593.922
   2145808.283 5  22963661.283          35.000       -3507.820
 107735223.837 6  38561829.881          40.000        -724.503
   6732803.239 6  23440812.795          41.000        2760.718
  -7687394.627 6  23154395.810          41.000        2091.441
 -16582256.449 6  21078941.913          39.000       -2090.702
  13481466.61314  25097538.561          27.000       -3945.437
 16  6 24  0 34  0.0000000  0  8G09G19G06G03S20G07G02G23
 -22398540.347 7  20205885.951          47.000        -490.100
  11121251.223 7  24315564.046          43.000       -3822.801
     36706.734 8  20694459.259          50.000        -634.292
   2356686.281 5  23003788.669          34.000       -3520.961
 107778738.906 6  38570111.108          40.000        -724.678
   6567554.427 6  23409359.441          36.000        2748.290
  -7812217.449 6  23130641.527          40.000        2069.862
 -16456055.759 6  21102953.727          38.000       -2115.417
 16  6 24  0 35  0.0000000  0  9G09G19G06G03S20G07G02G23G17
 -22368168.189 7  20211661.746          45.000        -522.463
  11351043.037 7  24359293.279          42.000       -3836.847
     76019.850 8  20701939.207          50.000        -675.852
   2568361.617 6  23044079.198          38.000       -3535.255
 107822307.473 6  38578402.230          40.000        -726.275
   6403031.607 6  23378055.460          37.000        2735.612
  -7935757.149 7  23107136.973          43.000        2047.964
 -16328391.105 6  21127252.091          39.000       -2140.306
  13955063.20615  25187665.463          30.000       -3947.305
 16  6 24  0 36  0.0000000  0  9G26G09G19G06G03S20G07G02G23
  -1122738.44614  25299663.474          25.000         587.918
 -22335827.270 7  20217817.154          46.000        -554.815
  11581672.308 7  24403180.559          42.000       -3850.071
    117828.641 8  20709895.564          50.000        -716.831
   2780883.299 6  23084523.254          39.000       -3548.713
 107865973.693 6  38586710.122          40.000        -727.672
   6239310.770 6  23346899.632          37.000        2721.780
  -8057939.865 7  23083887.612          44.000        2025.896
 -16199218.375 6  21151829.728          38.000       -2164.530
 16  6 24  0 37  0.0000000  0  9G26G09G19G06G03S20G07G02G23
  -1156970.36614  25293139.797          28.000         554.925
 -22301602.741 7  20224330.919          46.000        -586.027
  11813034.096 7  24447206.673          42.000       -3862.174
    162055.435 8  20718311.804          49.000        -757.060
   2994164.541 5  23125095.586          35.000       -3559.189
 107909653.308 6  38595023.632          40.000        -729.275
   6076331.946 6  23315888.361          38.000        2709.644
  -8178827.518 7  23060884.211          45.000        2003.555
 -16068629.146 6  21176683.375          39.000       -2188.609
 16  6 24  0 38  0.0000000  0 10G26G09G19G06G03S20G07G02G23G17
  -1189265.55014  25287003.986          24.000         521.249
 -22265474.908 7  20231205.484          46.000        -617.962
  12045127.531 7  24491376.891          43.000       -3874.180
    208727.412 8  20727191.557          49.000        -798.295
   3208223.822 6  23165838.947          39.000       -3574.475
 107953376.568 6  38603341.732          40.000        -729.092
   5914142.176 6  23285018.193          37.000        2696.234
  -8298376.471 7  23038130.628          45.000        1981.231
 -15936609.845 6  21201800.642          38.000       -2211.971
  14665125.09913  25322843.470          20.000       -3947.354
 16  6 24  0 39  0.0000000  0 10G26G09G19G06G03S20G07G02G23G17
  -1219677.44912  25281229.029          16.000         492.415
 -22227452.934 7  20238442.683          47.000        -649.401
  12277923.412 7  24535672.577          42.000       -3885.865
    257842.560 8  20736540.023          50.000        -838.518
   3423050.984 6  23206722.434          41.000       -3587.396
 107997133.167 6  38611668.435          39.000        -729.413
   5752757.499 6  23254311.830          38.000        2682.288
  -8416571.273 7  23015642.445          46.000        1958.608
 -15803175.999 6  21227190.465          37.000       -2235.721
  14901737.49513  25367880.999          23.000       -3943.038
 16  6 24  0 40  0.0000000  0  9G09G19G06G03S20G07G02G23G17
 -22187557.927 7  20246035.063          47.000        -681.117
  12511379.603 7  24580095.421          42.000       -3896.421
    309386.769 8  20746347.185          49.000        -879.628
   3638623.844 6  23247741.265          39.000       -3599.719
 108040918.298 6  38620000.932          40.000        -730.674
   5592183.306 6  23223759.885          41.000        2669.001
  -8533409.342 7  22993410.048          47.000        1935.562
 -15668354.135 5  21252843.663          35.000       -2257.810
  15138204.33613  25412866.683          21.000       -3932.441
 16  6 24  0 41  0.0000000  0  8G09G19G06G03S20G07G02G23
 -22145749.159 7  20253989.483          46.000        -712.072
  12745517.461 7  24624653.296          43.000       -3907.128
    363407.545 8  20756627.509          49.000        -920.332
   3854982.277 6  23288915.281          40.000       -3612.250
 108084782.401 6  38628350.268          40.000        -732.109
   5432487.172 6  23193367.277          39.000        2654.090
  -8648826.050 7  22971444.324          47.000        1912.479
 -15532110.309 6  21278772.872          36.000       -2281.376
 16  6 24  0 42  0.0000000  0  9G09G19G06G03S20G07G22G02G23
 -22102094.003 7  20262295.473          45.000        -743.188
  12980249.500 7  24669321.351          44.000       -3917.139
    419844.160 8  20767368.258          49.000        -960.618
   4072058.397 6  23330224.867          39.000       -3624.026
 108128653.372 6  38636695.834          40.000        -732.183
   5273627.978 6  23163142.435          41.000        2640.594
    184828.84314  25379473.039          25.000       -3868.104
  -8762864.302 7  22949742.222          47.000        1889.047
 -15394516.885 6  21304957.430          38.000       -2304.070
 16  6 24  0 43  0.0000000  0  9G26G09G19G06G03S20G07G02G23
  -1322583.09414  25261865.796          26.000         357.122
 -22056578.165 7  20270957.621          46.000        -773.861
  13215571.041 7  24714102.292          43.000       -3926.581
    478717.227 8  20778570.076          49.000       -1000.842
   4289865.686 6  23371664.754          37.000       -3636.195
 108172545.577 6  38645047.578          40.000        -731.900
   5115646.488 6  23133079.270          41.000        2625.197
  -8875485.594 7  22928311.888          47.000        1865.330
 -15255564.699 6  21331398.715          38.000       -2326.423
 16  6 24  0 44  0.0000000  0  9G26G09G19G06G03S20G07G02G23
  -1343472.24814  25257975.060          25.000         323.471
 -22009249.464 7  20279964.045          46.000        -804.404
  13451414.436 7  24758980.797          43.000       -3934.984
    539985.051 8  20790229.492          49.000       -1041.119
   4508356.010 6  23413248.134          41.000       -3647.273
 108216423.738 6  38653398.485          40.000        -732.088
   4958522.754 6  23103179.403          41.000        2611.092
  -8986712.670 7  22907148.003          47.000        1841.937
 -15115308.008 6  21358090.917          40.000       -2348.630
 16  6 24  0 45  0.0000000  0  8G09G19G06G03S20G07G02G23
 -21960083.083 7  20289320.485          46.000        -834.783
  13687785.584 7  24803963.846          44.000       -3943.569
    603678.499 8  20802349.785          49.000       -1081.563
   4727554.053 6  23454959.948          41.000       -3658.805
 108260313.820 6  38661750.525          40.000        -731.996
   4802307.207 6  23073449.607          40.000        2595.724
  -9096496.145 7  22886258.207          47.000        1817.695
 -14973725.860 6  21385031.209          40.000       -2371.109
 16  6 24  0 46  0.0000000  0  9G26G09G19G06G03S20G07G02G23
  -1379316.67914  25251310.962          25.000         259.037
 -21909139.727 7  20299015.355          46.000        -863.510
  13924605.093 7  24849029.016          45.000       -3950.278
    669742.537 8  20814922.160          49.000       -1120.419
   4947398.753 6  23496790.581          39.000       -3668.976
 108304169.457 6  38670095.952          40.000        -730.636
   4646967.071 6  23043882.901          36.000        2583.228
  -9204872.379 7  22865632.137          47.000        1794.615
 -14830885.147 6  21412213.501          41.000       -2390.727
 16  6 24  0 47  0.0000000  0  9G26G09G19G06G03S20G07G02G23
  -1393899.47114  25248535.557          28.000         225.798
 -21856464.202 7  20309038.673          47.000        -892.795
  14161808.964 7  24894163.411          43.000       -3956.643
    738137.784 7  20827935.032          47.000       -1159.623
   5167845.321 6  23538744.272          41.000       -3679.578
 108347958.866 6  38678429.461          40.000        -729.252
   4492484.560 6  23014490.626          41.000        2567.511
  -9311860.752 7  22845274.277          46.000        1770.936
 -14686835.589 6  21439625.332          40.000       -2411.631
 16  6 24  0 48  0.0000000  0  9G26G09G19G06G03S20G07G02G23
  -1406461.04711  25246176.933          11.000         206.159
 -21801970.427 7  20319407.924          46.000        -923.201
  14399464.927 7  24939391.251          43.000       -3964.288
    808955.674 8  20841412.778          48.000       -1200.048
   5388980.044 7  23580826.013          42.000       -3691.196
 108391762.921 6  38686765.919          40.000        -730.025
   4338973.130 6  22985278.822          41.000        2550.562
  -9417350.594 7  22825201.571          45.000        1746.085
 -14541496.018 6  21467281.188          40.000       -2433.803
 16  6 24  0 49  0.0010000  0  9G26G09G19G06G03S20G07G02G23
  -1417092.72513  25244126.935          19.000         168.377
 -21745713.582 7  20330113.982          46.000        -953.160
  14637502.693 7  24984689.871          44.000       -3970.816
    882146.321 8  20855340.390          48.000       -1240.235
   5610750.615 7  23623026.119          42.000       -3702.601
 108435528.810 6  38695093.948          40.000        -730.747
   4186401.424 7  22956246.442          42.000        2534.050
  -9521375.035 7  22805403.531          44.000        1720.535
 -14394924.026 6  21495175.728          40.000       -2454.345
 16  6 24  0 50  0.0010000  0  9G26G09G19G06G03S20G07G02G23
  -1425599.92714  25242527.866          24.000         124.012
 -21687661.662 7  20341161.505          46.000        -982.085
  14875929.847 7  25030059.582          43.000       -3976.431
    957745.940 8  20869726.611          48.000       -1279.941
   5833183.817 7  23665353.664          42.000       -3713.013
 108479300.118 6  38703423.879          40.000        -729.645
   4034836.207 6  22927401.424          40.000        2518.148
  -9623871.518 7  22785900.714          45.000        1695.496
 -14247095.690 6  21523306.508          41.000       -2473.906
 16  6 24  0 51  0.0010000  0  9G26G09G19G06G03S20G07G02G23
  -1432023.68814  25241303.542          25.000          90.901
 -21627903.580 7  20352528.874          44.000       -1010.718
  15114643.059 7  25075485.046          43.000       -3981.416
   1035670.517 8  20884556.487          48.000       -1318.508
   6056194.036 6  23707793.030          41.000       -3722.018
 108522990.721 6  38711736.954          40.000        -728.595
   3884211.892 7  22898741.779          42.000        2501.815
  -9724906.129 7  22766673.802          46.000        1671.251
 -14098102.862 6  21551656.900          41.000       -2493.569
 16  6 24  0 52  0.0010000  0  8G09G19G06G03S20G07G02G23
 -21566407.109 7  20364232.979          45.000       -1038.865
  15353656.423 7  25120970.766          44.000       -3985.982
   1115956.511 7  20899831.919          47.000       -1357.805
   6279813.956 6  23750341.721          39.000       -3731.905
 108566650.359 6  38720044.427          40.000        -727.543
   3734589.342 7  22870270.179          43.000        2485.441
  -9824421.446 7  22747736.390          47.000        1646.366
 -13947917.491 6  21580236.744          41.000       -2512.167
 16  6 24  0 53  0.0010000  0  8G09G19G06G03S20G07G02G23
 -21503206.031 7  20376260.769          45.000       -1067.356
  15592919.229 7  25166499.170          43.000       -3989.735
   1198574.256 8  20915555.699          48.000       -1396.520
   6504010.432 6  23793005.043          39.000       -3741.371
 108610256.358 6  38728344.361          40.000        -726.361
   3585962.140 7  22841988.611          43.000        2467.854
  -9922426.362 7  22729087.290          47.000        1620.719
 -13796577.246 7  21609037.735          42.000       -2532.398
 16  6 24  0 54  0.0010000  0  9G26G09G19G06G03S20G07G02G23
  -1440292.08414  25239903.005          27.000         -10.595
 -21438293.281 7  20388613.778          45.000       -1096.565
  15832420.701 6  25212072.699          41.000       -3994.874
   1283534.728 7  20931721.947          47.000       -1436.135
   6728791.493 6  23835786.294          41.000       -3752.042
 108653812.440 6  38736632.569          41.000        -726.450
   3438364.466 7  22813899.030          44.000        2450.743
 -10018888.132 8  22710732.086          48.000        1594.117
 -13644079.751 7  21638054.341          42.000       -2551.083
 16  6 24  0 55  0.0010000  0  9G26G09G19G06G03S20G07G02G23
  -1438582.24712  25240218.068          16.000         -28.052
 -21371611.334 7  20401301.988          45.000       -1125.330
  16072201.745 7  25257702.646          42.000       -3998.007
   1370898.912 7  20948345.845          47.000       -1475.211
   6954215.360 6  23878682.698          40.000       -3762.489
 108697379.065 6  38744922.591          41.000        -725.348
   3291882.270 6  22786021.330          41.000        2432.081
 -10113724.618 7  22692682.646          47.000        1567.511
 -13490370.894 7  21667306.577          43.000       -2571.519
 16  6 24  0 56  0.0010000  0 10G26G09G19G06G03S20G07G02G23G04
  -1435004.02213  25240926.093          21.000         -77.213
 -21303220.601 7  20414317.285          46.000       -1154.261
  16312185.217 6  25303368.626          41.000       -4001.711
   1460609.831 7  20965418.004          47.000       -1514.903
   7180222.55915  23921671.187          30.000       -3771.801
 108740909.255 6  38753204.848          41.000        -724.516
   3146482.912 7  22758354.673          43.000        2413.339
 -10206970.582 7  22674938.514          47.000        1540.290
 -13335514.666 7  21696773.940          43.000       -2590.664
     60802.43415  25202330.923          32.000        -867.537
 16  6 24  0 57  0.0010000  0 10G26G09G19G06G03S20G07G02G23G04
  -1429611.07214  25242081.664          24.000        -116.633
 -21233084.231 7  20427662.776          45.000       -1183.011
  16552390.651 6  25349079.367          41.000       -4004.455
   1552707.377 8  20982943.327          48.000       -1554.038
   7406850.98716  23964817.880          37.000       -3782.385
 108784441.677 6  38761489.968          41.000        -724.290
   3002231.418 7  22730906.056          43.000        2394.860
 -10298563.745 8  22657511.156          48.000        1513.262
 -13179477.472 7  21726468.975          44.000       -2609.429
    114100.92315  25212474.979          32.000        -906.505
 16  6 24  0 58  0.0000000  0 10G26G09G19G06G03S20G07G02G23G04
  -1421781.03614  24943804.254          28.000        -150.249
 -21161281.116 7  20141535.202          45.000       -1210.125
  16792723.326 6  25095022.624          41.000       -4006.450
   1647115.527 8  20701116.395          48.000       -1592.443
   7634023.183 6  23708261.359          41.000       -3790.250
 108827910.552 6  38469968.305          41.000        -723.162
   2859076.792 6  22403870.182          41.000        2377.000
 -10388557.679 7  22340592.499          47.000        1486.742
 -13022342.753 7  21456577.364          43.000       -2628.026
    169725.35415  24923262.539          33.000        -947.513
 16  6 24  1  1  0.0000000  0  9G09G19G06G03S20G07G02G23G04
 -20935797.307 7  20184442.077          45.000       -1296.406
  17514396.301 6  25232349.137          37.000       -4013.483
   1944301.926 7  20757669.322          47.000       -1711.061
   8318888.15714  23838620.121          28.000       -3822.229
 108958097.883 6  38494743.635          41.000        -725.211
   2436548.539 7  22323468.094          44.000        2315.992
 -10648616.731 7  22291104.972          46.000        1400.724
 -12544308.308 7  21547545.645          46.000       -2684.786
    350701.48915  24957706.005          33.000       -1066.318
 16  6 24  1  2  0.0000000  0 10G09G19G06G03S20G07G05G02G23G04
 -20857144.353 7  20199410.926          46.000       -1325.017
  17755259.662 6  25278187.299          38.000       -4015.135
   2048158.461 8  20777433.194          48.000       -1750.705
   8548430.69416  23882274.528          40.000       -3830.782
 109001586.415 6  38503019.261          41.000        -724.190
   2298244.654 7  22297149.117          43.000        2294.491
  -1152653.92112  25450428.399          13.000        2754.621
 -10731777.899 7  22275279.649          46.000        1371.319
 -12382630.353 7  21578309.245          45.000       -2704.041
    415884.78714  24970104.245          28.000       -1110.974
 16  6 24  1  3  0.0000000  0 11G26G09G19G06G03S20G07G05G02G23G04
  -1351926.92014  24957488.576          28.000        -329.859
 -20776820.971 7  20214693.914          45.000       -1352.065
  17996174.796 6  25324032.999          39.000       -4015.565
   2154339.577 7  20797638.732          47.000       -1788.579
   8778527.325 7  23926058.748          43.000       -3839.384
 109045051.437 6  38511289.618          41.000        -724.124
   2161181.494 7  22271066.887          44.000        2274.836
  -1317467.49711  25419090.740           8.000        2754.911
 -10813209.452 7  22259783.524          46.000        1343.281
 -12219865.491 7  21609284.114          46.000       -2721.062
    483432.79714  24982962.369          28.000       -1144.262
 16  6 24  1  4  0.0000000  0  9G09G19G06G03S20G07G02G23G04
 -20694869.763 7  20230289.348          45.000       -1379.917
  18237084.170 6  25369876.309          40.000       -4015.631
   2262803.956 7  20818278.762          47.000       -1827.463
   9009137.156 6  23969942.625          41.000       -3849.026
 109088463.578 6  38519549.800          41.000        -722.504
   2025344.110 7  22245217.060          43.000        2252.214
 -10892929.143 7  22244612.724          46.000        1313.385
 -12056059.619 7  21640456.119          47.000       -2739.300
    553308.80815  24996258.353          30.000       -1184.787
 16  6 24  1  5  0.0000000  0 11G26G09G19G06G03S20G07G05G02G23G04
  -1309010.12115  24965839.081          30.000        -398.984
 -20611232.894 7  20246204.260          44.000       -1407.799
  18478030.174 6  25415728.083          40.000       -4016.241
   2373610.517 7  20839363.982          46.000       -1865.763
   9240319.806 6  24013941.499          37.000       -3856.576
 109131884.138 6  38527811.693          41.000        -724.305
   1890819.577 7  22219620.923          46.000        2231.353
  -1647371.06214  25356297.527          24.000        2751.890
 -10970853.922 7  22229784.192          47.000        1283.957
 -11891157.115 7  21671833.146          45.000       -2757.711
    625575.86015  25010010.520          32.000       -1222.740
 16  6 24  1  6  0.0000000  0 10G09G19G06G03S20G07G05G02G23G04
 -20526014.872 7  20262421.079          44.000       -1433.436
  18718893.860 6  25461562.982          39.000       -4012.312
   2486655.427 7  20860876.087          47.000       -1902.357
   9471972.511 5  24058028.218          35.000       -3865.192
 109175228.452 6  38536061.266          41.000        -721.234
   1757530.697 7  22194255.182          45.000        2212.181
  -1812359.47314  25324895.249          24.000        2756.238
 -11047063.095 7  22215282.345          47.000        1256.123
 -11725265.662 7  21703401.166          46.000       -2772.705
    700136.92215  25024200.985          31.000       -1259.507
 16  6 24  1  7  0.0000000  0 12G26G09G16G19G06G03S20G07G05G02G23G04
  -1257480.76515  24975811.060          32.000        -473.074
 -20439205.038 7  20278941.759          45.000       -1460.672
   2127015.64015  24631517.042          32.000        1184.849
  18959671.538 6  25507383.240          38.000       -4012.977
   2601949.864 7  20882814.780          46.000       -1940.997
   9704107.616 5  24102203.182          35.000       -3873.584
 109218519.131 6  38544299.357          41.000        -721.512
   1625516.125 7  22169131.388          43.000        2188.449
  -1977438.94513  25293505.344          23.000        2752.367
 -11121521.058 7  22201112.838          47.000        1225.635
 -11558375.779 8  21735162.185          48.000       -2790.243
    777006.01014  25038825.838          27.000       -1302.001
 16  6 24  1  8  0.0000000  0 10G09G19G06G03S20G07G05G02G23G04
 -20350769.880 7  20295770.766          46.000       -1486.994
  19200381.08015  25553186.187          35.000       -4011.616
   2719527.584 7  20905189.921          47.000       -1977.713
   9936760.590 6  24146463.548          36.000       -3880.293
 109261793.999 6  38552534.691          41.000        -720.125
   1494838.074 7  22144265.578          45.000        2167.506
  -2142495.22814  25262085.983          27.000        2752.487
 -11194169.447 7  22187288.444          47.000        1196.760
 -11390456.602 8  21767115.872          48.000       -2806.290
    856221.72514  25053909.754          24.000       -1338.378
 16  6 24  1  9  0.0000000  0 11G26G09G19G06G03S20G07G05G02G23G04
  -1196067.65214  24987418.037          28.000        -543.574
 -20260783.800 7  20312892.815          44.000       -1512.446
  19440935.14415  25598957.411          31.000       -4007.854
   2839314.061 7  20927986.362          47.000       -2014.847
  10169858.749 6  24190821.478          36.000       -3888.701
 109304992.236 6  38560754.825          41.000        -718.685
   1365449.239 7  22119643.879          44.000        2146.024
  -2307622.49614  25230663.533          26.000        2754.406
 -11265057.697 7  22173797.541          46.000        1167.053
 -11221584.674 8  21799252.053          49.000       -2822.276
    937714.92214  25069407.955          27.000       -1375.355
 16  6 24  1 10  0.0000000  0 12G26G09G16G19G06G03S20G07G05G02G23G04
  -1162365.33613  24993823.192          21.000        -581.204
 -20169241.970 7  20330310.314          43.000       -1538.929
   1979424.79715  24592311.900          31.000        1100.571
  19681324.16215  25644703.174          33.000       -4005.698
   2961313.940 7  20951198.973          46.000       -2052.066
  10403409.105 6  24235263.955          37.000       -3896.751
 109348118.170 6  38568961.366          41.000        -718.182
   1237382.701 7  22095275.767          46.000        2122.948
  -2472793.70013  25199242.671          22.000        2753.924
 -11334156.198 7  22160648.157          45.000        1136.036
 -11051757.168 8  21831569.054          48.000       -2838.957
   1021494.07415  25085354.400          32.000       -1415.560
 16  6 24  1 11  0.0000000  0 10G09G19G06G03S20G07G05G02G23G04
 -20076099.747 7  20348040.154          46.000       -1565.807
  19921579.58615  25690423.844          33.000       -4003.173
   3085571.228 8  20974847.752          48.000       -2090.102
  10637458.273 6  24279801.133          38.000       -3904.543
 109391221.118 6  38577161.433          41.000        -717.534
   1110710.999 7  22071167.506          44.000        2099.555
  -2637950.56315  25167811.513          31.000        2752.495
 -11401396.027 7  22147855.262          46.000        1104.746
 -10880931.160 7  21864074.115          47.000       -2855.853
   1107607.08215  25101737.520          31.000       -1454.456
 16  6 24  1 12  0.0000000  0 11G26G09G19G06G03S20G07G05G02G23G04
  -1089382.31313  25007893.477          23.000        -651.246
 -19981463.306 7  20366044.102          44.000       -1589.900
  20161580.92815  25736096.124          31.000       -3998.541
   3211978.979 7  20998899.614          46.000       -2124.504
  10871902.131 6  24324415.407          39.000       -3910.807
 109434213.686 6  38585343.177          40.000        -715.690
    985356.168 7  22047314.053          45.000        2078.406
  -2803181.01814  25136375.103          28.000        2754.573
 -11466858.184 7  22135398.686          46.000        1076.288
 -10709214.714 8  21896751.672          48.000       -2868.957
   1195951.91815  25118551.032          33.000       -1490.550
 16  6 24  1 13  0.0000000  0 11G26G09G19G06G03S20G07G05G02G23G04
  -1049324.43114  25015509.904          25.000        -686.089
 -19885368.757 7  20384331.913          45.000       -1614.449
  20401279.37614  25781718.549          29.000       -3993.117
   3340499.933 7  21023357.752          47.000       -2160.333
  11106706.826 6  24369098.853          39.000       -3916.806
 109477074.075 6  38593500.089          40.000        -714.377
    861309.665 7  22023705.549          43.000        2055.732
  -2968501.00814  25104916.042          29.000        2753.425
 -11530554.341 7  22123277.905          46.000        1046.173
 -10536645.174 8  21929591.691          48.000       -2883.813
   1286495.510 6  25135783.680          36.000       -1528.469
 16  6 24  1 14  0.0000000  0 11G26G09G16G06G03S20G07G05G02G23G04
  -1006981.53214  25023569.392          27.000        -725.175
 -19787621.133 7  20402933.792          45.000       -1642.934
   1729076.09015  24544882.959          30.000         976.566
   3471327.731 7  21048252.425          46.000       -2199.048
  11342069.342 6  24413892.027          38.000       -3927.320
 109520001.663 6  38601669.251          40.000        -716.484
    738793.657 7  22000394.152          44.000        2029.770
  -3133698.43615  25073480.121          30.000        2751.826
 -11592265.661 8  22111535.322          48.000        1011.930
 -10363028.971 8  21962629.612          48.000       -2901.904
   1379436.253 6  25153466.108          36.000       -1569.091
 16  6 24  1 15  0.0000000  0 11G26G09G19G06G03S20G07G05G02G23G04
   -962512.88514  25032030.688          29.000        -757.729
 -19688385.195 7  20421815.417          44.000       -1665.428
  20879985.47914  25872840.358          27.000       -3983.884
   3604295.956 7  21073554.438          46.000       -2233.017
  11577827.244 6  24458757.985          38.000       -3931.484
 109562846.837 6  38609821.661          40.000        -713.036
    617671.922 7  21977344.700          43.000        2008.084
  -3298918.27315  25042030.832          32.000        2751.753
 -11652132.439 7  22100142.074          47.000         982.962
 -10188532.445 8  21995834.811          48.000       -2914.645
   1474611.355 6  25171578.840          36.000       -1603.852
 16  6 24  1 16  0.0000000  0 11G26G09G16G19G06G03S20G07G02G23G04
   -915918.45315  25040903.199          35.000        -795.756
 -19587673.289 7  20440980.781          44.000       -1691.377
   1615221.17515  24523303.583          32.000         913.430
  21118939.16214  25918307.022          29.000       -3980.806
   3739390.352 7  21099262.657          46.000       -2269.731
  11813970.230 6  24503692.732          40.000       -3939.597
 109605594.365 6  38617957.023          40.000        -712.549
    497959.544 7  21954565.413          45.000        1983.023
 -11710143.136 7  22089102.543          47.000         950.488
 -10013169.156 8  22029206.695          48.000       -2930.622
   1572010.521 5  25190112.315          34.000       -1643.350
 16  6 24  1 17  0.0000000  0 12G26G09G16G19G06G03S20G07G05G02G23G04
   -867099.536 5  25050189.681          33.000        -832.040
 -19485398.884 7  20460443.917          45.000       -1717.600
   1561428.92615  24513060.270          33.000         881.102
  21357642.22414  25963739.799          27.000       -3975.037
   3876695.355 7  21125391.513          46.000       -2306.327
  12050587.179 7  24548716.405          42.000       -3947.458
 109648337.774 6  38626090.587          40.000        -712.617
    379770.101 7  21932075.223          46.000        1957.271
  -3629548.71814  24979167.278          28.000        2751.618
 -11766187.406 7  22078437.197          47.000         917.439
  -9836853.835 8  22062757.653          48.000       -2946.145
   1671722.986 6  25209086.722          37.000       -1681.167
 16  6 24  1 18  0.0000000  0 11G26G09G16G06G03S20G07G05G02G23G04
   -816115.49815  25059894.934          30.000        -867.950
 -19381632.241 7  20480190.740          46.000       -1741.308
   1509581.330 5  24503190.602          32.000         848.120
   4016138.256 7  21151928.461          47.000       -2341.456
  12287610.090 7  24593819.808          43.000       -3953.309
 109691026.726 6  38634213.384          40.000        -710.608
    263060.202 7  21909865.389          46.000        1932.515
  -3794658.71414  24947720.101          25.000        2752.340
 -11820311.466 7  22068137.921          47.000         885.990
  -9659657.549 7  22096477.197          47.000       -2960.649
   1773679.597 6  25228488.625          36.000       -1718.696
 16  6 24  1 19  0.0000000  0 10G26G09G16G06G03S20G07G02G23G04
   -762983.64315  25070001.018          31.000        -902.781
 -19276400.693 7  20500214.062          44.000       -1766.529
   1459670.66614  24493673.811          27.000         813.884
   4157689.080 7  21178863.710          46.000       -2377.018
  12525013.999 7  24638996.468          44.000       -3960.339
 109733647.951 6  38642324.821          40.000        -709.684
    147831.255 7  21887939.818          46.000        1907.584
 -11872519.549 7  22058203.530          47.000         853.650
  -9481608.740 7  22130357.458          46.000       -2975.355
   1877854.354 5  25248315.841          35.000       -1755.333
 16  6 24  1 20  0.0000000  0 11G26G09G16G06G03S20G07G29G02G23G04
   -707637.08914  25080539.467          28.000        -940.851
 -19169647.501 7  20520528.210          45.000       -1790.602
   1411569.98014  24484564.065          27.000         781.713
   4301401.590 7  21206209.806          45.000       -2412.165
  12762857.781 7  24684255.544          43.000       -3966.486
 109776262.331 6  38650434.565          40.000        -708.745
     34166.298 7  21866308.075          44.000        1882.666
    -29479.12714  25074455.361          26.000         475.258
 -11922730.806 8  22048648.663          48.000         821.138
  -9302651.159 7  22164411.698          46.000       -2988.832
   1984305.991 6  25268570.379          36.000       -1791.950
 16  6 24  1 21  0.0000000  0 13G26G09G16G06G03S20G07G29G05G02G23G04
                                G30
   -650473.82814  25091478.467          29.000        -974.785
 -19061477.784 7  20541112.888          45.000       -1813.194
   1365650.09915  24475839.462          32.000         749.097
   4447167.438 7  21233949.213          46.000       -2445.683
  13001038.786 7  24729580.234          43.000       -3970.719
 109818778.734 6  38658524.329          40.000        -707.468
    -78012.940 7  21844959.932          43.000        1858.360
    -57011.10014  25069215.287          29.000         444.610
  -4289548.66214  24853528.380          29.000        2749.806
 -11971027.264 7  22039456.796          46.000         790.086
  -9122891.241 7  22198619.394          47.000       -3001.728
   2092928.88315  25289236.131          32.000       -1828.568
    328513.80516  23552970.719          41.000        2994.029
 16  6 24  1 22  0.0000000  0 12G09G16G06G03S20G07G29G05G02G23G04G30
 -18951940.572 7  20561958.394          45.000       -1837.884
   1321662.10715  24467465.451          31.000         716.001
   4594934.169 7  21262068.826          46.000       -2480.436
  13239510.307 7  24774961.252          42.000       -3977.726
 109861153.489 6  38666588.982          40.000        -705.864
   -188728.416 7  21823893.017          45.000        1831.866
    -82579.30113  25064348.177          23.000         402.386
  -4454512.56815  24822142.453          30.000        2747.851
 -12017435.565 7  22030625.747          46.000         756.912
  -8942378.467 7  22232968.665          46.000       -3015.576
   2203673.393 5  25310314.197          33.000       -1864.122
    149228.200 7  23518854.078          42.000        2983.066
 16  6 24  1 23  0.0000000  0 12G09G16G06G03S20G07G29G05G02G23G04G30
 -18840962.504 7  20583077.294          45.000       -1861.345
   1279705.03816  24459488.590          37.000         682.738
   4744771.468 7  21290582.290          46.000       -2513.862
  13478348.150 6  24820414.271          41.000       -3982.666
 109903469.306 6  38674641.036          40.000        -704.277
   -297879.254 7  21803121.988          45.000        1807.001
   -105972.72414  25059892.700          25.000         373.360
  -4619390.98914  24790780.084          26.000        2747.455
 -12061859.010 7  22022169.685          44.000         724.711
  -8761039.058 8  22267478.285          48.000       -3028.452
   2316614.04115  25331805.797          30.000       -1900.494
    -29454.576 6  23484848.699          40.000        2973.103
 16  6 24  1 24  0.0000000  0 12G09G16G06G03S20G07G29G05G02G23G04G30
 -18728620.148 7  20604454.788          45.000       -1883.925
   1239730.147 5  24451871.989          31.000         650.186
   4896598.709 7  21319473.062          45.000       -2546.808
  13717478.093 6  24865922.833          38.000       -3988.362
 109945656.215 6  38682669.463          40.000        -701.982
   -405516.284 7  21782639.080          45.000        1781.391
   -127346.08514  25055826.398          28.000         339.366
  -4784241.51914  24759393.250          28.000        2746.702
 -12104351.809 7  22014084.947          45.000         692.401
  -8578950.773 8  22302127.664          48.000       -3040.991
   2431673.98614  25353693.955          26.000       -1935.310
   -207580.359 6  23450951.738          41.000        2964.293
 16  6 24  1 25  0.0000000  0 12G09G16G06G03S20G07G29G05G02G23G04G30
 -18614920.890 7  20626093.564          47.000       -1906.032
   1201750.91315  24444655.068          34.000         616.481
   5050404.389 7  21348741.579          46.000       -2579.915
  13956895.238 5  24911481.408          34.000       -3990.563
 109987711.457 6  38690672.673          40.000        -698.932
   -511620.177 7  21762447.659          45.000        1755.613
   -146666.26114  25052150.876          27.000         305.167
  -4949221.67213  24728022.557          23.000        2746.565
 -12144898.711 7  22006371.183          45.000         659.666
  -8396121.181 7  22336919.036          47.000       -3052.985
   2548846.01015  25375998.282          31.000       -1969.363
   -385125.367 6  23417166.965          41.000        2953.917
 16  6 24  1 26  0.0000000  0 12G09G16G06G03S20G07G29G05G02G23G04G30
 -18499847.848 7  20647987.741          44.000       -1929.653
   1165822.041 5  24437816.031          34.000         579.974
   5206200.797 7  21378388.313          46.000       -2614.051
  14196618.72515  24957094.759          30.000       -3997.563
 110029673.465 6  38698657.003          40.000        -698.688
   -616146.929 7  21742557.395          44.000        1728.472
   -164015.42114  25048876.500          27.000         270.009
  -5114011.46114  24696666.017          29.000        2742.390
 -12183461.017 7  21999033.890          46.000         625.425
  -8212533.756 8  22371854.459          48.000       -3066.739
   2668144.57814  25398699.410          28.000       -2006.383
   -562041.918 6  23383501.272          41.000        2942.997
 16  6 24  1 27  0.0000000  0 13G26G09G16G06G03S20G07G29G05G02G23G04
                                G30
    175179.44813  25165542.897          22.000       -1190.238
 -18383322.689 7  20670162.954          44.000       -1953.914
   1132042.05315  24431388.976          32.000         544.485
   5364061.561 7  21408427.955          45.000       -2647.999
  14436729.22515  25002784.560          33.000       -4003.781
 110071633.391 6  38706643.113          40.000        -699.018
   -718992.910 7  21722986.836          44.000        1700.498
   -179069.89214  25046006.864          27.000         234.042
  -5278654.37014  24665332.598          27.000        2742.470
 -12219937.557 7  21992092.211          46.000         590.942
  -8028109.978 7  22406949.185          47.000       -3079.933
   2789646.49315  25421819.378          30.000       -2042.760
   -738220.681 7  23349976.158          42.000        2929.827
 16  6 24  1 28  0.0000000  0 12G26G09G16G06G03S20G07G29G05G02G23G30
    247555.00513  25179305.814          23.000       -1224.636
 -18265416.604 7  20692598.682          43.000       -1976.735
   1100364.95115  24425365.527          31.000         512.365
   5523910.481 7  21438845.273          45.000       -2679.943
  14677158.01115  25048531.963          32.000       -4007.969
 110113526.296 6  38714615.297          40.000        -697.498
   -820202.621 7  21703727.101          44.000        1673.125
   -191994.06114  25043546.157          27.000         196.065
  -5443082.70715  24634054.967          33.000        2738.815
 -12254378.577 7  21985537.787          46.000         556.787
  -7842921.320 7  22442190.266          47.000       -3092.608
   -913701.876 6  23316582.950          40.000        2919.096
 16  6 24  1 29  0.0010000  0 12G26G09G06G03S20G07G29G05G02G23G04G30
    322083.50815  25193489.090          31.000       -1258.321
 -18146128.930 7  20715298.501          43.000       -1999.820
   5685743.873 7  21469641.679          45.000       -2713.874
  14917910.43815  25094342.467          31.000       -4016.182
 110155367.414 6  38722577.744          40.000        -696.588
   -919753.418 7  21684783.494          45.000        1644.996
   -202775.14915  25041505.215          30.000         162.698
  -5607366.77814  24602802.361          26.000        2736.060
 -12286764.212 7  21979375.330          47.000         522.361
  -7656965.865 7  22477575.731          47.000       -3105.622
   3038518.16215  25469283.604          31.000       -2115.171
  -1088458.599 6  23283327.477          41.000        2905.274
 16  6 24  1 30  0.0010000  0 11G26G09G06G03S20G07G29G05G02G23G30
    398839.84814  25208094.486          29.000       -1297.800
 -18025391.849 7  20738275.203          44.000       -2024.084
   5849622.446 7  21500827.679          46.000       -2748.073
  15159052.41715  25140241.408          34.000       -4021.828
 110197224.547 6  38730541.814          40.000        -697.374
  -1017544.228 7  21666172.732          44.000        1615.340
   -211325.86814  25039867.337          28.000         123.941
  -5771409.54514  24571579.925          29.000        2731.868
 -12317000.263 7  21973621.958          47.000         486.091
  -7470177.732 8  22513119.783          48.000       -3120.052
  -1262382.285 6  23250229.736          39.000        2892.113
 16  6 24  1 31  0.0010000  0 13G26G09G16G06G03S20G07G29G05G02G23G04
                                G30
    477783.71415  25223121.008          31.000       -1333.529
 -17903252.058 7  20761518.492          44.000       -2047.085
   1016952.50513  24409783.094          23.000         397.978
   6015494.602 7  21532390.969          45.000       -2780.946
  15400541.687 6  25186198.616          37.000       -4027.225
 110239057.829 6  38738501.853          40.000        -696.258
  -1113600.343 7  21647893.507          44.000        1586.334
   -217678.94814  25038660.742          26.000          88.821
  -5935241.27414  24540407.711          29.000        2728.623
 -12345114.987 7  21968271.495          47.000         450.888
  -7282602.371 8  22548815.530          48.000       -3132.712
   3295699.38414  25518391.326          29.000       -2186.179
  -1435493.502 7  23217292.241          42.000        2878.703
 16  6 24  1 32  0.0010000  0 12G26G09G06G03S20G07G29G05G02G23G04G30
    558890.22115  25238550.717          31.000       -1369.207
 -17779740.582 7  20785020.619          42.000       -2069.843
   6183323.286 7  21564331.604          46.000       -2813.206
  15642349.464 6  25232209.361          38.000       -4033.404
 110280855.945 6  38746456.361          41.000        -696.567
  -1207926.944 7  21629944.754          44.000        1557.185
   -221840.62113  25037855.414          22.000          52.119
  -6098858.09013  24509254.605          21.000        2732.431
 -12371118.646 7  21963323.643          47.000         415.464
  -7094270.778 8  22584653.024          48.000       -3144.847
   3427917.08914  25543552.656          27.000       -2220.119
  -1607792.237 6  23184502.549          40.000        2865.128
 16  6 24  1 33  0.0010000  0 13G26G09G16G06G03S20G07G29G05G02G23G04
                                G30
    642134.40515  25254390.681          30.000       -1407.217
 -17654888.065 6  20808777.747          41.000       -2092.203
    972240.68915  24401438.644          32.000         326.567
   6353071.702 7  21596630.875          45.000       -2844.958
  15884447.813 6  25278280.797          39.000       -4037.268
 110322603.245 6  38754400.223          41.000        -695.960
  -1300529.521 7  21612322.739          43.000        1529.210
   -223830.65514  25037490.687          26.000          15.005
  -6262293.60215  24478173.045          34.000        2721.188
 -12395021.524 7  21958772.905          46.000         380.656
  -6905212.689 8  22620631.744          48.000       -3156.895
   3562213.46614  25569103.334          28.000       -2255.357
  -1779278.090 6  23151864.046          38.000        2851.547
 16  6 24  1 34  0.0010000  0 13G26G09G16G06G03S20G07G29G05G02G23G04
                                G30
    727559.63715  25270652.138          30.000       -1440.586
 -17528656.957 6  20832798.251          40.000       -2115.482
    953745.974 5  24397921.815          32.000         289.270
   6524770.945 7  21629303.528          45.000       -2878.151
  16126876.498 6  25324413.955          36.000       -4043.303
 110364342.311 6  38762345.168          41.000        -695.657
  -1391345.468 7  21595043.620          45.000        1498.802
   -223616.50915  25037530.701          30.000         -19.917
  -6425479.747 5  24447122.232          32.000        2716.336
 -12416765.765 7  21954636.174          47.000         344.034
  -6715390.240 7  22656749.122          46.000       -3170.209
   3698622.27314  25595064.529          27.000       -2290.560
  -1949882.44216  23119398.334          36.000        2836.139
 16  6 24  1 35  0.0010000  0 13G26G09G16G06G03S20G07G29G05G02G23G04
                                G30
    815073.94815  25287304.794          33.000       -1477.168
 -17401143.643 7  20857065.327          42.000       -2136.160
    937427.28214  24394801.646          26.000         254.323
   6698317.821 7  21662329.566          46.000       -2907.529
  16369541.355 6  25370589.012          36.000       -4046.237
 110405991.311 6  38770268.492          40.000        -693.031
  -1480447.318 7  21578088.308          46.000        1470.855
   -221265.09315  25037976.257          30.000         -56.442
  -6588487.33615  24416112.811          31.000        2714.958
 -12436428.085 7  21950894.533          47.000         310.634
  -6524899.288 7  22693000.711          45.000       -3180.198
   3837044.46215  25621407.099          30.000       -2323.904
  -2119670.834 6  23087093.008          38.000        2823.011
 16  6 24  1 36  0.0010000  0 13G26G09G16G06G03S20G07G29G05G02G23G04
                                G30
    904689.59615  25304357.617          34.000       -1511.043
 -17272341.746 6  20881576.147          41.000       -2157.763
    923312.93115  24392137.381          35.000         216.656
   6873712.027 7  21695705.376          45.000       -2938.418
  16612451.152 5  25416812.998          34.000       -4050.813
 110447557.767 6  38778179.932          41.000        -691.139
  -1567802.875 7  21561462.160          45.000        1441.627
   -216756.63514  25038844.283          27.000         -93.474
  -6751292.36715  24385130.822          35.000        2710.575
 -12453982.164 7  21947554.963          47.000         275.129
  -6333732.851 7  22729379.058          45.000       -3191.461
   3977479.14014  25648122.963          25.000       -2357.360
  -2288605.868 7  23054948.922          42.000        2808.236
 16  6 24  1 37  0.0010000  0 13G26G09G16G06G03S20G07G29G05G02G23G04
                                G30
    996428.65615  25321813.699          34.000       -1546.785
 -17142233.344 6  20906333.643          41.000       -2179.794
    911446.50413  24389868.557          22.000         178.028
   7050964.214 7  21729435.233          45.000       -2969.937
  16855626.29515  25463084.589          32.000       -4056.485
 110489066.102 6  38786077.638          41.000        -691.534
  -1653370.771 7  21545181.333          45.000        1410.646
   -210016.90014  25040117.277          26.000        -130.556
  -6913852.186 6  24354186.788          37.000        2706.557
 -12469391.352 7  21944621.145          47.000         238.579
  -6141872.044 7  22765888.700          45.000       -3203.700
   4119944.46414  25675238.979          27.000       -2392.343
  -2456638.612 7  23022975.027          43.000        2793.070
 16  6 24  1 38  0.0010000  0 12G26G09G16G06G03S20G07G05G02G23G04G30
   1090339.025 5  25339685.165          34.000       -1582.409
 -17010774.796 7  20931351.305          42.000       -2202.236
    901888.57916  24388060.260          36.000         139.975
   7230110.667 7  21763528.404          47.000       -3000.828
  17099112.60714  25509416.243          28.000       -4060.848
 110530579.467 6  38793977.404          41.000        -691.568
  -1737082.402 7  21529251.937          45.000        1379.948
  -7076103.50914  24323300.932          29.000        2702.774
 -12482592.265 7  21942109.779          46.000         201.847
  -5949272.873 7  22802537.891          44.000       -3215.364
   4264478.09414  25702744.588          27.000       -2424.145
  -2623694.609 6  22991180.940          40.000        2775.725
 16  6 24  1 39  0.0000000  0 12G26G09G16G06G03S20G07G05G02G23G04G30
   1186365.31015  25058168.392          34.000       -1617.627
 -16878025.241 7  20656819.593          43.000       -2222.277
    894605.77615  24086876.290          32.000         101.530
   7411084.749 7  21498172.732          46.000       -3031.088
  17342853.39214  25256012.836          29.000       -4060.842
 110572053.812 6  38502079.026          41.000        -690.553
  -1818973.430 7  21213875.669          45.000        1349.945
  -7238079.63416  23992694.516          38.000        2697.005
 -12493625.936 7  21640217.033          47.000         165.924
  -5755993.294 7  22539528.419          45.000       -3226.709
   4411016.78013  25430839.203          23.000       -2459.016
  -2789801.974 6  22659777.520          40.000        2760.979
 16  6 24  1 40  0.0000000  0 11G26G09G16G06G03S20G07G05G02G23G30
   1284483.50515  25076838.310          33.000       -1651.806
 -16744013.012 7  20682322.894          43.000       -2244.247
    889590.41615  24085923.927          31.000          63.626
   7593850.222 7  21532949.934          45.000       -3061.168
  17586822.74914  25302436.680          27.000       -4067.007
 110613466.661 6  38509958.899          41.000        -689.082
  -1899048.477 7  21198637.267          45.000        1319.426
  -7399787.645 5  23961918.718          35.000        2691.134
 -12502501.820 7  21638529.022          47.000         130.206
  -5562060.194 7  22576429.120          42.000       -3237.333
  -2954958.356 6  22628349.940          41.000        2744.916
 16  6 24  1 41  0.0000000  0 11G26G09G16G06S20G07G05G02G23G04G30
   1384706.37415  25095911.765          33.000       -1688.340
 -16608727.421 6  20708065.141          41.000       -2266.122
    886873.54115  24085409.093          33.000          26.714
   7778409.720 7  21568070.993          44.000       -3091.884
 110654843.080 6  38517832.943          41.000        -689.880
  -1977274.279 7  21183752.144          46.000        1287.652
  -7561182.73415  23931204.433          30.000        2687.056
 -12509191.098 7  21637255.417          47.000          92.506
  -5367463.002 6  22613454.504          40.000       -3249.335
   4709456.65412  25487726.686          17.000       -2525.013
  -3119122.370 6  22597108.518          40.000        2727.131
 16  6 24  1 42  0.0000000  0 12G26G09G16G06S20G07G29G05G02G23G04G30
   1487070.55615  25115389.070          35.000       -1724.849
 -16472134.613 6  20734060.940          41.000       -2287.806
    886510.47214  24085330.532          28.000         -13.476
   7964788.904 7  21603536.240          44.000       -3120.917
 110696217.775 6  38525705.435          41.000        -689.858
  -2053592.322 7  21169227.944          45.000        1255.709
   -146570.90814  24753014.550          25.000        -314.987
  -7722233.49315  23900570.052          33.000        2680.227
 -12513642.357 7  21636410.007          47.000          55.450
  -5172165.914 6  22650620.518          40.000       -3260.438
   4862051.29512  25516761.336          12.000       -2561.598
  -3282229.306 7  22566072.398          42.000        2709.936
 16  6 24  1 43  0.0000000  0 11G26G09G16G06S20G07G29G05G02G23G30
   1591534.276 5  25135267.660          35.000       -1758.597
 -16334279.847 6  20760287.117          38.000       -2308.029
    888476.51715  24085704.874          30.000         -52.916
   8152934.000 7  21639339.846          45.000       -3149.865
 110737550.755 6  38533570.789          41.000        -688.464
  -2128025.817 7  21155064.980          45.000        1224.838
   -126569.03314  24756826.829          29.000        -351.822
  -7882949.98414  23869970.764          28.000        2676.793
 -12515883.505 7  21635982.005          46.000          19.409
  -4976213.479 7  22687913.536          42.000       -3271.312
  -3444293.811 7  22535232.297          42.000        2692.133
 16  6 24  1 44  0.0000000  0 11G26G09G16G06G03S20G07G05G02G23G30
   1698106.290 5  25155547.099          35.000       -1794.686
 -16195156.044 6  20786761.278          38.000       -2329.637
    892797.42716  24086533.131          36.000         -92.647
   8342843.358 7  21675479.753          45.000       -3179.856
  18565124.42513  25488610.627          20.000       -4087.820
 110778870.130 6  38541434.502          41.000        -689.081
  -2200544.971 7  21141263.394          45.000        1192.361
  -8043299.74916  23839457.278          36.000        2669.672
 -12515890.490 7  21635981.848          47.000         -18.810
  -4779597.530 7  22725325.284          42.000       -3282.582
  -3605278.399 7  22504600.342          44.000        2673.720
 16  6 24  1 45  0.0000000  0 11G26G09G16G06S20G07G29G05G02G23G30
   1806836.542 6  25176237.351          36.000       -1829.139
 -16054714.789 6  20813490.946          39.000       -2351.065
    899541.781 5  24087815.146          33.000        -132.326
   8534556.689 7  21711963.010          45.000       -3209.646
 110820239.777 6  38549305.824          41.000        -689.782
  -2271078.638 7  21127841.053          44.000        1159.026
    -81013.74714  24765718.919          26.000        -428.118
  -8203216.478 5  23809038.600          34.000        2661.356
 -12513598.120 7  21636418.348          47.000         -57.437
  -4582267.582 7  22762881.852          45.000       -3293.921
  -3765103.911 7  22474186.532          44.000        2653.976
 16  6 24  1 46  0.0000000  0 10G26G09G16G06S20G07G29G02G23G30
   1917610.02515  25197316.079          32.000       -1863.234
 -15913073.072 6  20840442.179          38.000       -2370.162
    908621.57913  24089515.757          18.000        -167.146
   8727947.724 7  21748762.274          44.000       -3236.813
 110861547.213 6  38557167.863          41.000        -688.365
  -2339721.799 7  21114777.157          43.000        1128.942
    -54283.22714  24770809.584          29.000        -462.968
 -12509106.891 7  21637271.681          47.000         -92.910
  -4384340.218 7  22800545.565          45.000       -3303.470
  -3923857.065 7  22443975.598          44.000        2636.780
 16  6 24  1 47  0.0000000  0 11G26G09G16G06S20G07G29G05G02G23G30
   2030405.11615  25218783.774          31.000       -1898.701
 -15770252.942 6  20867616.513          37.000       -2390.433
    920015.11515  24091715.113          34.000        -209.411
   8922985.236 7  21785877.613          44.000       -3265.283
 110902785.928 6  38565014.702          41.000        -688.092
  -2406475.248 7  21102077.045          44.000        1096.272
    -25284.42011  24776350.063          10.000        -499.951
  -8522354.90715  23748353.670          33.000        2650.814
 -12502422.568 7  21638543.261          46.000        -130.266
  -4185835.486 7  22838316.526          45.000       -3314.055
  -4081529.521 7  22413969.670          44.000        2618.343
 16  6 24  1 48  0.0000000  0 13G26G09G16G06G03S20G07G29G05G02G23G04
                                G30
   2145301.27314  25240641.410          29.000       -1931.428
 -15626176.090 6  20895036.913          40.000       -2410.947
    933825.753 6  24094342.924          37.000        -249.159
   9119738.024 7  21823318.835          44.000       -3292.505
  19547129.17113  25675517.362          22.000       -4107.445
 110944035.109 6  38572863.583          41.000        -686.804
  -2471237.898 7  21089753.457          44.000        1063.057
      5870.84713  24782267.030          21.000        -531.717
  -8681143.73215  23718122.983          32.000        2643.013
 -12493451.592 7  21640250.747          47.000        -168.061
  -3986673.821 7  22876217.736          46.000       -3324.200
    342683.87811  25698585.398          10.000       -2754.794
  -4238012.699 7  22384190.803          43.000        2598.774
 16  6 24  1 49  0.0000000  0 11G26G09G16G06S20G07G05G02G23G04G30
   2262222.43015  25262892.183          32.000       -1963.764
 -15480919.361 6  20922678.058          40.000       -2431.703
    949995.56615  24097404.896          30.000        -286.200
   9318119.584 7  21861067.635          43.000       -3319.708
 110985223.185 6  38580699.918          41.000        -686.435
  -2534066.184 7  21077796.498          43.000        1030.828
  -8839542.75115  23687988.847          34.000        2637.427
 -12482254.995 7  21642382.780          47.000        -205.249
  -3786930.772 7  22914227.730          47.000       -3333.950
    508286.97012  25730149.177          17.000       -2786.729
  -4393353.180 7  22354632.577          45.000        2579.311
 16  6 24  1 50  0.0000000  0 12G26G09G16G06S20G07G29G05G02G23G04G30
   2381129.25315  25285524.574          31.000       -2000.081
 -15334521.279 6  20950535.672          40.000       -2449.947
    968503.32215  24100934.953          33.000        -327.729
   9518081.487 7  21899121.586          44.000       -3346.408
 111026326.055 6  38588521.036          40.000        -684.677
  -2594976.508 7  21066205.366          44.000         998.076
     74740.93912  24795338.727          16.000        -601.037
  -8997565.46214  23657904.620          29.000        2630.135
 -12468856.697 7  21644931.681          47.000        -242.612
  -3586642.792 7  22952341.274          46.000       -3343.290
    676105.98012  25762057.720          16.000       -2805.147
  -4547559.618 7  22325287.139          44.000        2559.571
 16  6 24  1 51  0.0000000  0 12G26G09G16G06S20G07G29G05G02G23G04G30
   2502102.60315  25308547.676          30.000       -2032.214
 -15186902.456 7  20978627.661          42.000       -2470.369
    989445.44415  24104921.630          33.000        -369.287
   9719693.037 7  21937487.618          43.000       -3373.441
 111067430.411 6  38596343.829          41.000        -684.448
  -2653870.790 7  21055000.406          45.000         964.787
    112526.23614  24802535.581          26.000        -647.765
  -9155111.60716  23627942.369          39.000        2621.874
 -12453162.685 7  21647916.872          47.000        -280.333
  -3385729.318 7  22990573.602          46.000       -3353.178
    845351.98712  25794265.535          12.000       -2848.988
  -4700522.619 7  22296180.717          45.000        2538.861
 16  6 24  1 52  0.0000000  0 10G26G09G16G06S20G07G05G02G23G30
   2624944.92614  25331935.959          26.000       -2065.222
 -15038142.885 6  21006934.043          40.000       -2488.742
   1012758.63216  24109354.212          36.000        -407.479
   9922863.986 6  21976146.132          41.000       -3398.868
 111108476.006 6  38604155.401          40.000        -683.518
  -2710806.012 7  21044161.832          43.000         933.224
  -9312235.759 6  23598033.254          39.000        2616.493
 -12435238.809 7  21651328.320          47.000        -316.629
  -3184268.689 7  23028910.404          46.000       -3361.618
  -4852292.272 7  22267299.385          45.000        2520.101
 16  6 24  1 53  0.0000000  0 11G26G09G16G06S20G07G29G05G02G23G30
   2749870.19314  25355721.722          29.000       -2099.292
 -14888258.636 6  21035457.297          41.000       -2507.391
   1038442.248 5  24114242.768          35.000        -448.704
  10127567.821 7  22015102.033          42.000       -3425.254
 111149461.832 6  38611953.188          40.000        -683.209
  -2765779.891 7  21033704.457          44.000         899.775
    194296.17915  24818158.150          32.000        -719.663
  -9468930.962 6  23568216.870          41.000        2607.579
 -12415086.889 8  21655164.768          48.000        -354.536
  -2982275.110 7  23067346.324          45.000       -3371.441
  -5002854.954 7  22238647.472          45.000        2498.907
 16  6 24  1 54  0.0000000  0 10G26G09G16G06S20G07G05G02G23G30
   2876816.50415  25379871.166          31.000       -2131.439
 -14737196.278 6  21064204.803          41.000       -2527.061
   1066565.174 5  24119592.255          32.000        -490.812
  10333847.328 6  22054353.768          41.000       -3450.687
 111190439.884 6  38619751.847          40.000        -682.474
  -2818718.330 7  21023629.783          44.000         865.394
  -9625119.929 6  23538493.809          40.000        2599.141
 -12392640.719 8  21659435.412          48.000        -393.017
  -2779693.406 7  23105901.097          47.000       -3381.245
  -5152127.706 7  22210241.257          44.000        2477.198
 16  6 24  1 55  0.0000000  0 11G26G09G16G06S20G07G29G05G02G23G30
   3005739.54914  25404401.234          29.000       -2162.894
 -14584998.134 6  21093161.520          39.000       -2544.781
   1097100.47216  24125409.581          38.000        -528.098
  10541649.412 6  22093898.020          41.000       -3475.178
 111231374.257 6  38627540.839          40.000        -681.723
  -2869644.109 7  21013936.990          43.000         831.774
    285100.30015  24835457.667          31.000        -789.498
  -9780821.144 7  23508868.260          42.000        2590.834
 -12367929.255 8  21664136.885          48.000        -430.319
  -2576564.114 7  23144554.271          47.000       -3389.800
  -5300123.281 7  22182078.403          44.000        2456.029
 16  6 24  1 56  0.0000000  0 11G26G09G16G06S20G07G29G05G02G23G30
   3136609.38114  25429309.378          29.000       -2198.274
 -14431691.722 7  21122339.243          42.000       -2565.406
   1130035.382 5  24131669.917          34.000        -569.287
  10750935.680 7  22133724.373          42.000       -3500.831
 111272253.432 6  38635318.349          40.000        -682.380
  -2918565.848 7  21004630.667          45.000         797.949
    333836.03514  24844729.614          24.000        -830.692
  -9936038.096 6  23479326.089          41.000        2581.947
 -12340966.784 8  21669268.173          48.000        -468.816
  -2372913.051 7  23183306.423          45.000       -3398.858
  -5446839.913 7  22154160.619          46.000        2433.574
 16  6 24  1 57  0.0000000  0 11G26G09G16G06S20G07G29G05G02G23G30
   3269517.22915  25454600.083          31.000       -2230.818
 -14277184.395 6  21151736.107          39.000       -2584.038
   1165476.45715  24138414.740          34.000        -611.282
  10961787.477 6  22173844.134          41.000       -3526.450
 111313175.425 6  38643105.160          40.000        -682.073
  -2965372.018 7  20995721.441          43.000         762.625
    384849.56314  24854435.983          26.000        -868.877
 -10090655.105 7  23449908.128          43.000        2571.708
 -12311648.999 7  21674844.949          46.000        -507.474
  -2168645.696 7  23222179.366          46.000       -3408.809
  -5592155.725 7  22126506.910          45.000        2410.138
 16  6 24  1 58  0.0000000  0 11G26G09G16G06S20G07G29G05G02G23G30
   3404378.95316  25480264.380          36.000       -2263.631
 -14121557.402 6  21181354.606          41.000       -2604.198
   1203355.890 5  24145628.032          35.000        -651.585
  11174112.338 7  22214252.154          43.000       -3551.214
 111354078.299 6  38650888.620          40.000        -682.160
  -3010124.559 7  20987204.565          43.000         728.972
    438045.98514  24864558.907          29.000        -904.781
 -10244728.081 6  23420582.758          41.000        2563.247
 -12280045.286 7  21680859.149          47.000        -545.850
  -1963841.150 7  23261151.914          45.000       -3418.141
  -5736122.898 7  22099110.575          46.000        2388.245
 16  6 24  2  1  0.0000000  0 11G26G09G16G06S20G07G29G05G02G23G30
   3820706.31915  25559489.206          32.000       -2363.084
 -13647912.721 7  21271488.750          42.000       -2659.820
   1331799.321 5  24170067.725          34.000        -775.249
  11819855.308 7  22337132.016          43.000       -3623.476
 111476811.951 6  38674245.318          39.000        -682.272
  -3131837.566 7  20964044.950          44.000         623.321
    610961.46214  24897480.226          26.000       -1015.088
 -10703400.447 7  23333302.370          43.000        2532.685
 -12171359.296 8  21701542.211          48.000        -661.864
  -1346139.349 7  23378697.017          43.000       -3446.137
  -6159598.650 7  22018527.127          46.000        2316.601
 16  6 24  2  2  0.0000000  0 11G26G09G16G06S20G07G29G05G02G23G30
   3963333.79815  25586629.460          32.000       -2392.047
 -13487827.183 6  21301948.122          41.000       -2676.009
   1379539.84716  24179152.553          36.000        -815.749
  12037935.905 7  22378633.153          43.000       -3645.393
 111517703.688 6  38682025.829          39.000        -681.256
  -3168218.419 7  20957122.432          45.000         588.908
    672978.40913  24909318.401          18.000       -1047.133
 -10855078.423 7  23304439.413          44.000        2522.968
 -12130520.505 8  21709315.463          48.000        -699.345
  -1139186.669 6  23418072.195          39.000       -3452.820
  -6297903.849 7  21992206.300          45.000        2293.414
 16  6 24  2  3  0.0000000  0 11G26G09G16G06S20G07G29G05G02G23G30
   4107804.36815  25614122.191          31.000       -2424.680
 -13326716.364 7  21332607.876          43.000       -2694.309
   1429685.155 6  24188694.105          36.000        -856.995
  12257336.420 7  22420386.062          45.000       -3667.960
 111558523.226 6  38689792.205          39.000        -679.451
  -3202552.593 7  20950586.802          43.000         554.368
    737129.20915  24921486.927          33.000       -1087.904
 -11006186.199 7  23275685.381          45.000        2512.490
 -12087436.712 8  21717513.436          48.000        -737.552
   -931781.204 6  23457542.633          40.000       -3460.718
  -6434811.739 7  21966155.813          47.000        2269.085
 16  6 24  2  4  0.0000000  0 11G26G09G16G06S20G07G29G05G02G23G30
   4254221.06915  25641982.336          30.000       -2456.688
 -13164472.164 7  21363484.239          43.000       -2714.850
   1482354.73615  24198714.927          34.000        -900.578
  12478152.446 7  22462404.948          44.000       -3692.490
 111599398.045 6  38697570.901          39.000        -682.110
  -3234714.615 7  20944467.464          44.000         517.017
    803524.35514  24934118.075          27.000       -1126.794
 -11156591.662 7  23247062.068          45.000        2500.602
 -12041990.388 8  21726163.247          48.000        -777.966
   -723812.606 7  23497119.378          42.000       -3470.982
  -6570186.253 7  21940396.045          46.000        2242.896
 16  6 24  2  5  0.0000000  0 10G26G09G06S20G07G29G05G02G23G30
   4402574.05615  25670213.682          30.000       -2488.475
 -13001101.654 6  21394567.509          41.000       -2732.569
  12700364.713 7  22504690.734          44.000       -3714.789
 111640336.091 6  38705362.057          39.000        -681.770
  -3264695.785 7  20938762.517          44.000         482.400
    872080.37811  24947163.770          11.000       -1153.029
 -11306276.394 7  23218577.676          45.000        2489.161
 -11994179.616 7  21735259.313          47.000        -815.802
   -515285.694 6  23536800.265          41.000       -3480.012
  -6704006.474 7  21914929.285          46.000        2217.771
 16  6 24  2  6  0.0000000  0 10G09G16G06S20G07G29G05G02G23G30
 -12836830.543 7  21425833.535          46.000       -2744.648
     57415.71716  24220164.316          36.000        -976.765
  12923734.944 7  22547196.812          44.000       -3732.119
 111681109.740 6  38713119.621          39.000        -676.705
  -3292705.829 7  20933431.440          42.000         450.894
    942639.29714  24960609.338          27.000       -1193.741
 -11455442.072 7  23190194.810          47.000        2482.137
 -11944221.137 7  21744766.418          47.000        -850.034
   -306423.988 7  23576545.213          42.000       -3482.584
  -6836470.387 7  21889722.253          46.000        2196.698
 16  6 24  2  7  0.0000000  0 10G09G16G06S20G07G29G05G02G23G30
 -12671656.173 7  21457262.285          44.000       -2760.598
    117248.369 5  24231546.604          35.000       -1016.700
  13148253.171 7  22589921.175          45.000       -3752.414
 111721727.620 6  38720848.585          39.000        -676.052
  -3318726.241 7  20928479.557          43.000         416.212
   1015258.08712  24974435.442          16.000       -1231.106
 -11604061.851 7  23161911.689          47.000        2471.401
 -11892104.544 7  21754684.651          47.000        -887.756
    -97222.802 7  23616356.524          44.000       -3490.424
  -6967547.725 7  21864779.209          46.000        2172.063
 16  6 24  2  8  0.0000000  0 11G26G09G16G06S20G07G29G05G02G23G30
   4857346.38514  25756869.614          26.000       -2572.412
 -12505471.189 7  21488887.506          45.000       -2777.803
    179521.007 6  24243400.642          37.000       -1057.855
  13374014.018 7  22632882.128          44.000       -3772.077
 111762312.715 6  38728572.400          39.000        -675.460
  -3342634.857 7  20923929.535          42.000         381.119
   1090023.88413  24988662.186          23.000       -1262.346
 -11752003.017 7  23133760.474          47.000        2460.072
 -11837714.240 7  21765034.794          47.000        -925.206
    112427.478 7  23656250.531          43.000       -3497.409
  -7097103.710 7  21840125.629          46.000        2146.913
 16  6 24  2  9  0.0000000  0 10G09G16G06S20G07G29G05G02G23G30
 -12338325.969 7  21520695.309          45.000       -2793.287
    244191.232 6  24255706.780          38.000       -1097.957
  13600954.125 7  22676067.525          44.000       -3791.560
 111802819.189 6  38736278.922          38.000        -674.504
  -3364467.022 7  20919776.383          43.000         346.350
   1166821.95114  25003293.565          28.000       -1297.676
 -11899290.931 7  23105732.196          47.000        2449.365
 -11781093.240 7  21775809.361          47.000        -962.182
    322478.657 7  23696223.902          44.000       -3503.754
  -7225161.817 7  21815756.417          45.000        2121.801
 16  6 24  2 10  0.0000000  0 10G09G16G06S20G07G29G05G02G23G30
 -12170226.021 7  21552681.210          44.000       -2809.359
    311261.862 6  24268466.205          38.000       -1137.535
  13829054.923 7  22719474.366          44.000       -3811.610
 111843261.898 6  38743975.306          39.000        -674.513
  -3384213.235 7  20916018.008          43.000         311.102
   1245730.48914  25018317.557          27.000       -1332.324
 -12045907.034 8  23077832.526          48.000        2437.557
 -11722240.526 7  21787009.138          47.000        -999.923
    532927.585 7  23736269.028          43.000       -3511.098
  -7351700.483 7  21791677.926          46.000        2095.697
 16  6 24  2 11  0.0010000  0 10G09G16G06S20G07G29G05G02G23G30
 -12001122.152 7  21584863.861          45.000       -2826.031
    380788.534 6  24281700.066          38.000       -1178.020
  14058353.575 7  22763106.838          43.000       -3830.775
 111883701.372 6  38751671.498          39.000        -673.600
  -3401813.513 6  20912667.863          41.000         275.681
   1326778.72513  25033719.800          20.000       -1362.413
 -12191782.427 8  23050074.273          48.000        2425.416
 -11661101.974 7  21798642.727          46.000       -1037.422
    743826.776 7  23776402.103          43.000       -3518.407
  -7476648.542 7  21767899.911          45.000        2069.850
 16  6 24  2 12  0.0010000  0 10G09G16G06S20G07G29G05G02G23G30
 -11831101.361 7  21617214.820          44.000       -2840.949
    452693.220 6  24295386.028          40.000       -1217.609
  14288747.671 7  22806948.556          42.000       -3848.325
 111924054.385 6  38759350.379          39.000        -671.587
  -3417334.967 7  20909716.979          44.000         241.572
   1409821.81414  25049536.904          26.000       -1400.797
 -12336969.010 7  23022443.406          46.000        2414.457
 -11597754.869 7  21810696.482          46.000       -1073.851
    955089.880 7  23816602.589          42.000       -3522.947
  -7600056.896 7  21744417.310          46.000        2044.592
 16  6 24  2 13  0.0010000  0 10G09G16G06S20G07G29G05G02G23G30
 -11660154.502 7  21649747.872          46.000       -2857.524
    526990.993 6  24309520.896          37.000       -1258.813
  14520234.212 7  22850999.833          43.000       -3867.722
 111964333.031 6  38767015.544          39.000        -672.083
  -3430757.335 7  20907161.272          43.000         205.972
   1494879.45513  25065711.581          20.000       -1431.875
 -12481437.367 7  22994954.480          47.000        2401.391
 -11532186.145 7  21823174.767          46.000       -1111.839
   1166729.172 7  23856880.920          44.000       -3530.972
  -7721894.720 7  21721230.612          44.000        2016.983
 16  6 24  2 14  0.0010000  0 11G26G09G16G06S20G07G29G05G02G23G30
   5811579.75313  25939147.643          18.000       -2748.497
 -11488189.050 7  21682467.484          43.000       -2874.319
    603780.555 6  24324130.096          36.000       -1299.986
  14752891.977 7  22895272.449          43.000       -3887.062
 112004645.482 6  38774685.473          39.000        -672.258
  -3441975.611 7  20905024.231          42.000         168.561
   1582078.11312  25082335.199          16.000       -1476.424
 -12625070.543 7  22967618.155          46.000        2386.932
 -11464298.054 7  21836093.110          46.000       -1150.663
   1378839.485 7  23897240.394          42.000       -3538.951
  -7842043.535 7  21698367.581          45.000        1988.630
 16  6 24  2 15  0.0010000  0 11G26G09G16G06G13S20G07G05G02G23G30
   5977317.68912  25970689.086          17.000       -2775.033
 -11315215.327 7  21715384.807          44.000       -2891.469
    683055.949 6  24339221.463          40.000       -1342.435
  14986697.072 7  22939765.357          43.000       -3906.789
   -164050.70014  25274170.346          29.000        2737.174
 112044983.787 6  38782361.719          39.000        -672.911
  -3450987.424 7  20903311.963          43.000         131.554
 -12767853.762 7  22940450.696          46.000        2372.190
 -11394096.443 7  21849452.037          46.000       -1189.682
   1591412.601 7  23937691.395          42.000       -3547.436
  -7960487.916 7  21675828.321          45.000        1959.407
 16  6 24  2 16  0.0010000  0 11G26G09G16G06G13S20G07G05G02G23G30
   6144903.02312  26002566.516          15.000       -2797.405
 -11141199.910 7  21748499.579          44.000       -2908.066
    764856.817 6  24354787.459          39.000       -1383.724
  15221669.354 7  22984479.585          43.000       -3924.611
   -328064.37413  25242943.548          21.000        2729.970
 112085402.663 6  38790053.583          39.000        -673.687
  -3457746.507 7  20902026.057          43.000          94.736
 -12909728.579 7  22913451.737          46.000        2357.503
 -11321542.929 7  21863259.365          47.000       -1228.194
   1804485.052 7  23978240.588          43.000       -3554.590
  -8077168.597 7  21653624.211          45.000        1930.485
 16  6 24  2 17  0.0010000  0  9G09G16G06S20G07G05G02G23G30
 -10966250.939 7  21781792.779          46.000       -2923.334
    849079.423 6  24370810.528          38.000       -1424.568
  15457686.917 6  23029390.617          41.000       -3941.368
 112125807.809 6  38797741.940          39.000        -672.221
  -3462349.114 7  20901150.370          42.000          59.024
 -13050777.783 7  22886609.428          46.000        2344.157
 -11246741.630 7  21877492.688          46.000       -1265.081
   2017950.571 7  24018857.994          42.000       -3561.069
  -8192168.242 7  21631740.922          45.000        1902.770
 16  6 24  2 18  0.0010000  0 11G26G09G16G06G13S20G07G05G02G23G30
   6483554.76213  26067238.628          18.000       -2856.663
 -10790424.056 7  21815252.350          46.000       -2937.924
    935671.772 6  24387292.294          39.000       -1462.121
  15694679.943 6  23074485.330          40.000       -3957.812
   -656308.40914  25180647.981          27.000        2723.404
 112166147.503 6  38805418.936          39.000        -672.550
  -3464839.365 7  20900677.155          43.000          23.136
 -13191032.249 8  22859923.718          48.000        2330.509
 -11169745.053 7  21892144.554          46.000       -1301.935
   2231755.846 7  24059548.412          43.000       -3566.450
  -8305517.621 7  21610174.442          47.000        1874.869
 16  6 24  2 19  0.0010000  0 11G26G09G16G06G13S20G07G05G02G23G30
   6655580.72412  26100072.155          17.000       -2883.913
 -10613661.067 7  21848885.446          45.000       -2953.157
   1024696.112 5  24404226.491          34.000       -1503.904
  15932692.825 6  23119779.691          40.000       -3975.278
   -819548.84515  25149594.830          32.000        2717.998
 112206493.898 6  38813096.823          39.000        -672.199
  -3465147.518 6  20900614.352          41.000         -12.592
 -13330408.778 8  22833398.689          48.000        2316.028
 -11090491.457 7  21907225.154          45.000       -1339.313
   2445961.874 7  24100311.178          44.000       -3573.151
  -8417133.465 7  21588932.502          46.000        1845.950
 16  6 24  2 20  0.0010000  0 10G09G16G06G13S20G07G05G02G23G30
 -10436030.308 7  21882690.130          45.000       -2967.679
   1116087.713 6  24421625.545          39.000       -1542.994
  16171643.070 6  23165252.045          40.000       -3990.338
   -982548.77114  25118558.693          26.000        2714.833
 112246778.442 6  38820762.686          39.000        -671.404
  -3463330.947 7  20900964.386          42.000         -47.914
 -13468949.816 8  22807037.290          49.000        2302.033
 -11009046.647 7  21922723.128          45.000       -1375.163
   2660502.838 6  24141131.495          40.000       -3577.819
  -8527059.442 7  21568015.641          46.000        1818.182
 16  6 24  2 21  0.0000000  0 10G09G16G06G13S20G07G05G02G23G30
 -10257527.887 7  21616864.943          45.000       -2983.104
   1209852.722 6  24139676.391          40.000       -1583.542
  16411520.464 6  22911105.817          40.000       -4005.810
  -1145288.25315  24787812.989          34.000        2708.910
 112287008.397 6  38528623.966          39.000        -670.984
  -3459375.271 7  20601924.663          42.000         -84.159
 -13606627.439 8  22481042.827          48.000        2286.531
 -10925404.598 7  21638847.663          45.000       -1413.313
   2875384.606 6  23882230.589          40.000       -3584.585
  -8635267.312 7  21247632.557          46.000        1788.652
 16  6 24  2 22  0.0000000  0 10G09G16G06G13S20G07G05G02G23G30
 -10078050.800 7  21651015.996          44.000       -2999.040
   1306096.596 6  24157987.637          38.000       -1625.144
  16652413.626 6  22956947.504          40.000       -4021.982
  -1307649.04215  24756906.332          30.000        2701.140
 112327302.348 6  38536292.150          39.000        -671.509
  -3453166.818 7  20603103.163          42.000        -121.500
 -13743312.605 8  22455033.086          48.000        2270.327
 -10839460.102 7  21655203.629          46.000       -1451.139
   3090712.698 7  23923212.443          42.000       -3592.197
  -8741629.843 7  21227390.235          45.000        1757.817
 16  6 24  2 23  0.0000000  0 10G09G16G06G13S20G07G05G02G23G30
  -9897685.995 7  21685342.564          46.000       -3013.134
   1404733.670 6  24176759.046          40.000       -1663.318
  16894221.375 6  23002963.710          41.000       -4037.573
  -1469702.36915  24726072.949          33.000        2696.113
 112367577.208 6  38543957.036          39.000        -671.139
  -3444783.089 7  20604700.748          43.000        -157.570
 -13879067.522 8  22429199.190          48.000        2255.188
 -10751299.140 7  21671980.810          46.000       -1487.764
   3306402.925 6  23964246.822          37.000       -3596.778
  -8846210.141 7  21207485.120          43.000        1728.641
 16  6 24  2 24  0.0000000  0 10G09G16G06G13S20G07G05G02G23G30
  -9716471.348 7  21719823.932          45.000       -3027.659
   1505728.113 6  24195976.534          40.000       -1702.932
  17136891.372 7  23049141.140          42.000       -4052.331
  -1631470.68615  24695291.289          32.000        2692.242
 112407814.636 6  38551613.267          39.000        -670.750
  -3434252.075 7  20606702.934          42.000        -193.919
 -14013904.513 7  22403541.315          47.000        2239.108
 -10660957.907 7  21689170.757          46.000       -1524.554
   3522419.759 7  24005362.798          42.000       -3603.413
  -8949022.395 7  21187923.496          45.000        1697.985
 16  6 24  2 25  0.0000000  0 10G09G16G06G13S20G07G05G02G23G30
  -9534330.867 7  21754485.998          44.000       -3043.140
   1609156.932 6  24215656.122          39.000       -1744.614
  17380485.120 7  23095495.724          42.000       -4067.732
  -1792916.72414  24664578.766          29.000        2688.192
 112448103.879 6  38559280.770          39.000        -671.481
  -3421489.244 7  20609131.463          42.000        -231.342
 -14147722.629 7  22378076.055          46.000        2221.517
 -10568359.809 7  21706792.912          47.000       -1561.635
   3738841.742 6  24046546.638          40.000       -3610.513
  -9049967.364 7  21168716.443          46.000        1666.851
 16  6 24  2 26  0.0000000  0 10G09G16G06G13S20G07G05G02G23G30
  -9351310.161 6  21789308.308          41.000       -3057.195
   1714974.334 6  24235792.522          38.000       -1784.865
  17624942.432 6  23142013.293          41.000       -4081.950
  -1953962.95314  24633935.573          27.000        2682.000
 112488397.335 6  38566948.064          39.000        -670.962
  -3406531.064 7  20611979.112          42.000        -267.081
 -14280542.205 7  22352801.980          47.000        2205.567
 -10473550.764 7  21724833.907          47.000       -1598.180
   3955625.14115  24087782.706          34.000       -3615.981
  -9149067.532 7  21149856.806          46.000        1636.134
 16  6 24  2 27  0.0000000  0 11G09G16G06G13S20G07G29G05G02G23G30
  -9167403.482 7  21824308.018          43.000       -3071.757
   1823186.918 6  24256384.354          38.000       -1822.759
  17870254.521 6  23188693.306          41.000       -4094.624
  -2114641.66415  24603359.127          32.000        2674.847
 112528705.410 6  38574618.151          39.000        -671.681
  -3389363.426 7  20615246.561          43.000        -303.874
   2886633.57212  25033550.253          12.000       -1894.954
 -14412332.622 8  22327723.504          48.000        2188.597
 -10376524.925 7  21743296.482          46.000       -1634.739
   4172779.104 6  24129126.181          41.000       -3621.417
  -9246294.297 7  21131355.771          46.000        1605.200
 16  6 24  2 28  0.0000000  0 10G09G16G06G13S20G07G05G02G23G30
  -8982714.132 7  21859454.362          43.000       -3084.402
   1933690.177 6  24277412.966          37.000       -1860.902
  18116303.249 6  23235513.461          39.000       -4106.432
  -2275042.211 5  24572837.631          35.000        2671.166
 112568939.904 6  38582275.097          39.000        -669.747
  -3370081.598 6  20618911.909          40.000        -338.842
 -14543171.531 8  22302826.301          49.000        2172.585
 -10277385.588 7  21762162.802          47.000       -1669.840
   4390202.572 6  24170499.129          39.000       -3625.735
  -9341728.477 7  21113196.115          46.000        1575.375
 16  6 24  2 29  0.0000000  0 11G09G16G06G13S20G07G29G05G02G23G30
  -8797246.157 7  21894748.544          45.000       -3098.678
   2046479.840 5  24298874.012          34.000       -1898.504
  18363069.912 6  23282476.081          40.000       -4119.655
  -2435152.104 6  24542372.099          39.000        2664.698
 112609098.488 6  38589915.238          39.000        -669.512
  -3348681.692 6  20622984.895          41.000        -374.509
   3118304.5901   25077721.588           5.000       -1968.199
 -14673037.814 8  22278111.226          48.000        2155.852
 -10176138.793 7  21781429.430          46.000       -1705.331
   4607893.39714  24211897.502          27.000       -3631.567
  -9435351.860 7  21095379.006          46.000        1544.685
 16  6 24  2 30  0.0000000  0 10G09G16G06G13S20G07G05G02G23G30
  -8610915.710 7  21930206.811          44.000       -3112.536
   2161637.779 5  24320793.544          35.000       -1938.788
  18610623.609 6  23329581.844          40.000       -4131.104
  -2594873.070 6  24511977.223          38.000        2659.074
 112649286.411 6  38597564.576          39.000        -670.030
  -3325072.337 7  20627479.425          42.000        -411.336
 -14801822.687 8  22253605.449          49.000        2138.142
 -10072701.221 7  21801111.810          46.000       -1741.695
   4825938.94516  24253418.638          40.000       -3636.239
  -9527058.659 8  21077928.945          48.000        1512.898
 16  6 24  2 31  0.0000000  0 11G09G16G06G13S20G07G29G05G02G23G30
  -8423796.023 6  21965810.857          41.000       -3124.600
   2279089.507 5  24343139.211          33.000       -1976.037
  18858876.061 6  23376823.021          40.000       -4142.784
  -2754263.431 6  24481639.897          36.000        2654.542
 112689441.726 6  38605204.700          39.000        -668.456
  -3299320.468 6  20632378.190          40.000        -446.339
   3357730.51614  25123307.228          28.000       -2025.817
 -14929573.203 8  22229295.935          49.000        2120.547
  -9967148.557 7  21821200.536          47.000       -1776.232
   5044267.774 6  24294964.116          38.000       -3640.992
  -9616900.490 7  21060832.147          47.000        1481.992
 16  6 24  2 32  0.0000000  0 10G09G16G06G13S20G07G05G02G23G30
  -8235897.357 7  22001569.860          43.000       -3138.835
   2398822.711 6  24365927.800          38.000       -2014.706
  19107802.233 6  23424190.154          39.000       -4155.083
  -2913318.517 6  24451377.118          38.000        2648.038
 112729556.168 6  38612838.298          39.000        -669.198
  -3271429.125 6  20637684.696          40.000        -483.656
 -15056275.590 8  22205185.702          48.000        2102.307
  -9859492.697 7  21841686.097          46.000       -1812.705
   5262871.93715  24336556.623          30.000       -3645.542
  -9704866.135 7  21044092.310          47.000        1449.608
 16  6 24  2 33  0.0000000  0 11G09G16G06G13S20G07G29G05G02G23G30
  -8047165.862 6  22037478.971          40.000       -3151.277
   2520888.475 6  24389153.725          39.000       -2052.489
  19357440.950 6  23471694.044          39.000       -4165.529
  -3071969.428 5  24421182.797          35.000        2641.663
 112769692.919 6  38620476.328          39.000        -668.966
  -3241338.413 6  20643410.025          40.000        -519.116
   3604302.38014  25170302.898          28.000       -2087.294
 -15181850.366 7  22181287.978          47.000        2084.506
  -9749683.268 7  21862582.261          46.000       -1847.083
   5481801.52414  24378196.664          24.000       -3651.274
  -9790880.790 7  21027724.407          47.000        1418.005
 16  6 24  2 34  0.0000000  0 11G09G16G06G13S20G07G29G05G02G23G30
  -7857666.979 7  22073544.121          42.000       -3164.346
   2645218.313 6  24412812.643          39.000       -2090.910
  19607711.813 6  23519318.027          37.000       -4176.200
  -3230267.064 6  24391059.673          37.000        2635.119
 112809791.243 6  38628105.040          39.000        -668.125
  -3209107.947 6  20649544.004          40.000        -554.233
   3730322.32914  25194318.464          27.000       -2117.309
 -15306337.888 7  22157598.993          47.000        2066.082
  -9637787.978 7  21883873.028          45.000       -1881.897
   5701006.95915  24419929.069          33.000       -3655.550
  -9874989.113 7  21011719.364          46.000        1386.475
 16  6 24  2 35  0.0000000  0 10G09G16G06G13S20G07G05G02G23G30
  -7667412.096 7  22109747.215          43.000       -3177.806
   2771797.431 6  24436902.407          41.000       -2128.692
  19858588.480 6  23567064.440          39.000       -4186.806
  -3388207.909 6  24361008.182          39.000        2629.138
 112849844.135 6  38635728.098          39.000        -667.881
  -3174743.645 6  20656082.269          40.000        -591.736
 -15429724.463 8  22134120.632          48.000        2046.372
  -9523821.233 7  21905561.415          46.000       -1917.173
   5920471.73415  24461693.827          33.000       -3661.179
  -9957182.039 7  20996077.425          45.000        1353.418
 16  6 24  2 36  0.0000000  0 10G09G16G06G13S20G07G05G02G23G30
  -7476337.273 6  22146106.402          40.000       -3190.664
   2900686.378 6  24461428.898          40.000       -2166.820
  20110119.490 6  23614929.689          40.000       -4197.141
  -3545713.409 6  24331034.920          40.000        2622.100
 112889933.979 6  38643357.647          39.000        -667.716
  -3138176.193 7  20663045.115          42.000        -627.278
 -15551920.337 8  22110867.921          49.000        2027.217
  -9407723.504 7  21927653.739          46.000       -1952.135
   6140263.223 6  24503528.333          37.000       -3664.259
 -10037375.452 7  20980815.587          45.000        1320.360
 16  6 24  2 37  0.0000000  0 10G09G16G06G13S20G07G05G02G23G30
  -7284548.047 7  22182606.289          44.000       -3202.353
   3031774.646 6  24486371.715          38.000       -2202.423
  20362184.346 6  23662896.516          40.000       -4205.616
  -3702874.128 6  24301124.305          38.000        2616.370
 112929967.620 6  38650975.854          39.000        -666.366
  -3099506.143 7  20670405.181          43.000        -661.468
 -15673006.663 8  22087824.594          48.000        2008.771
  -9289604.208 7  21950130.091          45.000       -1984.578
   6360278.509 5  24545398.770          33.000       -3668.880
 -10115655.062 7  20965920.866          46.000        1289.065
 16  6 24  2 38  0.0000000  0 10G09G16G06G13S20G07G29G05G02G30
  -7092067.103 7  22219228.991          42.000       -3213.621
   3165035.464 6  24511731.401          38.000       -2238.707
  20614745.327 6  23710954.765          39.000       -4213.486
  -3859698.538 7  24271285.689          42.000        2611.244
 112969925.758 6  38658580.868          39.000        -667.086
  -3058751.441 7  20678160.215          43.000        -697.265
   4248828.97114  25293708.360          28.000       -2232.801
 -15792980.520 7  22064993.497          46.000        1990.414
  -9169490.909 7  21972983.716          43.000       -2018.666
 -10192023.956 7  20951388.552          46.000        1256.505
 16  6 24  2 39  0.0000000  0 10G09G16G06G13S20G07G05G02G23G30
  -6898802.282 7  22256009.740          42.000       -3227.296
   3300555.371 5  24537516.367          35.000       -2277.621
  20867879.043 6  23759122.199          37.000       -4223.133
  -4016079.757 7  24241524.622          42.000        2602.811
 113009914.375 6  38666189.878          39.000        -665.978
  -3015816.747 6  20686325.992          41.000        -732.803
 -15911725.419 7  22042395.587          45.000        1968.897
  -9047295.763 7  21996240.267          45.000       -2053.480
   6800918.70716  24629263.521          39.000       -3677.886
 -10266370.985 7  20937240.823          45.000        1222.410
 16  6 24  2 40  0.0000000  0 10G09G16G06G13S20G07G05G02G23G30
  -6704806.945 7  22292925.431          44.000       -3239.198
   3438275.940 5  24563725.965          33.000       -2315.544
  21121517.168 6  23807389.170          38.000       -4231.402
  -4172057.114 7  24211843.424          42.000        2595.903
 113049876.983 6  38673794.072          38.000        -665.164
  -2970750.557 7  20694905.496          43.000        -769.257
 -16029269.251 7  22020029.660          46.000        1949.136
  -8923077.335 7  22019879.623          46.000       -2087.420
   7021681.810 6  24671278.864          38.000       -3681.748
 -10338730.561 7  20923469.425          44.000        1188.573
 16  6 24  2 41  0.0000000  0 10G09G16G06G13S20G07G05G02G23G30
  -6510041.861 7  22329991.387          45.000       -3251.927
   3578230.610 6  24590362.414          37.000       -2350.154
  21375683.814 6  23855758.608          39.000       -4241.114
  -4327576.717 7  24182250.909          44.000        2588.261
 113089856.760 6  38681400.919          39.000        -665.005
  -2923510.500 6  20703890.142          40.000        -804.964
 -16145547.025 7  21997902.976          46.000        1927.471
  -8796802.620 7  22043906.968          44.000       -2121.482
   7242734.19815  24713369.435          30.000       -3686.122
 -10409044.744 7  20910090.483          44.000        1155.202
 16  6 24  2 42  0.0000000  0 10G09G16G06G13S20G07G05G02G23G30
  -6314568.746 7  22367184.170          42.000       -3263.494
   3720351.707 6  24617405.261          39.000       -2386.885
  21630301.896 6  23904212.680          38.000       -4246.264
  -4482685.762 7  24152734.232          44.000        2581.817
 113129811.203 6  38689005.061          39.000        -665.294
  -2874155.556 6  20713281.936          41.000        -839.126
 -16260596.669 7  21976008.886          46.000        1907.327
  -8668538.771 7  22068316.769          45.000       -2153.988
   7464014.38916  24755461.873          40.000       -3689.659
 -10477357.022 7  20897091.606          46.000        1122.105
 16  6 24  2 43  0.0000000  0 10G09G16G06G13S20G07G05G02G23G30
  -6118388.095 7  22404519.173          43.000       -3276.480
   3864631.717 6  24644859.741          40.000       -2422.355
  21885355.578 6  23952748.367          38.000       -4254.670
  -4637371.157 7  24123297.529          45.000        2574.084
 113169752.039 6  38696605.573          39.000        -666.240
  -2822683.073 7  20723081.944          43.000        -875.603
 -16374392.843 7  21954355.609          47.000        1885.512
  -8538292.955 7  22093100.929          45.000       -2187.827
   7685526.173 7  24797610.344          42.000       -3694.573
 -10543650.252 7  20884477.193          47.000        1087.088
 16  6 24  2 44  0.0000000  0 10G09G16G06G13S20G07G05G02G23G30
  -5921464.195 6  22441989.240          40.000       -3287.884
   4011099.753 7  24672733.968          42.000       -2458.369
  22140865.482 6  24001369.263          40.000       -4260.932
  -4791582.279 7  24093950.940          45.000        2566.907
 113209717.356 6  38704210.256          38.000        -665.157
  -2769054.886 7  20733286.220          42.000        -910.222
 -16486876.023 7  21932950.387          46.000        1864.218
  -8406035.938 7  22118268.645          45.000       -2220.038
   7907307.388 6  24839817.238          40.000       -3697.336
 -10607870.886 7  20872254.397          46.000        1054.016
 16  6 24  2 45  0.0000000  0 10G09G16G06G13S20G07G05G02G23G30
  -5723907.370 5  22479585.577          35.000       -3296.660
   4159637.850 6  24700999.953          41.000       -2492.537
  22396705.640 6  24050052.613          38.000       -4266.073
  -4945416.142 7  24064678.967          46.000        2561.213
 113249609.769 6  38711801.240          38.000        -663.675
  -2713379.589 7  20743882.621          43.000        -944.908
 -16598131.325 7  21911778.456          46.000        1844.198
  -8271885.249 7  22143796.272          45.000       -2251.092
   8129247.78413  24882077.442          21.000       -3693.596
 -10670112.326 7  20860411.126          46.000        1021.608
 16  6 24  2 46  0.0000000  0 10G09G16G06G13S20G07G05G02G23G30
  -5525731.514 6  22517297.487          40.000       -3308.545
   4310224.987 6  24729656.072          41.000       -2527.261
  22652846.868 6  24098790.304          36.000       -4272.302
  -5098871.827 7  24035480.146          46.000        2553.494
 113289413.606 6  38719375.106          38.000        -663.223
  -2655668.675 7  20754864.514          43.000        -979.195
 -16708147.344 7  21890844.704          46.000        1822.708
  -8135862.464 7  22169681.576          45.000       -2283.243
   8351341.05715  24924297.581          34.000       -3703.993
 -10730371.429 7  20848944.902          46.000         987.419
 16  6 24  2 47  0.0000000  0 10G09G16G06G13S20G07G05G02G23G30
  -5326839.149 6  22555141.128          40.000       -3321.384
   4462949.935 6  24758717.159          41.000       -2563.204
  22909371.752 6  24147608.160          38.000       -4279.296
  -5251837.805 7  24006369.588          45.000        2545.316
 113329228.430 6  38726951.920          38.000        -663.944
  -2595823.465 7  20766253.346          44.000       -1015.321
 -16816802.514 7  21870167.190          46.000        1799.229
  -7997877.018 7  22195938.203          45.000       -2316.050
   8573682.957 5  24966611.009          33.000       -3707.501
 -10788533.942 7  20837876.875          46.000         951.682
 16  6 24  2 48  0.0000000  0 10G09G16G06G13S20G07G05G02G23G30
  -5127246.061 6  22593123.115          37.000       -3333.667
   4617789.700 7  24788182.724          42.000       -2598.294
  23166248.775 6  24196490.583          38.000       -4283.504
  -5404316.469 7  23977353.575          44.000        2537.344
 113369052.449 6  38734528.351          38.000        -663.995
  -2533858.329 7  20778045.400          45.000       -1051.209
 -16924087.643 7  21849751.186          46.000        1776.228
  -7857953.493 7  22222566.572          46.000       -2348.797
   8796232.02514  25009009.174          25.000       -3711.915
 -10844599.578 7  20827207.864          46.000         916.499
 16  6 24  2 49  0.0000000  0 10G09G16G06G13S20G07G05G02G23G30
  -4926925.085 6  22631244.512          37.000       -3343.953
   4774761.630 7  24818054.600          42.000       -2633.207
  23423489.646 6  24245440.765          37.000       -4290.983
  -5556266.843 7  23948436.087          43.000        2528.289
 113408914.765 6  38742114.606          38.000        -665.469
  -2469745.928 7  20790246.488          44.000       -1086.026
 -17029950.965 7  21829606.567          46.000        1752.931
  -7716073.434 7  22249565.445          47.000       -2380.621
   9019074.89615  25051380.990          34.000       -3716.611
 -10898525.588 7  20816945.757          46.000         881.189
 16  6 24  2 50  0.0000000  0 10G09G16G06G13S20G07G05G02G23G30
  -4725952.870 6  22669486.647          39.000       -3353.074
   4933780.465 7  24848315.459          42.000       -2666.586
  23681002.712 6  24294444.082          37.000       -4293.424
  -5707750.526 6  23919608.275          41.000        2521.342
 113448756.933 6  38749696.796          38.000        -664.532
  -2403561.736 7  20802838.879          44.000       -1120.228
 -17134444.780 7  21809722.411          47.000        1729.943
  -7572321.264 7  22276919.254          46.000       -2411.592
   9242110.194 6  25093822.241          36.000       -3718.753
 -10950372.512 7  20807080.120          47.000         846.924
 16  6 24  2 51  0.0000000  0 11G09G16G06G13S20G07G29G05G02G23G30
  -4524331.194 6  22707856.028          40.000       -3365.952
   5094835.067 6  24878961.479          41.000       -2701.754
  23938770.946 6  24343497.988          37.000       -4297.611
  -5858756.596 7  23890875.095          44.000        2512.334
 113488590.202 6  38757277.642          38.000        -664.760
  -2335307.675 7  20815828.071          44.000       -1155.353
   6115720.77212  25651523.940          14.000       -2578.932
 -17237546.493 7  21790102.922          47.000        1706.311
  -7426707.885 7  22304629.415          46.000       -2443.142
   9465337.16715  25136300.835          31.000       -3722.764
 -11000127.193 7  20797610.044          46.000         811.334
 16  6 24  2 52  0.0000000  0 11G09G16G06G13S20G07G29G05G02G23G30
  -4321978.506 6  22746364.837          41.000       -3378.830
   5257997.275 6  24910011.227          41.000       -2736.524
  24196860.402 6  24392610.631          37.000       -4303.569
  -6009189.068 7  23862247.524          45.000        2503.006
 113528497.336 6  38764871.889          38.000        -665.228
  -2264901.830 7  20829224.743          43.000       -1190.551
   6271211.07612  25681124.518          13.000       -2609.106
 -17339149.804 7  21770767.347          46.000        1681.155
  -7279162.011 7  22332705.838          46.000       -2474.626
   9688839.91214  25178798.519          24.000       -3726.420
 -11047693.331 7  20788559.994          47.000         775.027
 16  6 24  2 53  0.0010000  0 10G09G16G06G13S20G07G05G02G23G30
  -4118975.496 7  22784992.465          42.000       -3388.810
   5423175.828 6  24941444.497          41.000       -2769.501
  24455176.046 6  24441766.830          37.000       -4306.823
  -6159120.790 7  23833717.745          46.000        2494.985
 113568407.976 6  38772467.795          38.000        -665.222
  -2192427.675 7  20843017.866          44.000       -1224.766
 -17439316.385 7  21751705.498          45.000        1657.488
  -7129774.111 7  22361133.412          45.000       -2504.653
   9912540.50515  25221392.599          35.000       -3730.133
 -11093141.134 7  20779910.026          45.000         740.071
 16  6 24  2 54  0.0010000  0 10G09G16G06G13S20G07G05G02G23G30
  -3915367.600 7  22823740.848          43.000       -3398.319
   5590316.008 6  24973251.096          41.000       -2801.998
  24713655.328 6  24490953.968          36.000       -4309.437
  -6308572.353 7  23805278.759          47.000        2486.433
 113608278.398 6  38780053.457          38.000        -664.293
  -2117927.394 7  20857193.586          43.000       -1259.369
 -17538057.291 7  21732918.349          47.000        1633.196
  -6978598.129 7  22389902.190          46.000       -2534.662
  10136394.99415  25263990.029          31.000       -3734.981
 -11136493.579 7  20771658.778          44.000         704.677
 16  6 24  2 55  0.0010000  0 11G09G16G06G13S20G07G29G05G02G23G30
  -3711137.072 6  22862599.429          37.000       -3408.013
   5759424.417 6  25005429.036          39.000       -2833.893
  24972301.419 5  24540172.639          35.000       -4310.167
  -6457518.186 7  23776934.038          45.000        2479.001
 113648127.086 6  38787638.037          39.000        -663.616
  -2041386.033 7  20871758.619          43.000       -1292.255
   6744722.54013  25771569.259          22.000       -2681.938
 -17635335.947 7  21714406.914          47.000        1610.039
  -6825627.414 7  22419011.125          46.000       -2563.574
  10360424.70313  25306604.857          22.000       -3733.674
 -11177723.450 7  20763817.156          45.000         669.846
 16  6 24  2 56  0.0010000  0 10G09G16G06G13S20G07G05G02G23G30
  -3506343.07616  22901572.048          39.000       -3419.173
   5930431.715 6  25037971.336          38.000       -2866.137
  25231040.301 6  24589410.278          36.000       -4312.227
  -6606003.586 7  23748679.326          43.000        2470.660
 113687912.896 6  38795207.086          38.000        -662.682
  -1962864.061 7  20886701.834          43.000       -1325.687
 -17731187.533 7  21696165.015          46.000        1585.143
  -6670932.000 7  22448448.107          46.000       -2593.174
  10584532.00514  25349271.668          28.000       -3736.316
 -11216876.247 7  20756363.331          44.000         634.615
 16  6 24  2 57  0.0010000  0 10G09G16G06G13S20G07G05G02G23G30
  -3300986.966 7  22940654.306          44.000       -3427.828
   6103324.583 6  25070873.250          38.000       -2897.192
  25489855.154 5  24638657.567          34.000       -4316.057
  -6754016.464 6  23720513.768          41.000        2462.699
 113727646.326 6  38802768.562          39.000        -662.692
  -1882364.446 6  20902016.023          41.000       -1358.180
 -17825589.104 7  21678200.870          46.000        1560.432
  -6514523.857 7  22478211.338          46.000       -2621.516
  10808796.72315  25391952.598          31.000       -3740.444
 -11253940.383 7  20749311.663          46.000         599.498
 16  6 24  2 58  0.0010000  0 10G09G16G06G13S20G07G05G02G23G30
  -3094992.895 7  22979851.473          43.000       -3437.651
   6278166.969 5  25104143.539          35.000       -2929.316
  25748807.25515  24687926.529          31.000       -4313.885
  -6901467.256 7  23692456.522          44.000        2453.047
 113767404.975 6  38810335.692          38.000        -661.916
  -1799813.176 7  20917728.531          42.000       -1392.359
 -17918440.828 7  21660533.310          47.000        1535.108
  -6356338.441 7  22508314.045          46.000       -2650.899
  11033258.67614  25434660.610          26.000       -3742.313
 -11288827.174 7  20742673.618          47.000         563.592
 16  6 24  3  1  0.0010000  0 10G09G16G06G13S20G07G05G02G23G30
  -2473254.974 7  23098165.538          44.000       -3470.104
   6814204.478 5  25206148.734          31.000       -3026.750
  26526256.77415  24835875.880          32.000       -4320.170
  -7340386.246 7  23608931.840          46.000        2423.265
 113886823.063 6  38833060.151          39.000        -663.935
  -1539944.658 6  20967178.452          40.000       -1494.584
 -18187534.210 7  21609326.414          47.000        1454.213
  -5871306.166 7  22600611.859          45.000       -2738.170
  11707533.42015  25563037.132          30.000       -3752.463
 -11380373.556 7  20725253.083          47.000         452.955
 16  6 24  3  2  0.0010000  0  9G09G16G06G13S20G07G05G02G30
  -2264817.491 7  23137832.273          45.000       -3478.089
   6996618.82215  25240860.358          34.000       -3053.300
  26785495.10015  24885204.417          31.000       -4319.723
  -7485563.829 7  23581301.515          42.000        2415.306
 113926634.532 6  38840636.948          39.000        -662.585
  -1449319.473 6  20984419.773          38.000       -1525.988
 -18274059.696 7  21592859.167          46.000        1429.345
  -5706237.127 7  22632023.647          45.000       -2763.655
 -11406539.079 7  20720274.326          47.000         419.095
 16  6 24  3  3  0.0000000  0  9G09G16G06G13S20G07G05G02G30
  -2055908.663 7  22877788.186          42.000       -3486.290
   7180754.838 5  24976107.417          35.000       -3083.871
  27044626.63515  24634724.166          35.000       -4319.030
  -7630279.371 7  23253974.169          45.000        2407.690
 113966345.692 6  38548401.502          39.000        -661.066
  -1356823.163 6  20702233.802          40.000       -1557.698
 -18359084.634 7  21276887.202          46.000        1404.004
  -5539617.278 7  22363936.650          45.000       -2789.795
 -11430635.499 7  20415896.355          47.000         384.422
 16  6 24  3  4  0.0000000  0  9G09G16G06G13S20G07G05G02G30
  -1846503.277 7  22917641.115          43.000       -3495.319
   7366625.205 5  25011476.653          34.000       -3113.118
  27303663.135 5  24684016.249          34.000       -4319.083
  -7774493.972 7  23226529.234          46.000        2398.630
 114005982.382 6  38555944.324          39.000        -660.238
  -1262433.371 6  20720193.880          40.000       -1589.680
 -18442560.646 8  21261004.293          48.000        1377.659
  -5371434.538 7  22395942.809          46.000       -2816.931
 -11452627.017 7  20411709.891          45.000         348.697
 16  6 24  3  5  0.0000000  0  9G09G16G06G13S20G07G05G02G30
  -1636486.801 6  22957601.747          41.000       -3504.798
   7554331.293 6  25047199.517          36.000       -3143.348
  27562703.670 6  24733317.826          38.000       -4318.045
  -7918081.091 7  23199205.858          46.000        2387.721
 114045671.518 6  38563499.151          39.000        -662.358
  -1166039.181 6  20738539.381          38.000       -1622.288
 -18524349.786 8  21245441.141          48.000        1349.821
  -5201586.823 7  22428260.997          44.000       -2844.078
 -11472388.762 7  20407950.433          46.000         310.792
 16  6 24  3  6  0.0000000  0  9G09G16G06G13S20G07G05G02G30
  -1425910.632 7  22997676.888          43.000       -3513.695
   7743807.779 6  25083253.290          38.000       -3172.375
  27821682.050 6  24782600.417          37.000       -4315.919
  -8061077.632 7  23171994.704          44.000        2378.360
 114085357.462 6  38571049.389          39.000        -661.664
  -1067695.904 6  20757248.859          37.000       -1654.901
 -18604480.706 7  21230190.332          46.000        1321.493
  -5030139.293 7  22460888.698          45.000       -2870.614
 -11489962.210 7  20404607.600          47.000         274.687
 16  6 24  3  7  0.0000000  0  9G09G16G06G13S20G07G05G02G30
  -1214762.821 7  23037855.595          42.000       -3523.202
   7935052.920 6  25119647.289          38.000       -3201.602
  28080595.128 6  24831869.746          36.000       -4314.675
  -8203458.823 7  23144900.344          45.000        2368.429
 114125055.401 6  38578603.292          39.000        -660.721
   -967396.746 6  20776341.963          39.000       -1686.792
 -18682918.901 7  21215261.321          46.000        1293.887
  -4857093.197 7  22493819.824          46.000       -2896.679
 -11505325.996 7  20401681.757          46.000         238.622
 16  6 24  3  8  0.0000000  0  9G09G16G06G13S20G07G05G02G30
  -1003113.754 7  23078128.551          42.000       -3531.253
   8127982.517 6  25156360.855          36.000       -3229.178
  28339357.887 5  24881113.161          35.000       -4310.614
  -8345282.029 7  23117912.762          47.000        2359.489
 114164712.497 6  38586149.760          39.000        -660.573
   -865215.669 6  20795783.878          38.000       -1718.979
 -18759711.588 7  21200650.987          47.000        1266.120
  -4682532.832 7  22527036.401          45.000       -2921.655
 -11518541.021 7  20399168.960          47.000         202.531
 16  6 24  3  9  0.0000000  0  9G09G16G06G13S20G07G05G02G30
   -790951.908 6  23118503.574          41.000       -3541.626
   8322593.240 5  25193392.799          34.000       -3257.807
  28597966.901 6  24930327.434          36.000       -4309.632
  -8486522.871 7  23091036.251          47.000        2348.140
 114204349.494 6  38593693.437          39.000        -660.756
   -761146.116 6  20815583.070          36.000       -1750.001
 -18834825.430 8  21186358.473          48.000        1236.850
  -4506460.875 7  22560541.604          45.000       -2947.954
 -11529587.345 7  20397066.104          47.000         165.099
 16  6 24  3 10  0.0000000  0  9G09G16G06G13S20G07G05G02G30
   -578198.255 6  23158988.044          40.000       -3550.193
   8518950.45416  25230759.212          36.000       -3286.397
  28856486.798 6  24979525.321          36.000       -4306.373
  -8627089.582 7  23064287.684          47.000        2337.918
 114244049.463 6  38601248.020          40.000        -661.418
   -655114.021 6  20835768.435          38.000       -1783.043
 -18908158.159 7  21172402.295          47.000        1208.176
  -4328811.940 7  22594346.131          45.000       -2973.352
 -11538377.005 7  20395392.297          46.000         128.066
 16  6 24  3 11  0.0000000  0  9G09G16G06G13S20G07G05G02G30
   -364932.276 7  23199575.017          43.000       -3558.362
   8716960.172 5  25268436.222          34.000       -3315.312
  29114822.993 5  25028684.208          34.000       -4304.801
  -8767047.560 7  23037655.127          46.000        2327.059
 114283741.410 6  38608801.312          39.000        -661.620
   -547203.979 5  20856298.476          35.000       -1812.369
 -18979767.270 7  21158773.728          46.000        1179.043
  -4149680.083 7  22628434.085          45.000       -2997.856
 -11544981.516 7  20394136.963          47.000          91.540
 16  6 24  3 12  0.0000000  0  9G09G16G06G13S20G07G05G02G30
   -151115.226 6  23240257.512          41.000       -3567.223
   8916646.42715  25306437.212          33.000       -3339.329
  29372999.598 5  25077815.784          33.000       -4302.458
  -8906345.362 7  23011145.611          47.000        2316.579
 114323462.984 6  38616359.246          40.000        -661.786
   -437381.78314  20877179.686          27.000       -1844.407
 -19049592.110 7  21145488.877          47.000        1149.271
  -3969041.320 7  22662807.471          45.000       -3022.384
 -11549354.405 7  20393304.727          47.000          54.687
 16  6 24  3 13  0.0000000  0  9G09G16G06G13S20G07G05G02G30
     63151.429 7  23281038.078          44.000       -3575.048
   9117893.09015  25344733.721          30.000       -3363.853
  29630901.50515  25126888.885          30.000       -4297.820
  -9045071.659 7  22984747.376          47.000        2306.838
 114363113.384 6  38623905.052          40.000        -660.785
   -325754.86715  20898428.397          30.000       -1873.830
 -19117711.880 8  21132527.152          48.000        1120.736
  -3787011.907 7  22697449.242          46.000       -3045.125
 -11551589.439 7  20392879.204          47.000          19.252
 16  6 24  3 14  0.0000000  0  9G09G16G06G13S20G07G05G02G30
    277883.227 7  23321901.549          44.000       -3582.706
   9320700.12015  25383328.787          32.000       -3389.771
  29888528.33715  25175917.767          31.000       -4290.745
  -9183198.794 7  22958462.026          46.000        2297.176
 114402719.822 6  38631442.743          40.000        -658.656
   -212315.14015  20920013.497          30.000       -1906.675
 -19184089.758 7  21119894.346          47.000        1091.671
  -3603591.694 7  22732352.400          45.000       -3068.364
 -11551664.442 7  20392863.446          46.000         -17.002
 16  6 24  3 15  0.0000000  0  9G09G16G06G13S20G07G05G02G30
    493040.604 6  23362830.075          38.000       -3589.351
   9525012.81915  25422206.650          30.000       -3415.829
  30145826.77714  25224874.039          27.000       -4285.475
  -9320752.217 7  22932288.863          47.000        2288.712
 114442245.222 6  38638964.083          40.000        -657.794
    -97357.62015  20941939.905          33.000       -1934.188
 -19248743.287 8  21107591.977          48.000        1063.956
  -3418834.931 7  22767509.249          44.000       -3089.534
 -11549611.771 7  20393253.144          46.000         -51.062
 16  6 24  3 16  0.0000000  0  8G09G16G06G13S20G05G02G30
    708590.258 7  23403860.092          43.000       -3596.367
   9730782.66814  25461363.491          27.000       -3441.362
  30402749.05315  25273770.614          31.000       -4279.666
  -9457752.824 7  22906215.114          47.000        2278.047
 114481672.609 6  38646466.927          40.000        -657.817
 -19311684.850 8  21095614.130          48.000        1034.216
  -3232790.370 7  22802913.699          44.000       -3111.762
 -11545458.656 7  20394045.978          47.000         -87.614
 16  6 24  3 17  0.0000000  0  9G09G16G06G13S20G07G05G02G30
    924643.231 7  23444975.056          42.000       -3604.547
   9938104.90314  25500815.170          25.000       -3467.336
  30659392.39114  25322602.902          26.000       -4275.003
  -9594076.392 8  22880277.459          48.000        2266.246
 114521122.569 6  38653974.115          40.000        -658.419
    138346.16015  20986793.019          34.000       -1992.731
 -19372781.624 8  21083988.621          48.000        1003.152
  -3045362.585 7  22838581.665          46.000       -3134.918
 -11539087.869 7  20395256.639          46.000        -124.289
 16  6 24  3 18  0.0000000  0  9G09G16G06G13S20G07G05G02G30
   1141153.560 6  23486168.825          39.000       -3613.114
  10146913.30013  25540552.020          18.000       -3501.608
  30915697.04114  25371379.855          28.000       -4268.885
  -9729756.126 8  22854455.936          48.000        2255.613
 114560546.128 6  38661474.969          40.000        -657.063
    258898.21715  21009732.587          35.000       -2023.501
 -19432058.665 7  21072707.229          47.000         972.449
  -2856613.328 7  22874497.860          45.000       -3157.294
 -11530539.535 8  20396884.116          48.000        -160.508
 16  6 24  3 19  0.0000000  0  9G09G16G06G13S20G07G05G02G30
   1358144.143 7  23527466.144          42.000       -3620.012
  10357078.06313  25580578.230          21.000       -3520.023
  31171671.20814  25420086.240          27.000       -4262.851
  -9864756.853 8  22828767.540          48.000        2245.011
 114599967.501 6  38668976.975          40.000        -656.220
    381247.106 6  21033021.648          38.000       -2053.250
 -19489472.093 8  21061783.271          48.000         941.919
  -2666535.813 7  22910667.415          44.000       -3178.367
 -11519785.695 7  20398929.386          46.000        -197.259
 16  6 24  3 20  0.0000000  0  8G09G16G13S20G07G05G02G30
   1575545.067 7  23568835.846          42.000       -3627.213
  10568781.22813  25620854.869          20.000       -3545.905
  -9999135.108 8  22803194.263          48.000        2234.315
 114639328.829 6  38676467.568          40.000        -656.442
    505316.429 6  21056632.019          38.000       -2082.549
 -19545070.974 8  21051203.850          49.000         911.057
  -2475216.023 7  22947076.038          44.000       -3199.142
 -11506890.962 7  20401385.277          47.000        -232.794
 16  6 24  3 21  0.0000000  0  8G09G16G13S20G07G05G02G30
   1793357.455 7  23610282.504          42.000       -3633.508
  10781925.03712  25661429.539          16.000       -3554.917
 -10132876.913 8  22777744.691          48.000        2224.001
 114678632.251 6  38683945.911          40.000        -654.553
    631100.22416  21080560.665          36.000       -2111.264
 -19598833.792 8  21040973.468          49.000         880.969
  -2282668.057 7  22983717.586          45.000       -3219.043
 -11491849.528 7  20404247.741          47.000        -268.114
 16  6 24  3 22  0.0000000  0  7G09G13S20G07G05G02G30
   2011568.417 7  23651808.369          44.000       -3640.517
 -10265982.445 7  22752413.257          46.000        2212.760
 114717881.325 6  38691412.510          40.000        -654.299
    758578.130 6  21104828.543          39.000       -2139.032
 -19650752.822 8  21031092.090          48.000         849.552
  -2088922.805 7  23020585.202          45.000       -3239.364
 -11474670.036 7  20407514.998          45.000        -304.539
 16  6 24  3 23  0.0000000  0  7G09G13S20G07G05G02G30
   2230244.094 7  23693418.570          43.000       -3647.830
 -10398372.916 8  22727222.088          48.000        2200.799
 114757151.677 6  38698886.770          39.000        -654.677
    887808.706 6  21129413.038          37.000       -2166.348
 -19700742.545 7  21021577.620          47.000         817.446
  -1893929.535 7  23057691.886          45.000       -3260.046
 -11455282.330 7  20411206.382          47.000        -341.554
 16  6 24  3 24  0.0000000  0  7G09G13S20G07G05G02G30
   2449342.114 7  23735114.382          44.000       -3655.521
 -10530077.642 8  22702158.934          48.000        2189.228
 114796397.445 6  38706353.840          40.000        -654.211
   1018742.384 6  21154333.747          39.000       -2197.273
 -19748824.504 8  21012428.471          48.000         785.197
  -1697747.500 7  23095022.195          43.000       -3280.144
 -11433724.866 7  20415302.158          43.000        -377.645
 16  6 24  3 25  0.0000000  0  7G09G13S20G07G05G02G30
   2668922.421 7  23776899.888          43.000       -3662.657
 -10661024.079 7  22677242.274          47.000        2176.314
 114835679.798 6  38713829.915          39.000        -655.060
   1151431.021 6  21179584.089          39.000       -2225.776
 -19794919.327 8  21003659.178          49.000         751.918
  -1500333.882 7  23132591.885          44.000       -3300.265
 -11409934.642 7  20419835.480          47.000        -414.832
 16  6 24  3 26  0.0000000  0  7G09G13S20G07G05G02G30
   2888937.427 6  23818761.460          40.000       -3671.160
 -10791247.254 8  22652460.801          48.000        2163.275
 114874962.767 6  38721305.187          40.000        -655.614
   1285819.268 6  21205152.986          37.000       -2255.556
 -19839055.589 8  20995258.591          48.000         718.240
  -1301752.970 7  23170379.407          45.000       -3320.467
 -11383955.958 7  20424776.666          45.000        -452.446
 16  6 24  3 27  0.0000000  0  7G09G13S20G07G05G02G30
   3109435.054 7  23860725.289          42.000       -3678.328
 -10920686.114 8  22627829.888          48.000        2151.342
 114914295.001 6  38728790.231          39.000        -655.148
   1421947.241 6  21231060.993          39.000       -2282.146
 -19881165.182 8  20987246.114          48.000         685.843
  -1101973.720 7  23208395.212          45.000       -3338.490
 -11355738.249 7  20430147.930          45.000        -488.114
 16  6 24  3 28  0.0000000  0  7G09G13S20G07G05G02G30
   3330330.888 7  23902762.288          43.000       -3685.082
 -11049413.090 8  22603333.412          48.000        2139.410
 114953608.875 6  38736272.308          39.000        -655.878
   1559721.719 6  21257277.310          39.000       -2309.752
 -19921313.992 8  20979605.589          48.000         652.538
   -901098.447 7  23246620.944          46.000       -3357.294
 -11325363.571 7  20435927.861          46.000        -524.103
 16  6 24  3 29  0.0000000  0  7G09G13S20G07G05G02G30
   3551692.597 6  23944883.257          41.000       -3693.348
 -11177346.348 8  22578989.591          48.000        2125.756
 114992981.649 6  38743762.937          39.000        -656.346
   1699201.871 6  21283822.599          40.000       -2338.228
 -19959414.816 8  20972356.262          49.000         618.261
   -699076.235 7  23285063.442          44.000       -3376.284
 -11292762.115 7  20442131.745          46.000        -561.507
 16  6 24  3 30  0.0000000  0  8G15G09G13S20G07G05G02G30
   -493103.48813  25571241.945          21.000        2740.914
   3773457.471 6  23987084.253          40.000       -3699.867
 -11304536.992 7  22554783.940          47.000        2113.225
 115032345.341 6  38751252.884          39.000        -656.093
   1840317.234 6  21310674.313          40.000       -2365.031
 -19995512.314 8  20965487.944          49.000         584.332
   -495987.252 7  23323711.224          45.000       -3393.473
 -11257994.819 7  20448746.896          45.000        -597.507
 16  6 24  3 31  0.0000000  0  8G15G09G13S20G07G05G02G30
   -657309.18914  25540008.184          25.000        2736.364
   3995667.246 6  24029372.273          40.000       -3705.885
 -11430930.523 7  22530732.113          47.000        2100.741
 115071744.516 6  38758750.597          39.000        -656.019
   1983100.823 6  21337846.867          40.000       -2393.101
 -20029545.932 8  20959008.853          48.000         550.569
   -291807.218 7  23362564.501          44.000       -3411.609
 -11221018.579 7  20455782.230          45.000        -634.273
 16  6 24  3 32  0.0000000  0  8G15G09G13S20G07G05G02G30
   -821423.48513  25508765.454          20.000        2729.493
   4218251.235 5  24071723.201          34.000       -3712.668
 -11556584.220 8  22506821.371          48.000        2087.781
 115111118.838 6  38766243.790          40.000        -656.797
   2127472.965 6  21365318.763          41.000       -2420.005
 -20061568.179 8  20952919.180          49.000         516.693
    -86624.827 7  23401608.682          44.000       -3428.039
 -11181902.743 7  20463227.453          45.000        -669.371
 16  6 24  3 33  0.0000000  0  9G15G09G20G13S20G07G05G02G30
   -985428.20414  25477564.884          26.000        2732.429
   4441238.70115  24114161.660          34.000       -3720.071
   -162606.75214  23815942.482          28.000        2707.193
 -11681456.511 8  22483060.299          49.000        2074.687
 115150499.097 6  38773737.245          39.000        -655.463
   2273454.091 7  21393099.439          43.000       -2445.862
 -20091533.108 8  20947213.884          48.000         482.459
    119571.765 7  23440845.584          44.000       -3444.865
 -11140617.582 7  20471083.925          45.000        -706.028
 16  6 24  3 34  0.0000000  0  9G15G09G20G13S20G07G05G02G30
  -1149356.50014  25446371.939          25.000        2731.210
   4664572.219 6  24156671.926          40.000       -3725.177
   -324640.04415  23785117.021          31.000        2693.584
 -11805591.600 8  22459438.236          49.000        2063.353
 115189843.742 6  38781223.895          39.000        -655.008
   2420978.736 7  21421172.146          42.000       -2471.736
 -20119478.436 7  20941895.546          47.000         449.160
    326708.062 7  23480264.038          45.000       -3458.854
 -11097218.886 7  20479342.014          45.000        -740.117
 16  6 24  3 35  0.0000000  0  9G15G09G20G13S20G07G05G02G30
  -1313243.39814  25415199.795          29.000        2729.688
   4888210.247 6  24199231.436          40.000       -3731.023
   -485861.08515  23754444.232          34.000        2676.745
 -11929019.215 8  22435948.114          48.000        2050.488
 115229119.723 6  38788698.469          39.000        -654.944
   2569994.917 7  21449528.627          43.000       -2496.407
 -20145429.821 7  20936957.675          47.000         415.102
    534723.362 7  23519848.164          44.000       -3474.760
 -11051749.333 7  20487993.448          44.000        -775.805
 16  6 24  3 36  0.0010000  0  9G15G09G20G13S20G07G05G02G30
  -1477043.81913  25384017.129          23.000        2727.654
   5112186.71713  24241884.166          19.000       -3738.196
   -646220.820 5  23723926.768          34.000        2665.157
 -12051701.768 8  22412605.045          49.000        2038.735
 115268356.114 6  38796165.819          39.000        -653.282
   2720523.652 7  21478173.317          43.000       -2520.490
 -20169342.785 8  20932408.823          49.000         382.072
    743630.282 7  23559603.757          45.000       -3488.615
 -11004181.001 7  20497047.424          45.000        -809.847
 16  6 24  3 37  0.0010000  0  9G15G09G20G13S20G07G05G02G30
  -1640811.09414  25352855.978          28.000        2729.241
   5336425.86315  24284524.977          35.000       -3740.114
   -805742.063 5  23693560.789          33.000        2650.718
 -12173676.804 8  22389393.167          49.000        2026.480
 115307507.400 6  38803615.701          39.000        -652.247
   2872495.225 7  21507094.697          44.000       -2545.062
 -20191254.578 8  20928237.087          48.000         347.894
    953348.971 7  23599510.956          44.000       -3502.489
 -10954570.524 7  20506486.386          44.000        -844.233
 16  6 24  3 38  0.0010000  0  9G15G09G20G13S20G07G05G02G30
  -1804476.24713  25321706.449          23.000        2728.423
   5560996.962 5  24327259.566          35.000       -3747.020
   -964353.673 6  23663378.893          36.000        2635.238
 -12294884.369 8  22366326.859          48.000        2013.763
 115346619.465 6  38811057.677          39.000        -650.800
   3025952.441 7  21536295.944          43.000       -2570.240
 -20211099.929 8  20924462.186          49.000         313.401
   1163914.799 7  23639580.181          44.000       -3516.213
 -10902868.416 7  20516324.854          44.000        -879.227
 16  6 24  3 39  0.0010000  0  8G15G20G13S20G07G05G02G30
  -1968044.11314  25290604.263          28.000        2725.136
  -1122046.657 6  23633379.613          39.000        2620.199
 -12415328.031 8  22343409.226          49.000        2000.707
 115385676.689 6  38818490.074          39.000        -650.320
   3180869.586 7  21565775.714          43.000       -2593.893
 -20228878.787 8  20921078.885          49.000         279.013
   1375292.467 7  23679805.725          44.000       -3529.645
 -10849091.845 7  20526557.400          44.000        -913.534
 16  6 24  3 40  0.0010000  0  9G15G09G20G13S20G07G05G02G30
  -2131462.87515  25259483.667          30.000        2722.817
   6011073.34816  24412916.298          37.000       -3756.607
  -1278749.651 6  23603550.909          36.000        2603.500
 -12534949.268 7  22320643.672          47.000        1987.220
 115424734.588 6  38825922.192          39.000        -649.915
   3337283.056 7  21595536.572          42.000       -2618.521
 -20244528.885 8  20918101.215          49.000         243.370
   1587510.108 7  23720186.227          44.000       -3543.763
 -10793196.347 7  20537194.965          44.000        -949.078
 16  6 24  3 41  0.0010000  0 11G15G09G20G13S20G07G05G02G28G21G30
  -2294767.44915  25228410.326          32.000        2720.823
   6236613.169 6  24455836.923          38.000       -3762.022
  -1434488.148 5  23573914.227          34.000        2587.114
 -12653786.309 8  22298031.558          49.000        1974.297
 115463745.632 6  38833345.305          39.000        -649.385
   3495132.821 7  21625578.308          45.000       -2642.749
 -20258084.802 8  20915519.385          48.000         208.998
   1800498.512 7  23760716.993          44.000       -3556.010
    264521.31617  23550994.570          42.000        2395.720
   -791448.73012  26431634.477          15.000        1566.117
 -10735233.938 7  20548223.643          44.000        -983.499
 16  6 24  3 42  0.0010000  0 11G15G09G20G13S20G07G05G02G28G21G30
  -2457947.41115  25197350.212          31.000        2718.647
   6462454.530 5  24498823.615          33.000       -3766.811
  -1589239.641 6  23544473.842          37.000        2571.503
 -12771828.819 8  22275567.648          48.000        1960.352
 115502719.821 6  38840762.258          38.000        -649.270
   3654405.681 7  21655884.153          44.000       -2666.844
 -20269534.060 8  20913342.192          49.000         172.778
   2014236.742 7  23801393.729          45.000       -3568.949
    121220.729 7  23523728.761          44.000        2381.307
   -884684.82113  26413889.629          21.000        1543.438
 -10675209.333 7  20559647.079          45.000       -1017.602
 16  6 24  3 43  0.0010000  0 11G15G09G20G13S20G07G05G02G28G21G30
  -2620929.71515  25166338.732          33.000        2713.615
   6688658.50216  24541862.099          36.000       -3773.288
  -1742917.816 5  23515226.562          35.000        2552.590
 -12889003.346 8  22253270.650          48.000        1945.818
 115541729.706 6  38848186.768          39.000        -650.537
   3815153.319 7  21686475.537          45.000       -2691.167
 -20278800.300 8  20911580.819          49.000         136.441
   2228767.194 7  23842215.006          44.000       -3581.583
    -21155.895 7  23496635.710          43.000        2365.399
   -976746.66713  26396457.979          19.000        1523.627
 -10613063.589 7  20571472.864          44.000       -1052.498
 16  6 24  3 44  0.0010000  0 11G15G09G20G13S20G07G05G02G28G21G30
  -2783758.356 5  25135354.475          32.000        2713.657
   6915168.695 6  24584960.630          39.000       -3776.900
  -1895553.038 5  23486169.000          33.000        2534.719
 -13005352.982 8  22231130.285          48.000        1932.389
 115580714.608 6  38855604.175          39.000        -649.223
   3977309.742 7  21717333.664          46.000       -2714.003
 -20285924.645 8  20910222.634          48.000         100.847
   2444015.333 7  23883176.059          44.000       -3593.558
   -162635.515 6  23469708.088          40.000        2350.315
  -1067365.92612  26379238.139          17.000        1496.477
 -10548854.859 7  20583690.861          45.000       -1087.117
 16  6 24  3 45  0.0010000  0 11G15G09G20G13S20G07G05G02G28G21G30
  -2946420.04515  25104399.778          32.000        2707.941
   7141986.073 6  24628121.021          37.000       -3782.080
  -2047118.93916  23457336.529          36.000        2515.915
 -13120863.982 7  22209146.745          47.000        1918.171
 115619675.536 6  38863019.069          39.000        -649.986
   4140866.239 7  21748456.442          46.000       -2738.032
 -20290891.092 8  20909277.914          49.000          64.622
   2659963.464 7  23924270.903          44.000       -3604.834
   -303189.969 7  23442960.394          42.000        2334.790
  -1156693.32814  26362183.029          28.000        1477.659
 -10482585.001 7  20596302.605          46.000       -1121.655
 16  6 24  3 46  0.0000000  0 11G15G09G20G13S20G07G05G02G28G21G30
  -3108829.52914  24773697.927          28.000        2705.460
   7369183.163 5  24371566.052          33.000       -3790.070
  -2197517.892 6  23128930.812          40.000        2497.324
 -13235450.731 7  21887551.254          47.000        1902.678
 115658695.880 6  38570650.529          39.000        -650.346
   4305885.274 7  21480065.060          45.000       -2762.144
 -20293612.818 8  20608967.693          49.000          27.185
   2876665.870 7  23665715.738          44.000       -3617.220
   -442717.514 7  23116616.769          42.000        2317.712
  -1244610.82314  26045662.620          25.000        1455.686
 -10414184.200 7  20309526.284          45.000       -1157.311
 16  6 24  3 47  0.0000000  0 11G15G09G20G13S20G07G05G02G28G21G30
  -3271058.72314  24742823.919          26.000        2702.276
   7596676.650 6  24414857.704          37.000       -3793.870
  -2346807.768 6  23100512.644          38.000        2478.985
 -13349184.284 8  21865910.384          48.000        1888.347
 115697692.740 6  38578072.090          39.000        -650.052
   4472273.981 7  21511727.154          45.000       -2784.424
 -20294158.922 8  20608862.137          48.000          -8.943
   3094021.102 7  23707076.471          45.000       -3627.790
   -581274.256 6  23090244.325          37.000        2302.105
  -1331345.33613  26029170.472          22.000        1431.345
 -10343738.746 7  20322932.693          46.000       -1191.123
 16  6 24  3 48  0.0000000  0 10G15G09G20G13S20G07G05G02G28G30
  -3433129.25614  24711987.535          28.000        2699.691
   7824430.350 6  24458197.274          41.000       -3798.559
  -2494998.877 6  23072309.654          38.000        2460.029
 -13462087.207 7  21844422.902          47.000        1874.087
 115736645.625 6  38585485.466          39.000        -650.464
   4639985.708 7  21543640.339          44.000       -2806.892
 -20292551.529 8  20609170.412          48.000         -45.731
   3311974.121 7  23748551.364          46.000       -3638.258
   -718868.735 6  23064064.548          39.000        2284.340
 -10271287.999 7  20336717.214          44.000       -1225.207
 16  6 24  3 49  0.0000000  0 10G15G09G20G13S20G07G05G02G28G30
  -3594943.94415  24681194.898          30.000        2692.887
   8052529.914 6  24501601.358          41.000       -3804.096
  -2641980.100 7  23044350.287          42.000        2439.797
 -13574061.627 7  21823114.772          46.000        1858.573
 115775651.267 6  38592905.961          39.000        -649.588
   4809096.646 7  21575822.414          45.000       -2830.376
 -20288691.247 8  20609904.019          48.000         -82.821
   3530592.481 7  23790152.142          44.000       -3649.083
   -855386.376 7  23038090.528          43.000        2266.665
 -10196749.820 7  20350902.391          45.000       -1259.609
 16  6 24  3 50  0.0000000  0 10G15G09G20G13S20G07G05G02G28G30
  -3756528.67515  24650452.518          33.000        2689.927
   8280936.694 7  24545065.715          42.000       -3810.469
  -2787764.236 6  23016604.284          41.000        2418.806
 -13685132.778 7  21801980.133          47.000        1843.015
 115814670.970 6  38600333.594          39.000        -651.091
   4979557.801 7  21608261.741          46.000       -2852.768
 -20282603.544 8  20611062.574          48.000        -120.756
   3749818.731 7  23831871.337          45.000       -3659.037
   -990839.225 7  23012318.057          42.000        2247.364
 -10120166.648 7  20365476.254          46.000       -1293.927
 16  6 24  3 51  0.0000000  0 10G15G09G20G13S20G07G05G02G28G30
  -3917854.280 5  24619750.710          34.000        2686.694
   8509667.270 7  24588594.166          43.000       -3814.699
  -2932310.378 6  22989089.496          38.000        2398.655
 -13795271.593 7  21781019.944          46.000        1827.849
 115853730.194 6  38607765.747          39.000        -650.197
   5151375.762 7  21640956.469          47.000       -2874.910
 -20274258.304 8  20612651.050          48.000        -157.877
   3969650.932 7  23873702.929          44.000       -3668.940
  -1125182.068 6  22986752.458          40.000        2229.532
 -10041525.857 7  20380441.404          46.000       -1327.708
 16  6 24  3 52  0.0000000  0 10G15G09G20G13S20G07G05G02G28G30
  -4078988.57115  24589086.541          33.000        2685.311
   8738640.860 7  24632167.499          42.000       -3818.020
  -3075673.143 6  22961811.316          39.000        2379.741
 -13904545.839 7  21760227.817          47.000        1814.941
 115892744.312 6  38615190.535          39.000        -650.106
   5324459.294 8  21673895.238          48.000       -2894.924
 -20263724.238 7  20614655.016          47.000        -194.333
   4189989.773 7  23915633.185          44.000       -3676.238
  -1258468.652 7  22961389.108          43.000        2213.087
  -9960912.333 7  20395780.651          45.000       -1359.825
 16  6 24  3 53  0.0000000  0 11G15G09G20G13S20G07G05G02G28G21G30
  -4239967.319 5  24558449.526          32.000        2680.389
   8967809.310 6  24675778.351          41.000       -3821.826
  -3217874.894 7  22934755.730          42.000        2360.005
 -14012989.970 7  21739588.014          45.000        1799.751
 115931665.554 6  38622594.436          39.000        -648.236
   5498750.754 7  21707061.052          47.000       -2914.995
 -20251036.657 7  20617068.660          47.000        -229.536
   4410768.729 7  23957646.940          44.000       -3683.212
  -1390719.507 7  22936222.979          44.000        2195.209
  -1824765.31714  25935855.049          26.000        1292.877
  -9878378.728 7  20411487.104          46.000       -1391.512
 16  6 24  3 54  0.0000000  0 11G15G09G20G13S20G07G05G02G28G21G30
  -4400711.74215  24527865.908          34.000        2676.792
   9197238.167 7  24719436.387          42.000       -3825.266
  -3358824.747 6  22907929.476          41.000        2339.003
 -14120526.100 7  21719124.562          43.000        1785.088
 115970576.025 6  38630000.901          39.000        -648.082
   5674305.172 7  21740468.098          47.000       -2935.829
 -20236118.012 8  20619909.259          48.000        -266.817
   4632034.735 7  23999749.534          43.000       -3691.316
  -1521842.246 5  22911264.910          35.000        2175.375
  -1901667.37214  25921220.040          25.000        1269.631
  -9793864.078 7  20427570.533          45.000       -1424.179
 16  6 24  3 55  0.0000000  0 11G15G09G20G13S20G07G05G02G28G21G30
  -4561269.62415  24497315.672          31.000        2675.402
   9426867.052 7  24763134.751          42.000       -3829.222
  -3498557.979 7  22881342.324          42.000        2319.042
 -14227201.338 7  21698827.411          45.000        1771.076
 116009424.335 6  38637393.948          39.000        -646.301
   5851052.344 7  21774102.346          47.000       -2955.224
 -20219016.464 7  20623162.067          47.000        -303.086
   4853708.989 7  24041933.306          43.000       -3697.118
  -1651869.299 5  22886516.593          35.000        2156.999
  -1977128.73614  25906852.909          25.000        1246.263
  -9707433.643 7  20444018.114          46.000       -1456.239
 16  6 24  3 56  0.0000000  0 10G09G20G13S20G07G05G02G28G21G30
   9656686.998 6  24806868.155          41.000       -3832.025
  -3637057.378 7  22854989.511          43.000        2297.478
 -14333011.791 7  21678691.902          46.000        1755.777
 116048202.591 6  38644773.017          39.000        -646.251
   6028972.785 7  21807960.393          47.000       -2975.092
 -20199729.985 7  20626832.668          47.000        -340.212
   5075764.250 7  24084190.579          42.000       -3704.119
  -1780782.954 6  22861993.016          40.000        2139.642
  -2051176.85315  25892778.348          31.000        1222.365
  -9619101.359 7  20460826.356          46.000       -1488.588
 16  6 24  3 57  0.0000000  0 10G09G20G13S20G07G05G02G28G21G30
   9886798.641 6  24850653.544          39.000       -3836.921
  -3774197.517 7  22828887.894          42.000        2274.430
 -14437843.613 7  21658744.575          47.000        1739.088
 116087021.060 6  38652160.147          39.000        -647.368
   6208157.523 8  21842059.060          48.000       -2996.813
 -20178146.494 7  20630939.733          47.000        -378.953
   5298282.763 7  24126533.550          42.000       -3711.691
  -1908455.529 6  22837699.155          39.000        2117.165
  -2123957.66713  25878960.690          23.000        1194.961
  -9528771.740 7  20478017.246          47.000       -1522.107
 16  6 24  3 58  0.0000000  0 10G15G09G20G13S20G07G05G02G28G30
  -5042301.31614  24405935.757          26.000        2660.962
  10117147.951 6  24894486.816          40.000       -3841.066
  -3910006.065 7  22803047.821          44.000        2252.286
 -14541737.536 7  21638972.344          46.000        1723.431
 116125821.111 6  38659544.539          39.000        -646.766
   6388541.952 8  21876384.633          48.000       -3016.547
 -20154308.991 7  20635475.813          47.000        -415.983
   5521191.506 7  24168950.021          42.000       -3718.239
  -2034914.085 6  22813633.612          41.000        2097.029
  -9436504.425 7  20495573.456          45.000       -1553.781
 16  6 24  4  1  0.0000000  0 11G15G09G20G13S20G07G05G02G27G28G30
  -5520081.10315  24315097.566          30.000        2642.989
  10809876.269 6  25026309.704          41.000       -3856.545
  -4308938.614 7  22727130.666          43.000        2178.896
 -14847408.008 8  21580806.825          48.000        1671.146
 116242428.478 6  38681734.497          39.000        -650.583
   6937047.365 7  21980761.941          47.000       -3079.013
 -20068914.981 7  20651724.600          47.000        -534.107
   6192332.083 6  24296668.566          41.000       -3739.155
   -329640.98714  25485425.613          25.000        -149.200
  -2406484.478 6  22742926.220          41.000        2029.381
  -9147878.740 7  20550495.608          44.000       -1654.228
 16  6 24  4  2  0.0000000  0 12G15G09G20G13S20G07G05G02G27G28G21G30
  -5678461.47715  24284930.625          30.000        2636.447
  11041405.926 6  25070369.340          40.000       -3860.171
  -4438940.264 7  22702396.675          44.000        2155.083
 -14947189.935 8  21561817.533          48.000        1654.814
 116281455.821 6  38689160.193          39.000        -650.670
   7122359.009 7  22016023.090          46.000       -3097.810
 -20035729.542 7  20658039.381          47.000        -571.862
   6416849.470 7  24339392.964          42.000       -3744.865
   -319605.28513  25487337.599          21.000        -186.971
  -2527591.155 7  22719883.626          44.000        2007.760
  -2465239.88213  25814340.737          23.000        1065.691
  -9047688.952 7  20569562.117          45.000       -1685.498
 16  6 24  4  3  0.0000000  0 12G15G09G20G13S20G07G05G02G27G28G21G30
  -5836572.44915  24254846.519          34.000        2631.958
  11273115.329 6  25114464.278          39.000       -3863.248
  -4567542.446 7  22677923.164          44.000        2131.526
 -15046026.007 8  21543011.608          48.000        1639.612
 116320443.302 6  38696580.078          39.000        -649.475
   7308762.074 7  22051495.387          47.000       -3115.329
 -20000298.382 8  20664784.570          49.000        -609.051
   6641607.408 7  24382162.941          42.000       -3747.689
   -307440.47713  25489660.868          23.000        -209.598
  -2647409.485 6  22697080.833          41.000        1986.263
  -2528429.89314  25802319.945          24.000        1041.263
  -8945649.474 7  20588978.538          43.000       -1716.471
 16  6 24  4  4  0.0000000  0 12G15G09G20G13S20G07G05G02G27G28G21G30
  -5994439.24915  24224804.678          34.000        2627.949
  11504962.022 5  25158580.383          35.000       -3865.049
  -4694762.246 7  22653712.034          44.000        2109.192
 -15143945.692 7  21524376.956          47.000        1624.469
 116359343.369 6  38703982.775          39.000        -647.550
   7496203.962 7  22087163.510          47.000       -3132.586
 -19962655.399 8  20671946.401          48.000        -645.847
   6866546.081 6  24424967.558          41.000       -3750.182
   -293177.14813  25492362.302          18.000        -249.263
  -2765955.504 7  22674517.859          42.000        1964.946
  -2590140.44314  25790578.478          25.000        1014.578
  -8841809.013 7  20608739.880          43.000       -1745.864
 16  6 24  4  5  0.0000000  0 12G15G09G20G13S20G07G05G02G27G28G21G30
  -6152024.20415  24194822.237          35.000        2623.220
  11736972.012 5  25202733.203          35.000       -3870.031
  -4820548.907 7  22629779.287          46.000        2083.861
 -15240909.994 7  21505922.985          47.000        1607.659
 116398182.644 6  38711373.046          39.000        -646.992
   7684700.349 7  22123034.474          47.000       -3150.781
 -19922765.930 8  20679537.857          48.000        -684.113
   7091673.398 6  24467807.336          39.000       -3754.328
   -276753.84413  25495497.565          22.000        -285.458
  -2883177.740 7  22652214.229          43.000        1941.457
  -2650730.08013  25779121.241          22.000         995.266
  -8736148.666 7  20628846.493          43.000       -1777.624
 16  6 24  4  6  0.0000000  0 10G15G20G13S20G07G05G02G27G28G30
  -6309251.94015  24164897.260          30.000        2617.194
  -4944816.157 7  22606131.014          46.000        2058.844
 -15336844.662 8  21487669.132          48.000        1590.489
 116437038.687 6  38718768.257          39.000        -647.326
   7874301.531 8  22159116.569          48.000       -3168.728
 -19880560.982 8  20687570.087          49.000        -722.324
   7317030.908 6  24510691.054          38.000       -3757.367
   -258150.97613  25499035.806          23.000        -329.597
  -2998989.717 7  22630177.239          43.000        1918.396
  -8628614.608 7  20649309.386          43.000       -1807.757
 16  6 24  4  7  0.0000000  0 11G15G09G20G13S20G07G05G02G28G21G30
  -6466156.96415  24135052.380          30.000        2613.968
    232553.50015  25291157.906          31.000       -3875.021
  -5067586.722 7  22582767.126          46.000        2034.203
 -15431783.359 8  21469602.381          48.000        1574.552
 116475872.846 6  38726158.075          39.000        -646.473
   8064950.995 8  22195395.589          48.000       -3185.570
 -19836079.819 8  20696033.216          48.000        -759.682
   7542554.155 5  24553605.921          35.000       -3758.275
  -3113412.593 7  22608401.636          43.000        1896.185
  -2766348.44414  25757147.299          26.000         937.283
  -8519260.827 7  20670120.166          43.000       -1837.032
 16  6 24  4  8  0.0000000  0 11G15G09G20G13S20G07G05G02G28G21G30
  -6622737.67114  24105257.250          29.000        2607.271
    465128.69414  25335412.059          27.000       -3882.441
  -5188848.050 7  22559691.569          47.000        2008.051
 -15525725.468 8  21451727.145          48.000        1557.017
 116514672.604 6  38733541.192          39.000        -646.796
   8256625.570 8  22231869.824          48.000       -3203.700
 -19789327.338 8  20704930.803          48.000        -798.490
   7768212.36715  24596547.696          35.000       -3762.784
  -3226433.798 7  22586894.120          42.000        1871.122
  -2821743.44714  25746596.007          25.000         909.779
  -8408107.368 7  20691272.378          43.000       -1867.922
 16  6 24  4  9  0.0000000  0 11G15G09G20G13S20G07G05G02G28G21G30
  -6778866.67714  24075531.450          25.000        2598.845
    697955.62614  25379716.923          28.000       -3883.135
  -5308487.381 8  22536928.266          48.000        1980.504
 -15618570.021 7  21434058.381          47.000        1538.336
 116553537.523 6  38740936.752          39.000        -648.141
   8449403.082 8  22268554.806          48.000       -3221.815
 -19740208.080 8  20714277.593          48.000        -837.957
   7994075.72914  24639521.265          29.000       -3765.976
  -3337940.562 7  22565676.802          43.000        1846.179
  -2875466.97815  25736382.046          30.000         881.146
  -8295073.506 7  20712778.759          42.000       -1899.037
 16  6 24  4 10  0.0000000  0 10G15G20G13S20G07G05G02G28G21G30
  -6934643.39215  24045907.663          31.000        2594.065
  -5426541.208 8  22514460.204          48.000        1954.393
 -15710364.588 8  21416590.835          48.000        1521.500
 116592399.646 6  38748332.224          39.000        -647.139
   8643212.585 7  22305432.474          47.000       -3238.504
 -19688776.910 8  20724064.147          48.000        -876.614
   8220064.89915  24682531.742          30.000       -3767.320
  -3447968.670 7  22544738.303          44.000        1821.374
  -2927552.83714  25726473.446          29.000         854.459
  -8180228.115 7  20734636.291          44.000       -1928.593
 16  6 24  4 11  0.0000000  0 10G15G20G13S20G07G05G02G28G21G30
  -7090041.14613  24016306.998          23.000        2584.282
  -5543011.966 7  22492295.722          47.000        1926.783
 -15801123.163 8  21399320.669          48.000        1503.214
 116631232.874 6  38755722.286          39.000        -647.990
   8838016.793 7  22342504.728          47.000       -3255.929
 -19635054.843 7  20734286.938          47.000        -915.748
   8446132.37314  24725544.627          26.000       -3770.095
  -3556520.634 7  22524079.654          43.000        1795.943
    -17380.51414  25716860.644          25.000         826.835
  -8063606.202 7  20756829.304          44.000       -1959.426
 16  6 24  4 12  0.0000000  0 10G15G09G20G13S20G07G05G02G28G30
  -7245006.05615  23986832.446          31.000        2583.435
   1397498.13013  25512848.142          21.000       -3892.877
  -5657807.118 7  22470451.662          47.000        1899.722
 -15890763.792 8  21382262.209          48.000        1484.785
 116670116.789 6  38763122.330          39.000        -647.430
   9033874.682 7  22379777.346          47.000       -3272.468
 -19578966.315 7  20744960.992          47.000        -954.078
   8672333.70814  24768603.859          25.000       -3770.992
  -3663502.846 7  22503721.601          44.000        1770.335
  -7945146.643 7  20779371.443          44.000       -1989.635
 16  6 24  4 13  0.0000000  0 11G15G09G20G13S20G07G05G02G28G21G30
  -7399559.90614  23957411.030          27.000        2571.592
   1631098.84012  25557306.411          17.000       -3894.840
  -5770951.789 8  22448921.478          48.000        1871.709
 -15979323.666 8  21365410.551          48.000        1466.938
 116709000.854 6  38770519.286          39.000        -647.456
   9230725.302 7  22417235.617          46.000       -3289.257
 -19520556.781 7  20756074.983          47.000        -992.659
   8898592.13514  24811658.275          27.000       -3772.725
  -3768942.095 7  22483658.842          44.000        1744.133
    -24101.28114  25698634.049          27.000         770.472
  -7824908.110 7  20802250.528          43.000       -2018.680
 16  6 24  4 14  0.0000000  0 11G15G09G20G13S20G07G05G02G27G28G30
  -7553682.90614  23928082.205          29.000        2565.754
   1864943.96812  25601799.510          15.000       -3897.886
  -5882416.638 8  22427711.960          48.000        1844.419
 -16066783.786 8  21348766.638          48.000        1449.058
 116747905.614 6  38777924.355          39.000        -648.711
   9428564.133 7  22454882.316          46.000       -3304.901
 -19459815.218 7  20767634.862          47.000       -1031.310
   9124908.35414  24854725.203          29.000       -3776.036
    -36766.95314  25542426.976          25.000        -623.416
  -3872808.285 7  22463892.439          43.000        1718.703
  -7702893.583 7  20825466.297          42.000       -2048.189
 16  6 24  4 15  0.0000000  0 11G15G20G13S20G07G05G02G27G28G21G30
  -7707437.17315  23898828.538          33.000        2559.375
  -5992254.130 7  22406810.229          47.000        1817.740
 -16153207.206 8  21332321.081          48.000        1432.400
 116786763.597 6  38785318.309          39.000        -647.229
   9627305.892 7  22492699.538          44.000       -3318.854
 -19396812.413 7  20779622.604          47.000       -1068.222
   9351181.26514  24897793.230          24.000       -3770.814
      1696.16814  25549753.712          26.000        -658.702
  -3975153.523 7  22444414.890          43.000        1693.961
   -114609.03514  25681668.738          28.000         716.481
  -7579187.213 7  20849011.353          42.000       -2075.213
 16  6 24  4 16  0.0000000  0 11G15G09G20G13S20G07G05G02G27G28G30
  -7860823.83315  23869630.746          32.000        2554.685
   2332944.09613  25690827.240          21.000       -3894.007
  -6100454.126 7  22386219.932          46.000        1789.791
 -16238594.692 8  21316072.730          48.000        1414.677
 116825555.891 6  38792700.572          39.000        -645.444
   9826925.554 7  22530685.940          44.000       -3334.156
 -19331558.764 7  20792040.702          47.000       -1106.367
   9577398.08714  24940826.986          24.000       -3767.770
     42302.92513  25557480.843          22.000        -693.580
  -4075968.507 7  22425232.145          44.000        1667.631
  -7453811.909 6  20872868.592          41.000       -2102.538
 16  6 24  4 17  0.0000000  0 12G15G09G20G13S20G07G05G02G27G28G21G30
  -8013796.845 5  23840531.217          34.000        2545.993
   2567045.95712  25735374.750          13.000       -3898.446
  -6206961.433 7  22365948.782          44.000        1760.690
 -16322901.646 7  21300027.656          47.000        1396.392
 116864313.894 6  38800075.854          39.000        -645.464
  10027445.288 7  22568844.470          44.000       -3349.352
 -19264017.603 7  20804893.520          47.000       -1144.759
   9803538.67714  24983861.631          24.000       -3767.946
     85120.33314  25565623.900          28.000        -732.806
  -4175197.995 7  22406351.376          46.000        1640.007
   -197752.17414  25665953.700          28.000         659.479
  -7326744.634 6  20897048.504          40.000       -2131.965
 16  6 24  4 18  0.0010000  0 10G15G20G13S20G07G05G02G27G28G30
  -8166266.042 6  23811515.135          37.000        2537.023
  -6311675.466 7  22346022.152          45.000        1730.199
 -16406037.435 8  21284208.441          48.000        1376.237
 116903127.204 6  38807461.921          39.000        -647.300
  10228936.861 7  22607187.311          43.000       -3365.653
 -19194105.783 8  20818198.038          48.000       -1184.232
  10029689.32512  25026897.515          15.000       -3768.556
    130216.06214  25574203.370          25.000        -770.122
  -4272741.841 7  22387788.916          44.000        1611.956
  -7197913.695 6  20921566.113          39.000       -2160.763
 16  6 24  4 19  0.0010000  0 12G15G09G20G13S20G07G05G02G27G28G21G30
  -8318257.087 6  23782591.155          36.000        2528.472
   3035903.43412  25824596.055          15.000       -3916.916
  -6414613.430 7  22326436.725          46.000        1701.061
 -16488030.739 7  21268605.241          47.000        1357.154
 116941950.164 6  38814847.638          39.000        -647.274
  10431338.971 7  22645704.112          43.000       -3380.949
 -19121867.208 7  20831944.255          47.000       -1223.271
  10255761.52313  25069915.844          20.000       -3774.829
    177551.48614  25583223.457          27.000        -807.544
  -4368618.218 7  22369542.951          43.000        1584.178
   -274340.55914  25651564.286          29.000         603.120
  -7067376.680 6  20946409.412          38.000       -2189.615
 16  6 24  4 20  0.0010000  0 11G15G20G13S20G07G05G02G27G28G21G30
  -8469782.51515  23753750.377          32.000        2522.228
  -6515779.072 7  22307185.907          47.000        1670.948
 -16568894.305 8  21253217.692          48.000        1337.964
 116980773.340 6  38822236.933          40.000        -647.134
  10634620.760 6  22684384.387          40.000       -3395.132
 -19047321.467 7  20846128.856          47.000       -1261.574
  10481715.61613  25112918.137          21.000       -3768.677
    227107.38414  25592646.732          27.000        -844.601
  -4462830.725 7  22351613.585          43.000        1556.594
   -309543.43714  25644862.914          28.000         572.621
  -6935164.921 6  20971562.121          39.000       -2217.781
 16  6 24  4 21  0.0010000  0 10G15G20G13S20G07G05G02G27G28G30
  -8620783.13015  23725007.530          31.000        2512.765
  -6615102.495 8  22288285.210          48.000        1640.218
 -16648568.816 8  21238056.489          48.000        1318.275
 117019652.684 6  38829635.738          39.000        -647.304
  10838818.422 6  22723241.397          39.000       -3410.043
 -18970420.369 7  20860763.761          47.000       -1300.705
  10707583.94312  25155908.807          16.000       -3722.757
    278934.39513  25602508.705          23.000        -882.246
  -4555310.647 7  22334016.664          43.000        1527.708
  -6801241.746 6  20997046.593          39.000       -2244.986
 16  6 24  4 22  0.0010000  0  9G15G20G13S20G07G05G02G28G30
  -8771316.984 6  23696373.660          37.000        2506.107
  -6712633.689 8  22269726.065          48.000        1610.856
 -16727113.199 8  21223110.971          49.000        1300.112
 117058514.343 6  38837030.808          39.000        -646.649
  11043849.802 6  22762259.020          41.000       -3423.981
 -18891233.868 8  20875833.245          48.000       -1337.923
  10933121.97712  25198850.739          14.000       -3764.770
  -4646108.111 7  22316739.762          44.000        1499.915
  -6665688.896 6  21022839.202          38.000       -2271.676
 16  6 24  4 23  0.0010000  0 10G15G20G13S20G07G05G27G28G21G30
  -8921365.230 6  23667829.152          41.000        2496.187
  -6808345.858 8  22251512.069          48.000        1579.316
 -16804510.994 8  21208382.062          48.000        1279.703
 117097372.365 6  38844426.926          39.000        -647.759
  11249708.855 7  22801433.956          42.000       -3438.718
 -18809756.749 7  20891337.066          47.000       -1377.790
    388919.53414  25623487.706          24.000        -962.272
  -4735197.720 7  22299784.275          43.000        1470.169
   -405244.41115  25626784.628          35.000         483.477
  -6528512.225 6  21048945.495          39.000       -2300.735
 16  6 24  4 24  0.0010000  0 10G15G20G13S20G07G05G27G28G21G30
  -9070851.204 7  23639380.795          42.000        2487.650
  -6902153.673 8  22233660.985          48.000        1548.178
 -16880685.715 8  21193886.358          48.000        1260.136
 117136283.213 6  38851829.413          39.000        -649.006
  11456448.449 7  22840775.681          44.000       -3452.112
 -18725923.527 7  20907288.589          46.000       -1416.111
    447434.88514  25634628.221          27.000        -995.013
  -4822494.451 7  22283173.151          44.000        1441.007
   -433378.16014  25621434.687          29.000         453.530
  -6389658.169 6  21075362.019          36.000       -2326.782
 16  6 24  4 25  0.0010000  0 10G15G20G13S20G07G05G27G28G21G30
  -9219819.041 7  23611028.868          42.000        2478.056
  -6994093.155 7  22216164.803          47.000        1516.672
 -16955683.150 8  21179614.436          49.000        1239.913
 117175189.123 6  38859231.377          39.000        -648.334
  11664000.450 7  22880272.312          45.000       -3466.391
 -18639792.149 7  20923679.299          46.000       -1455.014
    508160.22113  25646183.110          22.000       -1030.097
  -4908035.795 7  22266895.902          46.000        1410.703
    -14237.08514  25616419.530          27.000         424.761
  -6249195.194 6  21102094.496          37.000       -2355.310
 16  6 24  4 26  0.0010000  0 10G15G20G13S20G07G05G27G28G21G30
  -9368208.437 7  23582790.472          43.000        2468.680
  -7084096.076 7  22199038.497          46.000        1483.898
 -17029444.089 8  21165578.353          48.000        1219.121
 117214151.321 6  38866649.080          39.000        -649.239
  11872401.220 7  22919929.589          45.000       -3480.305
 -18551316.510 7  20940516.316          46.000       -1493.921
    571164.05214  25658171.636          26.000       -1068.716
  -4991754.241 7  22250964.918          46.000        1380.164
    -39188.18515  25611746.065          30.000         392.364
  -6107086.820 6  21129139.192          38.000       -2382.192
 16  6 24  4 27  0.0010000  0  9G15G20G13S20G07G05G27G28G30
  -9516062.363 7  23554655.556          43.000        2460.710
  -7172198.264 7  22182271.821          45.000        1452.141
 -17102012.877 8  21151769.403          48.000        1200.014
 117253120.372 6  38874063.189          39.000        -648.773
  12081583.635 7  22959736.241          46.000       -3492.055
 -18460552.785 7  20957787.669          46.000       -1531.658
    636379.47013  25670585.756          21.000       -1105.127
  -5073686.327 7  22235372.084          44.000        1350.891
  -5963400.745 5  21156473.824          35.000       -2407.797
 16  6 24  4 28  0.0000000  0 10G15G20G13S20G07G05G27G28G21G30
  -9663410.841 7  23226824.195          44.000        2449.848
  -7258421.081 7  21866072.881          46.000        1419.942
 -17173420.286 8  20838389.266          49.000        1179.287
 117292052.408 6  38581680.428          39.000        -649.711
  12291494.112 7  22699887.247          45.000       -3505.705
 -18367545.167 7  20675694.150          46.000       -1569.975
    703721.42013  25383616.628          22.000       -1137.154
  -5153856.507 7  21920324.543          45.000        1320.653
    -83650.73215  25303624.359          32.000         335.226
  -5818190.531 6  20884314.818          36.000       -2434.428
 16  6 24  4 29  0.0000000  0 10G15G20G13S20G07G05G27G28G21G30
  -9810178.331 7  23198893.848          44.000        2441.920
  -7342682.994 7  21850038.068          46.000        1388.490
 -17243593.192 8  20825035.870          49.000        1159.920
 117331016.404 6  38589095.602          39.000        -649.846
  12502183.532 7  22739978.756          44.000       -3517.833
 -18272234.229 7  20693831.714          46.000       -1607.240
    773341.55512  25396875.530          13.000       -1178.436
  -5232182.456 7  21905419.963          45.000        1290.289
   -102846.21015  25299969.219          32.000         305.855
  -5671406.111 6  20912251.657          39.000       -2459.054
 16  6 24  4 30  0.0000000  0 10G15G20G13S20G07G05G27G28G21G30
  -9956387.837 7  23171072.721          46.000        2432.090
  -7424999.540 7  21834372.833          47.000        1356.046
 -17312555.146 8  20811911.073          48.000        1139.205
 117369970.044 6  38596507.128          39.000        -648.639
  12713605.221 7  22780212.414          44.000       -3529.470
 -18174657.149 7  20712400.683          46.000       -1644.753
    844984.90114  25410538.370          24.000       -1212.764
  -5308681.985 7  21890861.491          45.000        1259.466
   -120251.35515  25296660.640          32.000         275.946
  -5523094.635 6  20940473.092          39.000       -2483.888
 16  6 24  4 31  0.0000000  0 10G15G20G13S20G07G05G27G28G21G30
 -10101973.043 7  23143369.768          47.000        2421.315
  -7505298.070 7  21819092.829          47.000        1321.707
 -17380241.584 8  20799030.456          48.000        1117.718
 117408964.833 6  38603926.227          39.000        -649.867
  12925800.950 7  22820590.228          42.000       -3542.678
 -18074763.417 7  20731410.025          46.000       -1684.011
    919030.94613  25424624.465          23.000       -1251.585
  -5383283.277 7  21876667.589          46.000        1227.243
   -135805.13714  25293703.666          28.000         244.149
  -5373214.836 6  20968994.286          39.000       -2511.476
 16  6 24  4 32  0.0000000  0 10G15G20G13S20G07G05G27G28G21G30
 -10246971.969 7  23115777.431          47.000        2412.295
  -7583609.787 7  21804190.866          47.000        1289.176
 -17446692.047 8  20786386.343          48.000        1097.761
 117447962.766 6  38611348.363          39.000        -649.678
  13138709.259 7  22861107.680          42.000       -3553.823
 -17972607.769 7  20750848.154          46.000       -1721.304
    995286.19614  25439139.661          27.000       -1288.809
  -5456019.500 7  21862826.268          46.000        1197.164
   -149872.52615  25291091.822          32.000         215.819
  -5221829.378 6  20997805.171          40.000       -2535.152
 16  6 24  4 33  0.0000000  0 11G15G20G08G13S20G07G05G27G28G21G30
 -10391375.306 8  23088297.753          48.000        2401.064
  -7659919.926 7  21789667.556          46.000        1254.280
    -10392.71714  25173499.813          29.000         238.694
 -17511899.180 8  20773977.092          48.000        1075.838
 117486967.335 6  38618773.274          39.000        -650.569
  13352315.681 7  22901757.508          43.000       -3565.900
 -17868196.573 7  20770717.845          46.000       -1759.482
   1073736.07014  25454071.847          29.000       -1326.885
  -5526877.679 7  21849342.170          46.000        1164.629
   -161805.49815  25288815.947          31.000         182.885
  -5068954.189 6  21026892.677          39.000       -2561.263
 16  6 24  4 34  0.0000000  0  9G15G20G13S20G07G05G27G28G30
 -10535092.043 8  23060948.603          48.000        2389.800
  -7734131.222 7  21775546.927          46.000        1219.731
 -17575773.410 8  20761822.177          48.000        1053.630
 117526053.954 6  38626209.998          39.000        -651.755
  13566686.741 6  22942547.078          41.000       -3579.872
 -17761456.255 7  20791031.521          47.000       -1798.005
   1154450.67514  25469420.972          25.000       -1362.442
  -5595761.718 7  21836232.328          46.000        1131.720
  -4914523.345 6  21056283.626          41.000       -2587.397
 16  6 24  4 35  0.0000000  0 10G15G20G13S20G07G05G27G28G21G30
 -10678158.850 8  23033723.331          48.000        2378.982
  -7806274.799 7  21761817.899          45.000        1185.347
 -17638353.285 8  20749914.847          49.000        1032.067
 117565180.619 6  38633655.727          39.000        -652.598
  13781762.210 6  22983477.436          41.000       -3590.097
 -17652439.713 7  20811774.804          46.000       -1836.074
   1237377.34514  25485206.700          24.000       -1400.522
  -5662704.504 7  21823492.657          46.000        1099.691
   -180329.60115  25285350.578          33.000         123.112
  -4758598.509 6  21085953.009          40.000       -2610.622
 16  6 24  4 36  0.0000000  0  9G15G20G13S20G07G05G27G28G30
 -10820576.763 8  23006623.021          48.000        2367.476
  -7876346.915 7  21748485.897          46.000        1149.469
 -17699641.661 8  20738252.936          49.000        1010.257
 117604324.867 6  38641104.632          39.000        -652.880
  13997516.312 7  23024534.413          42.000       -3601.869
 -17541166.696 7  20832948.392          46.000       -1874.103
   1322498.94214  25501408.111          27.000       -1436.046
  -5727703.606 7  21811125.792          47.000        1066.628
  -4601206.602 6  21115903.568          40.000       -2637.595
 16  6 24  4 37  0.0000000  0  8G15G20G13S20G07G05G28G30
 -10962267.542 8  22979659.084          49.000        2355.257
  -7944264.081 7  21735561.516          47.000        1113.968
 -17759562.368 8  20726849.323          48.000         987.002
 117643550.449 6  38648568.962          39.000        -654.658
  14214003.850 7  23065729.177          42.000       -3613.523
 -17427577.204 7  20854565.007          46.000       -1912.869
  -5790677.871 7  21799140.180          45.000        1032.398
  -4442294.739 7  21146147.867          42.000       -2661.024
 16  6 24  4 38  0.0000000  0  9G15G20G13S20G07G05G27G28G30
 -11103236.960 8  22952834.697          49.000        2343.499
  -8010027.500 7  21723044.422          46.000        1078.129
 -17818122.592 8  20715705.283          48.000         964.611
 117682845.319 6  38656046.014          39.000        -656.035
  14431194.731 7  23107059.634          42.000       -3626.032
 -17311695.065 7  20876616.742          46.000       -1950.620
     89945.78113  25535090.573          18.000       -1507.702
  -5851629.973 7  21787540.776          44.000         998.463
  -4281894.173 7  21176669.641          42.000       -2686.188
 16  6 24  4 39  0.0000000  0  8G15G20G13S20G07G05G28G30
 -11243427.940 8  22926157.327          49.000        2330.204
  -8073576.172 7  21710953.184          47.000        1040.583
 -17875268.087 8  20704830.674          48.000         941.209
 117722250.995 6  38663544.198          39.000        -657.076
  14649122.086 7  23148528.209          42.000       -3638.099
 -17193482.537 7  20899110.492          46.000       -1989.163
  -5910500.904 7  21776339.708          45.000         964.151
  -4119973.741 7  21207482.468          42.000       -2711.618
 16  6 24  4 40  0.0000000  0  8G15G20G13S20G07G05G28G30
 -11382909.916 8  22899613.679          49.000        2318.368
  -8134974.827 8  21699270.682          48.000        1005.179
 -17931070.017 7  20694209.599          47.000         918.622
 117761698.489 6  38671050.863          39.000        -657.710
  14867693.237 7  23190121.920          43.000       -3648.306
 -17073027.849 7  20922033.953          47.000       -2026.364
  -5967357.552 7  21765520.451          45.000         930.341
  -3956627.950 7  21238566.471          44.000       -2734.489
 16  6 24  4 41  0.0000000  0  8G15G20G13S20G07G05G28G30
 -11521625.908 8  22873217.991          49.000        2305.241
  -8194163.037 8  21688007.840          48.000         968.123
 -17985473.294 7  20683858.880          47.000         895.379
 117801237.414 6  38678574.525          39.000        -659.512
  15086940.897 7  23231843.942          44.000       -3659.460
 -16950294.089 7  20945389.865          46.000       -2064.378
  -6022141.075 7  21755093.248          44.000         895.741
  -3791826.000 7  21269927.008          43.000       -2758.887
 16  6 24  4 42  0.0000000  0  8G15G20G13S20G07G05G28G30
 -11659567.128 8  22846968.449          49.000        2292.344
  -8251129.002 7  21677165.008          46.000         930.805
 -18038471.900 8  20673774.032          48.000         871.792
 117840854.548 6  38686114.170          39.000        -660.689
  15306849.499 7  23273692.112          45.000       -3670.441
 -16825292.405 7  20969174.390          46.000       -2102.337
  -6074841.953 7  21745067.033          46.000         861.048
  -3625585.379 7  21301562.839          44.000       -2782.765
 16  6 24  4 43  0.0000000  0  8G15G20G13S20G07G05G28G30
 -11796663.697 8  22820880.216          48.000        2278.256
  -8305799.781 7  21666760.437          45.000         892.318
 -18089998.269 8  20663969.104          48.000         846.610
 117880605.078 6  38693678.072          39.000        -663.555
  15527465.473 7  23315675.835          45.000       -3682.781
 -16697973.463 7  20993405.204          47.000       -2141.014
  -6125388.950 7  21735447.007          45.000         824.922
  -3457862.081 7  21333478.816          44.000       -2807.654
 16  6 24  4 44  0.0000000  0  8G15G20G13S20G07G05G28G30
 -11932985.804 8  22794937.658          48.000        2265.662
  -8358242.016 7  21656783.590          47.000         855.377
 -18140124.403 8  20654431.984          49.000         823.838
 117920411.882 6  38701251.885          39.000        -663.512
  15748695.144 7  23357771.013          44.000       -3692.191
 -16568427.959 7  21018056.847          47.000       -2177.506
  -6173851.464 7  21726224.148          44.000         790.206
  -3288751.977 7  21365657.646          42.000       -2829.850
 16  6 24  4 45  0.0000000  0  8G15G20G13S20G07G05G28G30
 -12068587.942 7  22769132.538          46.000        2254.181
  -8408508.246 7  21647218.305          46.000         819.575
 -18188907.554 8  20645147.648          48.000         801.747
 117960205.956 6  38708825.070          39.000        -662.920
  15970459.417 7  23399971.625          44.000       -3700.408
 -16436731.593 7  21043115.831          46.000       -2212.449
  -6220284.583 7  21717391.442          46.000         757.186
  -3118335.782 7  21398086.555          43.000       -2851.013
 16  6 24  4 46  0.0000000  0  8G15G20G13S20G07G05G28G30
 -12203442.333 7  22743473.389          47.000        2241.693
  -8456569.107 7  21638073.710          46.000         783.151
 -18236322.960 7  20636123.670          47.000         779.296
 118000012.102 6  38716399.529          39.000        -663.011
  16192762.798 7  23442275.158          44.000       -3708.760
 -16302878.904 7  21068588.245          46.000       -2248.508
  -6264659.399 7  21708947.211          46.000         722.894
  -2946612.561 7  21430764.984          43.000       -2872.443
 16  6 24  4 47  0.0000000  0  8G15G20G13S20G07G05G28G30
 -12337604.910 7  22717939.898          45.000        2229.648
  -8502478.697 7  21629335.409          46.000         746.310
 -18282428.818 7  20627350.398          47.000         756.893
 118039768.507 6  38723965.560          39.000        -662.395
  16415525.457 7  23484662.889          42.000       -3717.307
 -16166947.285 7  21094455.959          47.000       -2283.406
  -6307033.462 7  21700882.611          46.000         689.067
  -2773664.027 7  21463677.299          45.000       -2893.373
 16  6 24  4 48  0.0000000  0  8G15G20G13S20G07G05G28G30
 -12470959.923 7  22692566.235          45.000        2216.274
  -8546119.714 7  21621031.549          46.000         709.292
 -18327111.736 7  20618846.645          46.000         733.601
 118079567.263 6  38731538.536          39.000        -662.453
  16638839.427 7  23527161.550          43.000       -3725.489
 -16028844.012 7  21120734.748          46.000       -2319.086
  -6347291.613 7  21693221.616          46.000         653.977
  -2599400.645 7  21496841.420          47.000       -2914.550
 16  6 24  4 49  0.0000000  0  8G15G20G13S20G07G05G28G30
 -12603545.323 7  22667335.646          46.000        2203.144
  -8587529.412 7  21613151.833          46.000         671.318
 -18370413.342 7  20610607.420          47.000         709.602
 118119356.218 6  38739109.068          39.000        -663.177
  16862642.770 7  23569747.725          42.000       -3734.272
 -15888629.357 7  21147416.184          45.000       -2354.890
  -6385473.105 7  21685955.974          46.000         618.501
  -2423887.272 7  21530239.165          47.000       -2935.719
 16  6 24  4 50  0.0000000  0 10G15G24G20G13S20G07G05G28G21G30
 -12735294.598 7  22642263.591          47.000        2189.777
   -520749.54814  25413811.961          26.000        2884.037
  -8626640.877 7  21605710.275          47.000         633.478
 -18412269.593 7  20602642.356          46.000         686.360
 118159195.350 6  38746690.926          39.000        -663.665
  17086978.253 7  23612439.194          42.000       -3742.491
 -15746259.540 7  21174509.828          46.000       -2390.327
  -6421513.445 7  21679097.009          45.000         583.629
    -19753.63415  25305413.024          30.000        -351.358
  -2247083.601 7  21563881.510          45.000       -2956.470
 16  6 24  4 51  0.0000000  0  8G15G20G13S20G07G05G28G30
 -12866263.570 7  22617340.423          47.000        2176.315
  -8663508.901 8  21598694.624          48.000         595.618
 -18452739.679 7  20594941.766          47.000         662.458
 118199012.425 6  38754265.856          39.000        -663.478
  17311766.769 7  23655216.396          42.000       -3750.574
 -15601814.132 7  21201994.497          45.000       -2425.533
  -6455470.208 7  21672633.884          45.000         548.487
  -2069072.042 7  21597757.530          46.000       -2976.959
 16  6 24  4 52  0.0000000  0 10G15G24G20G08G13S20G07G05G28G30
 -12996395.417 7  22592575.632          47.000        2162.355
   -156589.38213  25348055.597          18.000        2866.411
  -8698076.953 7  21592114.269          46.000         557.309
    184847.10115  25194776.828          30.000        -440.195
 -18491768.715 7  20587514.151          47.000         638.980
 118238863.173 6  38761851.169          39.000        -663.919
  17537041.671 6  23698085.770          41.000       -3758.176
 -15455259.534 7  21229884.220          46.000       -2460.014
  -6487288.843 7  21666582.114          46.000         512.738
  -1889821.823 7  21631868.081          47.000       -2997.372
 16  6 24  4 53  0.0000000  0  9G15G24G20G13S20G07G05G28G30
 -13125751.362 7  22567959.325          47.000        2150.184
   -328877.67113  25315283.966          23.000        2865.219
  -8730407.061 7  21585961.811          45.000         520.836
 -18529421.690 7  20580348.394          46.000         616.721
 118278677.046 6  38769426.954          39.000        -662.770
  17762717.631 6  23741027.039          39.000       -3763.636
 -15306682.369 7  21258158.790          46.000       -2492.475
  -6517034.132 7  21660921.036          45.000         479.002
  -1709421.517 7  21666196.202          46.000       -3015.350
 16  6 24  4 54  0.0000000  0 10G15G24G20G13S20G07G05G28G21G30
 -13254293.857 7  22543498.884          47.000        2134.884
   -500828.86511  25282560.550           8.000        2862.739
  -8760462.634 7  21580240.530          44.000         481.612
 -18565664.661 7  20573450.689          45.000         591.641
 118318470.668 6  38776999.529          39.000        -664.725
  17988808.453 6  23784051.336          39.000       -3772.210
 -15156068.759 7  21286818.696          46.000       -2527.601
  -6544671.356 7  21655660.319          45.000         442.926
     76981.59214  25324320.666          28.000        -475.408
  -1527859.891 7  21700746.010          46.000       -3035.877
 16  6 24  4 55  0.0000000  0  9G15G20G13S20G07G05G28G21G30
 -13381903.474 7  22519218.197          47.000        2119.564
  -8788125.782 7  21574978.417          45.000         441.446
 -18600381.284 7  20566844.386          45.000         566.307
 118358345.096 6  38784586.726          39.000        -665.207
  18215410.397 6  23827173.529          38.000       -3780.645
 -15003324.322 7  21315885.681          47.000       -2562.874
  -6570085.098 7  21650823.101          44.000         405.823
    106512.11214  25329936.949          28.000        -507.828
  -1345044.323 7  21735536.405          47.000       -3056.584
 16  6 24  4 56  0.0000000  0  9G15G24G20G13S20G07G05G28G30
 -13508704.953 7  22495090.410          47.000        2106.302
   -844028.90014  25217314.727          24.000        2852.786
  -8813521.695 7  21570147.010          46.000         404.586
 -18633699.214 7  20560504.547          45.000         543.160
 118398171.230 6  38792165.757          39.000        -662.458
  18442375.705 6  23870363.359          37.000       -3786.033
 -14848598.749 7  21345328.247          46.000       -2595.525
  -6593403.554 7  21646386.331          45.000         370.996
  -1161125.620 8  21770535.172          48.000       -3074.475
 16  6 24  4 57  0.0000000  0 10G15G24G20G13S20G07G05G28G21G30
 -13634660.549 7  22471121.471          46.000        2092.655
  -1014952.48015  25184795.653          32.000        2846.006
  -8836615.786 7  21565752.731          46.000         365.565
 -18665584.737 7  20554438.799          46.000         519.531
 118437968.824 6  38799737.581          39.000        -662.740
  18669717.643 6  23913626.008          38.000       -3791.051
 -14691880.049 7  21375150.844          46.000       -2627.774
  -6614594.317 7  21642356.360          46.000         335.802
    170095.14014  25342216.458          29.000        -566.522
   -976093.783 8  21805744.320          48.000       -3092.931
 16  6 24  4 58  0.0000000  0 10G15G24G20G13S20G07G05G28G21G30
 -13759810.197 7  22447304.349          45.000        2078.467
  -1185591.60415  25152320.728          32.000        2841.959
  -8857450.199 7  21561788.548          46.000         328.105
 -18696081.703 7  20548632.954          46.000         496.154
 118477696.685 6  38807296.544          39.000        -661.953
  18897373.531 6  23956947.256          37.000       -3797.796
 -14533234.542 7  21405340.122          46.000       -2660.459
  -6633701.961 7  21638718.583          45.000         300.691
    204850.18715  25348860.017          30.000        -598.115
   -790015.297 8  21841155.069          48.000       -3110.150
 16  6 24  5  1  0.0010000  0  9G15G20G13S20G07G05G28G21G30
 -14130351.811 7  22376791.911          47.000        2037.342
  -8906349.885 7  21552482.731          47.000         214.420
 -18779200.360 7  20532818.259          45.000         426.544
 118596425.233 6  38829892.326          39.000        -657.224
  19582068.34115  24087244.525          33.000       -3811.557
 -14045918.352 7  21498074.470          46.000       -2754.682
  -6678503.762 7  21630191.151          43.000         196.844
    319501.92915  25370816.423          32.000        -685.592
   -225687.471 7  21948543.710          47.000       -3160.190
 16  6 24  5  2  0.0010000  0  9G15G20G13S20G07G05G28G21G30
 -14252193.395 8  22353607.517          48.000        2024.202
  -8918092.119 7  21550247.620          47.000         176.906
 -18804093.645 7  20528078.483          44.000         403.512
 118635834.717 6  38837391.400          39.000        -656.114
  19810830.68215  24130783.551          35.000       -3813.054
 -13879743.002 7  21529697.493          47.000       -2784.598
  -6689249.428 7  21628148.516          44.000         162.170
    361446.25514  25378770.511          25.000        -714.714
    -35604.165 7  21984714.312          46.000       -3175.781
 16  6 24  5  3  0.0010000  0  9G15G20G13S20G07G05G28G21G30
 -14373242.077 7  22330573.073          47.000        2011.479
  -8927606.558 8  21548438.888          48.000         140.016
 -18827630.618 7  20523601.106          45.000         381.340
 118675088.376 6  38844860.651          38.000        -652.965
  20039776.64815  24174345.542          32.000       -3815.833
 -13711787.895 7  21561656.695          46.000       -2813.576
  -6697955.913 7  21626488.633          42.000         128.545
    405069.52915  25387095.207          30.000        -740.076
    155378.249 7  22021057.426          46.000       -3190.229
 16  6 24  5  4  0.0010000  0  9G15G24G20G13S20G05G28G21G30
 -14493491.145 7  22307688.875          46.000        1996.599
  -2204003.36614  24958649.748          28.000        2812.330
  -8934889.450 8  21547052.223          48.000         102.014
 -18849807.707 7  20519381.085          46.000         357.507
 118714185.955 6  38852300.779          39.000        -651.274
 -13542072.629 7  21593951.481          45.000       -2844.137
  -6704622.241 7  21625222.149          43.000          92.930
    450364.86115  25395713.416          30.000        -768.034
    347241.103 7  22057566.109          45.000       -3206.039
 16  6 24  5  5  0.0010000  0  9G15G24G20G13S20G05G28G21G30
 -14612814.884 7  22284980.836          45.000        1981.596
  -2372549.16314  24926575.777          28.000        2805.925
  -8939821.783 8  21546113.000          48.000          63.008
 -18870504.799 7  20515442.850          46.000         332.658
 118753235.309 6  38859731.116          39.000        -649.880
 -13370500.779 7  21626601.676          45.000       -2874.713
  -6709131.480 7  21624364.331          43.000          58.328
    497453.65514  25404676.947          25.000        -798.023
    540082.099 7  22094262.573          45.000       -3221.594
 16  6 24  5  6  0.0010000  0 11G15G24G20G08G13S20G07G05G28G21G30
 -14731249.594 7  22262446.410          47.000        1966.053
  -2540813.50114  24894568.204          29.000        2800.036
  -8942445.174 7  21545613.994          47.000          24.608
    750133.23315  25304875.627          30.000        -934.667
 -18889761.710 7  20511778.461          46.000         308.719
 118792199.447 6  38867144.667          39.000        -648.101
  20727352.01314  24305292.900          29.000       -3827.913
 -13197136.517 7  21659591.819          45.000       -2903.961
  -6711527.410 7  21623908.985          43.000          22.431
    546248.35914  25413956.432          27.000        -828.186
    733838.538 7  22131133.609          46.000       -3237.202
 16  6 24  5  7  0.0010000  0 10G15G24G20G13S20G07G05G28G21G30
 -14848743.887 7  22240086.871          47.000        1950.518
  -2708630.85614  24862632.909          28.000        2794.022
  -8942713.272 7  21545563.493          47.000         -15.174
 -18907531.110 7  20508396.871          45.000         283.658
 118831120.656 6  38874552.947          39.000        -648.640
  20957187.26816  24349021.331          36.000       -3832.752
 -13021956.399 7  21692926.324          44.000       -2934.454
  -6711767.501 7  21623865.098          44.000         -13.765
    596853.40513  25423593.769          18.000        -861.487
    928535.437 7  22168183.039          46.000       -3252.271
 16  6 24  5  8  0.0010000  0 11G15G24G20G08G13S20G07G05G28G21G30
 -14965284.093 7  22217909.092          47.000        1934.476
  -2876050.82214  24830773.628          29.000        2787.543
  -8940619.529 7  21545960.817          46.000         -54.587
    865529.76114  25327049.270          28.000       -1007.184
 -18923804.430 7  20505299.213          45.000         258.961
 118869987.585 6  38881948.175          38.000        -647.049
  21187252.814 5  24392798.082          33.000       -3836.493
 -12844976.260 7  21726604.616          44.000       -2964.697
  -6709846.624 7  21624227.696          42.000         -49.492
    649182.21814  25433548.647          27.000        -886.348
   1124159.074 7  22205409.379          46.000       -3267.842
 16  6 24  5  9  0.0000000  0 10G15G24G20G13S20G07G05G28G21G30
 -15080881.032 7  21896120.271          47.000        1918.301
  -3043089.34415  24499203.297          33.000        2781.542
  -8936182.137 7  21247013.371          47.000         -93.535
 -18938596.718 7  20202691.741          45.000         234.051
 118908774.194 6  38589536.673          38.000        -645.979
  21417514.39515  24136822.268          34.000       -3838.357
 -12666235.875 7  21460825.654          45.000       -2993.972
  -6705784.961 6  21325205.773          41.000         -84.851
    703227.46315  25144035.574          32.000        -913.816
   1320671.998 7  21943015.061          47.000       -3282.709
 16  6 24  5 10  0.0000000  0 11G15G24G20G08G13S20G07G05G28G21G30
 -15195457.739 7  21874313.816          45.000        1901.310
  -3209672.396 5  24467497.665          35.000        2772.469
  -8929330.995 7  21248316.606          47.000        -134.470
    989460.35214  25051055.299          26.000       -1078.026
 -18951835.921 7  20200173.971          45.000         207.404
 118947549.943 6  38596914.782          39.000        -646.351
  21648026.489 6  24180690.056          38.000       -3843.151
 -12485687.516 7  21495183.894          46.000       -3024.256
  -6699515.273 6  21326397.797          40.000        -123.542
    759058.76115  25154663.838          35.000        -945.654
   1518124.361 7  21980585.066          46.000       -3298.940
 16  6 24  5 11  0.0000000  0 11G15G24G20G08G13S20G07G05G28G21G30
 -15309066.322 7  21852696.835          45.000        1886.076
  -3375857.257 5  24435877.748          34.000        2766.830
  -8920126.050 7  21250067.037          46.000        -172.593
   1055081.36415  25063570.997          33.000       -1112.844
 -18963579.275 7  20197939.541          45.000         183.991
 118986243.420 6  38604277.483          39.000        -643.469
  21878714.093 6  24224584.526          37.000       -3846.410
 -12303413.158 7  21529868.470          45.000       -3051.239
  -6691100.119 7  21328004.962          42.000        -157.967
    816604.11215  25165623.936          34.000        -971.357
   1716437.253 7  22018324.251          46.000       -3311.668
 16  6 24  5 12  0.0000000  0 10G15G24G20G13S20G07G05G28G21G30
 -15421747.287 7  21831256.206          46.000        1869.618
  -3541688.94115  24404318.732          34.000        2759.737
  -8908615.893 7  21252259.709          47.000        -211.690
 -18973871.922 7  20195980.370          45.000         159.136
 119024811.700 6  38611617.446          38.000        -640.865
  22109513.869 5  24268514.053          35.000       -3849.792
 -12119483.470 7  21564870.117          45.000       -3079.492
  -6680590.204 6  21330001.110          41.000        -193.726
    875805.38715  25176884.858          32.000       -1000.505
   1915543.402 7  22056213.350          47.000       -3325.031
 16  6 24  5 13  0.0000000  0 10G15G24G20G13S20G07G05G28G21G30
 -15533424.014 7  21810003.185          46.000        1853.326
  -3707095.34815  24372846.479          34.000        2754.209
  -8894732.761 7  21254900.643          47.000        -250.487
 -18982642.405 7  20194313.036          45.000         133.987
 119063323.880 6  38618946.066          38.000        -641.020
  22340480.731 5  24312461.257          35.000       -3850.482
 -11933851.170 7  21600193.022          44.000       -3107.166
  -6667919.515 6  21332413.027          41.000        -228.469
    936718.52114  25188484.768          27.000       -1029.148
   2115492.835 7  22094263.323          47.000       -3338.817
 16  6 24  5 14  0.0000000  0 10G15G20G08G13S20G07G05G28G21G30
 -15644139.894 8  21788936.689          48.000        1837.432
  -8878528.490 7  21257985.021          47.000        -289.433
   1263605.04415  25103485.212          32.000       -1216.944
 -18989938.966 7  20192922.673          44.000         109.251
 119101718.296 6  38626252.001          38.000        -639.812
  22571548.26514  24356424.603          27.000       -3852.171
 -11746590.594 7  21635828.914          45.000       -3134.605
  -6653142.419 6  21335225.025          41.000        -263.600
    999276.76313  25200408.118          22.000       -1057.079
   2316215.466 7  22132456.963          46.000       -3351.130
 16  6 24  5 15  0.0000000  0 11G15G24G20G08G13S20G07G05G28G21G30
 -15753876.448 7  21768053.472          46.000        1819.931
  -4036852.33515  24310108.689          32.000        2740.389
  -8859994.514 7  21261511.047          47.000        -329.200
   1337676.99415  25117576.699          32.000       -1254.456
 -18995748.374 7  20191816.888          44.000          83.561
 119140005.859 6  38633539.247          39.000        -637.178
  22802712.01015  24400415.049          31.000       -3855.498
 -11557713.388 7  21671772.454          46.000       -3161.611
  -6636252.271 6  21338439.250          41.000        -299.648
   1063510.74312  25212597.305          16.000       -1101.574
   2517703.190 7  22170799.262          46.000       -3364.833
 16  6 24  5 16  0.0000000  0 11G15G24G20G08G13S20G07G05G28G21G30
 -15862506.812 7  21747382.537          46.000        1801.452
  -4200976.64415  24278877.319          32.000        2733.063
  -8839013.638 7  21265502.610          47.000        -369.795
   1413928.32615  25132084.705          32.000       -1289.231
 -18999949.141 7  20191018.784          46.000          56.701
 119178288.991 6  38640822.479          38.000        -638.063
  23034075.93215  24444443.362          30.000       -3856.997
 -11367123.689 7  21708040.149          46.000       -3190.211
  -6617134.341 7  21342079.767          42.000        -336.725
   1129482.07214  25225172.403          24.000       -1112.152
   2720056.105 7  22209307.339          47.000       -3379.465
 16  6 24  5 17  0.0000000  0 11G15G24G20G08G13S20G07G05G28G21G30
 -15970067.892 7  21726912.647          46.000        1783.031
  -4364629.19015  24247730.791          32.000        2722.861
  -8815633.023 7  21269951.473          47.000        -410.791
   1492302.97715  25147002.757          35.000       -1324.345
 -19002583.966 7  20190517.178          45.000          29.801
 119216513.532 6  38648096.131          38.000        -637.559
  23265581.14815  24488510.117          32.000       -3860.619
 -11174889.667 7  21744620.883          46.000       -3218.407
  -6595838.058 6  21346128.845          41.000        -373.720
   1197143.18615  25238025.675          35.000       -1143.313
   2923210.776 7  22247966.813          47.000       -3393.409
 16  6 24  5 18  0.0000000  0 11G15G24G20G08G13S20G07G05G28G21G30
 -16076507.882 7  21706659.680          47.000        1765.122
  -4527763.49715  24216689.454          33.000        2717.731
  -8789811.543 7  21274865.559          47.000        -449.840
   1572836.99415  25162329.684          34.000       -1359.888
 -19003606.645 7  20190322.451          45.000           4.701
 119254728.587 6  38655370.412          39.000        -636.552
  23497257.31915  24532601.844          32.000       -3862.270
 -10980991.111 7  21781519.805          46.000       -3244.852
  -6572324.192 6  21350603.360          41.000        -410.071
   1266531.49115  25251234.530          34.000       -1170.774
   3127192.367 7  22286782.257          46.000       -3405.756
 16  6 24  5 19  0.0000000  0 10G15G24G20G08G13S20G07G05G28G30
 -16181893.998 7  21686605.698          47.000        1747.795
  -4690450.69815  24185731.424          34.000        2708.950
  -8761626.734 7  21280230.140          47.000        -489.238
   1655445.25915  25178045.699          33.000       -1394.328
 -19003089.006 7  20190419.893          44.000         -21.268
 119292858.938 6  38662626.631          39.000        -634.451
  23729015.93915  24576689.174          31.000       -3863.808
 -10785525.199 7  21818713.793          45.000       -3270.208
  -6546672.631 7  21355485.757          42.000        -445.272
   3331907.914 7  22325740.112          46.000       -3417.704
 16  6 24  5 20  0.0000000  0 11G15G24G20G08G13S20G07G05G28G21G30
 -16286192.758 7  21666754.976          45.000        1727.805
  -4852664.19415  24154857.766          32.000        2700.093
  -8731058.115 7  21286048.252          47.000        -530.829
   1740143.49715  25194165.425          31.000       -1431.438
 -19001004.352 7  20190817.775          45.000         -49.270
 119330918.610 6  38669868.576          38.000        -635.369
  23960866.15515  24620806.046          30.000       -3865.262
 -10588491.911 7  21856209.355          45.000       -3298.447
  -6518864.512 7  21360780.293          43.000        -482.801
   1410060.97714  25278604.219          27.000       -1224.884
   3537363.551 7  22364836.191          45.000       -3431.488
 16  6 24  5 21  0.0000000  0 11G15G24G20G08G13S20G07G05G28G21G30
 -16389304.511 7  21647137.336          47.000        1709.235
  -5014308.20615  24124099.402          35.000        2690.319
  -8698017.653 8  21292334.675          48.000        -570.914
   1827011.52415  25210696.453          30.000       -1464.958
 -18997259.023 7  20191531.472          45.000         -75.895
 119369000.468 6  38677115.878          39.000        -634.309
  24192886.85214  24664960.472          26.000       -3867.288
 -10389822.932 7  21894012.547          43.000       -3324.092
  -6488813.693 7  21366499.462          44.000        -519.120
   1484466.67215  25292725.093          33.000       -1252.010
   3743632.601 7  22404089.095          45.000       -3443.787
 16  6 24  5 22  0.0000000  0 11G15G24G20G08G13S20G07G05G28G21G30
 -16491271.499 7  21627732.293          46.000        1689.807
  -5175430.802 6  24093443.417          37.000        2680.332
  -8662559.413 7  21299082.308          47.000        -611.528
   1915988.59214  25227622.152          29.000       -1499.859
 -18991900.889 7  20192550.442          45.000        -103.685
 119407037.494 6  38684353.478          39.000        -634.167
  24425013.25715  24709145.174          33.000       -3870.077
 -10189591.718 7  21932115.673          44.000       -3350.332
  -6456576.173 6  21372630.194          41.000        -555.602
   1560537.24315  25307203.660          34.000       -1282.249
   3950646.868 7  22443479.820          44.000       -3456.653
 16  6 24  5 23  0.0000000  0 10G15G24G20G08G13S20G07G05G28G30
 -16592059.771 7  21608551.502          45.000        1669.457
  -5336002.609 6  24062886.411          37.000        2670.475
  -8624661.951 7  21306293.174          46.000        -652.462
   2007090.36515  25244962.014          32.000       -1534.951
 -18984901.515 7  20193881.685          44.000        -131.032
 119445046.226 6  38691585.930          39.000        -634.403
  24657257.578 5  24753335.669          33.000       -3872.914
  -9987797.304 7  21970516.919          44.000       -3376.699
  -6422132.856 6  21379175.195          37.000        -592.819
   4158414.124 7  22483018.593          44.000       -3469.626
 16  6 24  5 24  0.0000000  0 11G15G24G20G08G13S20G07G05G28G21G30
 -16691578.168 7  21589613.513          45.000        1648.530
  -5495937.967 6  24032455.360          40.000        2661.108
  -8584248.592 7  21313984.881          47.000        -694.404
   2100387.47715  25262715.115          33.000       -1573.717
 -18976176.889 7  20195541.288          44.000        -159.569
 119483116.021 6  38698829.743          39.000        -634.903
  24889688.81114  24797569.842          27.000       -3875.323
  -9784380.707 7  22009224.171          44.000       -3403.780
  -6385407.238 7  21386175.071          42.000        -630.068
   1717224.35014  25337133.122          29.000       -1338.745
   4366999.133 7  22522710.021          44.000       -3483.455
 16  6 24  5 25  0.0000000  0 10G15G24G20G08G13S20G07G05G28G30
 -16789874.980 7  21570909.637          46.000        1627.718
  -5655289.988 6  24002129.046          40.000        2651.734
  -8541380.131 7  21322141.619          47.000        -735.050
   2195812.56614  25280874.824          29.000       -1608.265
 -18965780.968 7  20197520.770          45.000        -187.145
 119521188.320 6  38706076.434          39.000        -635.207
  25122252.17214  24841842.336          29.000       -3877.010
  -9579423.027 7  22048229.718          45.000       -3428.784
  -6346463.502 7  21393586.859          42.000        -667.073
   4576327.581 7  22562544.802          43.000       -3495.368
 16  6 24  5 26  0.0000000  0 10G15G24G20G08G13S20G07G05G28G30
 -16886938.105 7  21552439.751          46.000        1606.842
  -5814052.831 6  23971919.665          40.000        2640.573
  -8496058.468 7  21330765.499          47.000        -776.036
   2293356.64214  25299437.581          27.000       -1643.657
 -18953708.134 7  20199819.104          45.000        -215.411
 119559258.055 6  38713321.259          39.000        -634.862
  25354909.61513  24886124.322          22.000       -3882.610
  -9372944.361 7  22087521.239          45.000       -3453.939
  -6305305.215 6  21401418.604          41.000        -704.616
   4786385.681 6  22602516.498          39.000       -3507.359
 16  6 24  5 27  0.0000000  0 10G15G24G20G08G13S20G07G05G28G30
 -16982696.263 7  21534218.216          47.000        1585.272
  -5972159.973 6  23941832.802          40.000        2630.491
  -8448227.258 7  21339866.992          47.000        -817.689
   2393071.15714  25318411.673          26.000       -1680.316
 -18939893.742 7  20202447.421          45.000        -244.421
 119597387.823 6  38720578.036          38.000        -635.503
  25587709.71414  24930418.646          25.000       -3880.755
  -9164906.983 7  22127107.425          44.000       -3480.388
  -6261876.105 6  21409678.124          38.000        -742.708
   4997218.441 6  22642630.953          36.000       -3520.294
 16  6 24  5 28  0.0000000  0  9G15G24G20G08G13S20G05G28G30
 -17077215.924 7  21516230.758          46.000        1565.003
  -6129683.510 6  23911853.642          39.000        2620.873
  -8397967.706 7  21349430.270          46.000        -858.216
   2494868.29914  25337782.445          29.000       -1713.242
 -18924410.388 7  20205392.843          45.000        -272.023
 119635486.825 6  38727826.630          38.000        -634.682
  -8955410.099 7  22166973.407          44.000       -3503.605
  -6216259.794 6  21418361.858          40.000        -778.468
   5208733.903 6  22682882.969          39.000       -3530.555
 16  6 24  5 29  0.0000000  0 10G15G24G20G08G13S20G05G28G21G30
 -17170447.814 7  21498489.087          46.000        1541.957
  -6286579.934 6  23882001.625          41.000        2608.683
  -8345245.889 7  21359464.825          47.000        -900.278
   2598775.73715  25357557.136          31.000       -1752.772
 -18907216.077 7  20208664.689          45.000        -301.656
 119673587.441 6  38735075.782          38.000        -636.642
  -8744437.299 7  22207118.505          43.000       -3529.263
  -6168424.320 6  21427465.881          41.000        -817.026
   2135728.35114  25417509.349          28.000       -1478.158
   5420955.170 6  22723272.004          41.000       -3543.749
 16  6 24  5 30  0.0000000  0 10G15G24G20G08G13S20G05G28G21G30
 -17262284.866 7  21481012.712          46.000        1518.938
  -6442747.756 6  23852278.895          40.000        2596.761
  -8289970.791 7  21369983.590          47.000        -942.464
   2704878.82915  25377750.598          31.000       -1786.696
 -18888210.970 7  20212282.573          45.000        -331.680
 119711786.267 6  38742344.688          39.000        -636.883
  -8531915.538 7  22247560.048          44.000       -3554.288
  -6118279.752 6  21437005.705          40.000        -854.517
   2225251.67914  25434542.907          29.000       -1506.705
   5633963.193 6  22763804.376          41.000       -3556.615
 16  6 24  5 31  0.0000000  0  9G15G24G20G08G13S20G05G28G30
 -17352713.214 7  21463805.087          46.000        1494.442
  -6598178.769 7  23822703.551          42.000        2583.656
  -8232144.444 8  21380987.575          48.000        -985.824
   2813169.00314  25398349.463          29.000       -1823.749
 -18867387.171 7  20216242.900          44.000        -363.073
 119750082.592 6  38749632.701          39.000        -639.604
  -8317863.638 7  22288292.538          44.000       -3580.781
  -6065828.375 6  21446985.101          40.000        -894.312
   5847746.694 7  22804486.208          42.000       -3570.122
 16  6 24  5 32  0.0000000  0 10G15G24G20G08G13S20G07G05G28G30
 -17441650.879 7  21446879.806          46.000        1469.945
  -6752796.455 6  23793279.657          41.000        2570.723
  -8171700.925 8  21392488.612          48.000       -1029.420
   2923706.61715  25419389.575          35.000       -1862.432
 -18844670.270 7  20220566.645          44.000        -394.833
 119788552.735 6  38756953.033          39.000        -642.346
  26753201.04913  25152255.918          23.000       -3896.332
  -8102234.144 7  22329322.973          42.000       -3606.834
  -6011006.285 6  21457418.970          40.000        -933.979
   6062362.063 7  22845328.041          44.000       -3584.110
 16  6 24  5 33  0.0000000  0 10G15G24G20G08G13S20G07G05G28G30
 -17529126.023 7  21430234.637          46.000        1446.122
  -6906633.922 6  23764005.084          41.000        2557.689
  -8108685.053 8  21404480.471          48.000       -1071.445
   3036441.350 6  25440843.012          36.000       -1896.318
 -18820094.939 7  20225242.745          43.000        -424.650
 119827161.697 6  38764300.569          39.000        -644.958
  26986961.90714  25196738.303          25.000       -3898.722
  -7885087.333 7  22370647.305          43.000       -3631.875
  -5953859.805 6  21468296.302          41.000        -971.727
   6277756.074 7  22886314.676          44.000       -3596.122
 16  6 24  5 34  0.0000000  0 11G15G24G20G08G13S20G07G05G28G21G30
 -17615162.902 8  21413865.059          48.000        1420.989
  -7059722.248 6  23734873.796          41.000        2543.656
  -8043138.788 8  21416953.381          48.000       -1114.587
   3151324.992 5  25462700.125          32.000       -1933.949
 -18793693.562 7  20230268.250          44.000        -456.140
 119865859.671 6  38771663.880          39.000        -646.913
  27220858.62913  25241249.306          20.000       -3902.309
  -7666482.410 7  22412245.763          44.000       -3656.572
  -5894431.683 7  21479605.003          42.000       -1010.482
    314712.00314  25505992.667          29.000       -1621.732
   6493878.483 7  22927442.100          44.000       -3608.971
 16  6 24  5 35  0.0000000  0 11G15G24G20G08G13S20G07G05G28G21G30
 -17699652.537 7  21397784.369          46.000        1396.046
  -7211957.799 7  23705903.188          42.000        2531.072
  -7974971.101 8  21429926.815          48.000       -1156.956
   3268443.56815  25484992.743          33.000       -1972.455
 -18765364.135 7  20235657.802          43.000        -488.467
 119904737.866 6  38779061.446          38.000        -648.712
  27454965.75013  25285813.759          20.000       -3903.320
  -7446344.101 7  22454140.455          45.000       -3680.971
  -5832631.658 6  21491363.448          40.000       -1049.574
    412866.49914  25524682.374          28.000       -1650.174
   6710813.115 7  22968724.115          43.000       -3621.597
 16  6 24  5 36  0.0000000  0 10G15G24G20G08G13S20G07G05G28G30
 -17782689.908 7  21381982.359          46.000        1371.945
  -7363440.454 7  23677077.837          43.000        2518.112
  -7904294.252 8  21443376.187          48.000       -1198.850
   3387679.087 5  25507680.487          35.000       -2003.976
 -18735208.192 7  20241397.790          45.000        -518.114
 119943693.920 6  38786475.486          39.000        -648.795
  27689215.59413  25330385.420          23.000       -3903.692
  -7224801.131 7  22496299.343          45.000       -3704.496
  -5768572.971 6  21503551.797          39.000       -1086.181
   6928440.457 7  23010138.350          44.000       -3633.056
 16  6 24  5 37  0.0000000  0 11G15G24G20G08G13S20G07G05G28G21G30
 -17864264.227 7  21366462.118          47.000        1346.541
  -7514166.649 7  23648395.699          44.000        2504.924
  -7831116.809 8  21457301.042          48.000       -1240.917
   3509017.39015  25530767.736          33.000       -2040.454
 -18703224.202 7  20247485.525          45.000        -548.987
 119982720.465 6  38793902.089          38.000        -651.281
  27923554.63612  25374968.527          13.000       -3906.427
  -7001877.193 7  22538716.076          43.000       -3727.681
  -5702265.397 6  21516170.241          40.000       -1124.569
    613501.69714  25562948.328          29.000       -1705.341
   7146745.313 7  23051679.047          43.000       -3644.711
 16  6 24  5 38  0.0000000  0  9G15G24G20G08G13S20G05G28G30
 -17944299.760 7  21351229.509          47.000        1321.513
  -7664066.047 7  23619870.509          45.000        2491.899
  -7755381.452 8  21471711.937          48.000       -1282.932
   3632510.38515  25554270.474          33.000       -2075.614
 -18669343.343 7  20253931.496          45.000        -580.211
 120021889.684 6  38801354.117          39.000        -653.032
  -6777530.292 7  22581408.540          43.000       -3750.279
  -5633651.749 6  21529227.367          41.000       -1162.505
   7365778.844 7  23093359.852          43.000       -3656.404
 16  6 24  5 39  0.0000000  0  9G15G24G20G08G13S20G05G28G30
 -18022865.691 7  21336278.250          46.000        1297.721
  -7813212.965 7  23591488.393          46.000        2479.940
  -7677176.082 8  21486595.071          48.000       -1323.561
   3758065.21715  25578161.724          30.000       -2110.013
 -18633641.961 7  20260725.040          45.000        -609.674
 120061124.454 6  38808821.711          39.000        -654.185
  -6551863.864 7  22624352.863          44.000       -3771.968
  -5562820.941 6  21542702.529          38.000       -1197.928
   7585447.533 7  23135162.128          43.000       -3666.089
 16  6 24  5 40  0.0000000  0 11G15G24G20G08G13S20G07G05G28G21G30
 -18099944.905 7  21321612.720          47.000        1272.179
  -7961596.311 7  23563252.527          47.000        2466.163
  -7596503.286 8  21501947.022          48.000       -1365.473
   3885673.73215  25602443.161          30.000       -2143.412
 -18596111.500 7  20267867.484          44.000        -641.172
 120100422.555 6  38816300.229          39.000        -656.283
  28627088.06112  25508921.546          14.000       -3908.992
  -6324894.997 7  22667544.350          44.000       -3794.195
  -5489776.486 6  21556602.692          38.000       -1236.471
    925863.42315  25622708.134          32.000       -1785.198
   7805743.372 7  23177083.676          43.000       -3677.063
 16  6 24  5 41  0.0010000  0 10G15G24G20G08G13S20G07G05G28G30
 -18175474.547 7  21307237.074          46.000        1246.040
  -8109160.124 7  23535171.637          46.000        2452.542
  -7513317.925 8  21517776.988          48.000       -1407.131
   4015376.75715  25627128.571          30.000       -2177.697
 -18556695.062 7  20275368.304          44.000        -672.769
 120139840.346 6  38823801.606          38.000        -657.663
  28861890.97613  25553577.003          20.000       -3918.727
  -6096590.064 7  22710988.203          42.000       -3816.092
  -5414473.231 6  21570936.110          40.000       -1273.406
   8026709.496 7  23219131.529          42.000       -3688.774
 16  6 24  5 42  0.0010000  0 11G15G24G20G08G13S20G07G05G28G21G30
 -18249468.451 7  21293157.680          47.000        1220.255
  -8255922.796 7  23507244.099          45.000        2439.527
  -7427659.230 7  21534075.770          47.000       -1448.329
   4147128.91914  25652195.914          26.000       -2213.280
 -18515418.414 7  20283221.286          44.000        -703.662
 120179337.597 6  38831318.462          39.000        -658.624
  29096683.82912  25598253.295          14.000       -3902.831
  -5867007.702 7  22754677.703          43.000       -3836.958
  -5336950.737 6  21585683.446          39.000       -1309.975
   1142305.13514  25664053.825          29.000       -1835.458
   8248297.706 6  23261296.298          41.000       -3698.413
 16  6 24  5 43  0.0010000  0  9G15G24G20G08G13S20G05G28G30
 -18321932.803 8  21279368.728          48.000        1195.368
  -8401896.216 7  23479464.592          43.000        2427.419
  -7339550.812 7  21550842.917          47.000       -1488.238
   4280902.48914  25677655.031          27.000       -2244.114
 -18472293.649 7  20291427.425          44.000        -733.538
 120218891.528 6  38838844.130          39.000        -658.933
  -5636183.426 6  22798599.342          41.000       -3855.958
  -5257233.245 6  21600857.213          40.000       -1345.441
   8470482.633 6  23303576.657          40.000       -3708.136
 16  6 24  5 44  0.0010000  0 10G15G24G20G08G13S20G05G28G21G30
 -18392931.381 8  21265859.188          48.000        1170.999
  -8547150.564 7  23451826.082          43.000        2414.716
  -7249078.072 7  21568059.406          47.000       -1527.647
   4416604.01413  25703483.151          23.000       -2278.535
 -18427393.104 7  20299971.261          43.000        -763.059
 120258436.630 6  38846368.594          38.000        -658.769
  -5404215.140 6  22842741.849          40.000       -3875.657
  -5175406.182 6  21616429.229          41.000       -1381.782
   1364669.31014  25706541.581          26.000       -1884.691
   8693176.284 6  23345954.808          41.000       -3715.955
 16  6 24  5 45  0.0010000  0 10G15G24G20G08G13S20G05G28G21G30
 -18462379.366 7  21252641.922          47.000        1143.877
  -8691605.954 7  23424335.462          43.000        2399.854
  -7156177.219 7  21585737.035          46.000       -1569.360
   4554295.02113  25729676.137          21.000       -2316.259
 -18380640.280 7  20308868.167          44.000        -795.945
 120298050.087 6  38853907.350          38.000        -661.590
  -5171052.774 6  22887112.937          41.000       -3896.455
  -5091405.726 6  21632411.621          40.000       -1418.414
   1478488.02314  25728184.353          25.000       -1909.945
   8916439.461 7  23388440.661          42.000       -3726.330
 16  6 24  5 46  0.0010000  0 10G15G24G20G08G13S20G05G28G21G30
 -18530217.043 8  21239733.786          48.000        1117.900
  -8835209.477 7  23397010.480          46.000        2386.501
  -7060810.439 7  21603884.686          45.000       -1609.479
   4694014.25014  25756274.317          27.000       -2345.826
 -18331983.474 7  20318127.288          43.000        -825.847
 120337771.155 6  38861467.343          38.000        -663.086
  -4936670.803 6  22931713.599          41.000       -3916.263
  -5005193.910 6  21648819.049          41.000       -1455.108
   1593821.59414  25750147.197          26.000       -1934.690
   9140308.009 7  23431041.110          42.000       -3735.956
 16  6 24  5 47  0.0010000  0  9G15G24G20G08G13S20G05G28G30
 -18596570.698 8  21227108.449          48.000        1094.405
  -8978093.400 7  23369820.581          47.000        2376.654
  -6963125.276 7  21622475.171          46.000       -1646.436
   4835609.89313  25783210.456          21.000       -2367.712
 -18281558.133 7  20327723.302          43.000        -853.787
 120377466.915 6  38869021.699          39.000        -659.298
  -4701230.295 6  22976515.655          39.000       -3931.567
  -4916919.259 6  21665619.508          41.000       -1487.861
   9364631.822 6  23473728.042          41.000       -3742.179
 16  6 24  5 48  0.0010000  0  9G15G24G20G08G13S20G05G28G30
 -18661477.138 8  21214756.452          48.000        1068.929
  -9120299.175 7  23342758.155          47.000        2363.260
  -6863181.639 7  21641493.221          46.000       -1685.190
   4978997.19814  25810497.239          25.000       -2405.500
 -18229409.859 7  20337646.857          43.000        -885.114
 120417075.917 6  38876558.832          38.000        -660.581
  -4464802.607 6  23021501.479          38.000       -3949.651
  -4826640.437 6  21682797.432          41.000       -1522.199
   9589350.252 6  23516489.382          40.000       -3749.828
 16  6 24  5 49  0.0010000  0  9G15G24G20G08G13S20G05G28G30
 -18724813.443 8  21202704.250          49.000        1042.773
  -9261711.114 7  23315848.523          47.000        2350.548
  -6760879.600 7  21660960.160          45.000       -1723.903
   5124302.12813  25838155.363          20.000       -2438.293
 -18175424.618 7  20347921.510          44.000        -914.706
 120456704.624 6  38884099.124          38.000        -659.521
  -4227299.914 6  23066702.306          40.000       -3966.162
  -4734257.168 6  21700374.408          39.000       -1557.327
   9814562.269 6  23559349.053          40.000       -3757.193
 16  6 24  5 50  0.0000000  0 10G15G24G20G08G13S20G05G28G21G30
 -18786646.939 8  20891145.200          48.000        1017.611
  -9402400.497 7  22989280.262          44.000        2338.868
  -6656307.819 7  21381065.473          44.000       -1761.662
   5271395.75413  25566349.410          21.000       -2465.566
 -18119677.171 7  20058736.519          44.000        -943.552
 120496284.272 6  38591837.641          38.000        -659.737
  -3988822.622 6  22812291.027          39.000       -3982.044
  -4639858.269 6  21418548.366          41.000       -1589.752
   2065701.68814  25540722.177          26.000       -2023.844
  10040178.705 6  23302486.856          39.000       -3763.488
 16  6 24  5 51  0.0000000  0  9G15G24G20G08G13S20G05G28G30
 -18846968.032 8  20879664.807          48.000         993.366
  -9542364.727 7  22962646.501          44.000        2327.008
  -6549480.794 7  21401393.668          44.000       -1798.739
   5420325.87812  25594697.359          15.000       -2498.168
 -18062167.885 7  20069680.405          44.000        -972.682
 120535815.865 6  38599362.175          38.000        -658.134
  -3749396.200 6  22857851.801          39.000       -3997.978
  -4543457.735 6  21436891.302          41.000       -1622.396
  10266185.137 6  23345497.141          40.000       -3769.984
 16  6 24  5 52  0.0000000  0 10G15G24G20G08G13S20G05G17G28G30
 -18905783.125 7  20868472.342          47.000         966.984
  -9681615.367 7  22936151.294          45.000        2314.316
  -6440428.652 7  21422146.671          44.000       -1836.826
   5571006.81812  25623357.160          13.000       -2524.288
 -18002912.132 7  20080954.503          43.000       -1003.440
 120575274.031 6  38606870.638          38.000        -657.353
  -3509062.011 6  22903587.320          41.000       -4013.319
   -132473.09516  24927318.685          40.000        2207.824
  -4445084.691 7  21455612.820          42.000       -1656.104
  10492552.189 6  23388572.532          41.000       -3776.440
 16  6 24  5 53  0.0000000  0 10G15G18G24G20G13S20G05G17G28G30
 -18962989.832 7  20857586.459          47.000         940.766
    -58690.94915  24035247.709          35.000        1781.318
  -9820055.799 7  22909806.369          46.000        2301.002
  -6329072.706 7  21443336.802          44.000       -1873.465
 -17941816.645 7  20092580.466          43.000       -1033.515
 120614754.619 6  38614382.956          39.000        -657.915
  -3267752.026 6  22949504.253          40.000       -4028.508
   -264676.770 6  24902156.047          40.000        2199.374
  -4344660.290 7  21474722.187          42.000       -1689.719
  10719359.328 6  23431731.667          41.000       -3782.728
 16  6 24  5 54  0.0000000  0 11G15G18G24G20G08G13S20G05G17G28G30
 -19018637.162 7  20846997.510          47.000         914.444
   -164875.863 5  24015040.235          35.000        1758.625
  -9957740.721 7  22883604.221          46.000        2288.224
  -6215486.212 7  21464951.095          43.000       -1911.822
    254618.95812  25681729.691          16.000       -2588.420
 -17878939.529 7  20104546.028          43.000       -1063.522
 120654184.630 6  38621886.585          39.000        -657.901
  -3025549.972 7  22995596.543          42.000       -4043.767
   -396458.144 6  24877078.496          40.000        2192.528
  -4242256.626 7  21494210.817          43.000       -1723.329
  10946534.656 7  23474965.628          42.000       -3789.134
 16  6 24  5 55  0.0000000  0 11G15G18G24G20G08G13S20G05G17G28G30
 -19072684.685 8  20836712.247          48.000         887.306
   -269687.692 5  23995094.723          34.000        1736.019
 -10094635.125 7  22857555.409          47.000        2274.796
  -6099652.466 7  21486994.053          44.000       -1949.306
    410663.64312  25711419.823          13.000       -2631.602
 -17814249.523 7  20116855.534          43.000       -1093.593
 120693588.315 6  38629383.321          38.000        -656.458
  -2782449.029 7  23041857.681          42.000       -4060.209
   -527765.295 6  24852094.338          40.000        2184.337
  -4137856.329 6  21514074.784          41.000       -1757.172
  11174096.504 6  23518267.052          41.000       -3796.764
 16  6 24  5 56  0.0000000  0 10G15G18G24G20G13S20G05G17G28G30
 -19125088.044 7  20826739.186          47.000         859.876
   -373078.488 5  23975422.639          35.000        1710.433
 -10230700.023 7  22831664.014          47.000        2260.824
  -5981552.456 7  21509470.125          45.000       -1987.034
 -17747711.943 7  20129518.685          43.000       -1123.819
 120733007.704 6  38636886.024          38.000        -657.071
  -2538439.938 7  23088293.897          44.000       -4074.000
   -658543.100 6  24827205.965          38.000        2174.703
  -4031439.480 7  21534325.971          42.000       -1789.923
  11402066.562 6  23561647.299          41.000       -3802.248
 16  6 24  5 57  0.0000000  0 10G15G18G24G20G13S20G05G17G28G30
 -19175845.452 7  20817080.630          47.000         832.772
   -475041.960 6  23956017.334          36.000        1686.977
 -10365939.851 7  22805929.725          47.000        2247.828
  -5861209.093 7  21532368.667          43.000       -2023.760
 -17679334.397 7  20142532.028          44.000       -1154.457
 120772437.306 6  38644388.833          39.000        -655.726
  -2293554.490 7  23134893.115          43.000       -4087.761
   -788777.492 5  24802416.640          34.000        2168.023
  -3923027.642 7  21554957.381          43.000       -1823.104
  11630424.627 7  23605104.553          42.000       -3808.282
 16  6 24  5 58  0.0000000  0 11G15G18G24G20G08G13S20G05G17G28G30
 -19224968.411 8  20807734.363          48.000         804.486
   -575585.230 5  23936885.386          35.000        1663.414
 -10500370.863 7  22780347.199          46.000        2233.176
  -5738659.061 7  21555686.364          43.000       -2061.091
    888479.36014  25802509.402          24.000       -2700.875
 -17609137.873 7  20155887.186          43.000       -1185.885
 120811847.995 6  38651889.826          39.000        -656.413
  -2047838.647 7  23181651.235          43.000       -4102.972
   -918469.45914  24777711.948          26.000        2156.226
  -3812656.344 7  21575959.730          43.000       -1856.196
  11859137.202 7  23648627.700          43.000       -3815.141
 16  6 24  6  1  0.0000000  0 10G15G18G24G20G13S20G05G17G28G30
 -19362420.236 7  20781576.976          47.000         723.062
   -868542.016 6  23881137.455          37.000        1591.774
 -10898754.070 7  22704537.625          47.000        2193.914
  -5357912.767 7  21628144.135          45.000       -2167.631
 -17387619.425 7  20198039.443          42.000       -1275.305
 120929949.383 6  38674362.461          38.000        -655.071
  -1305940.057 6  23322826.865          40.000       -4139.643
  -1304632.07715  24704364.303          33.000        2130.204
  -3469916.243 7  21641180.425          43.000       -1950.794
  12547295.343 7  23779579.194          42.000       -3830.036
 16  6 24  6  2  0.0000000  0 10G15G18G24G20G13S20G05G17G28G30
 -19405042.697 7  20773465.887          47.000         697.281
   -963400.396 6  23863089.113          38.000        1569.570
 -11030040.559 7  22679553.154          45.000        2182.195
  -5226828.935 7  21653088.035          44.000       -2201.220
 -17310280.212 7  20212760.429          44.000       -1303.066
 120969110.910 6  38681815.239          39.000        -650.788
  -1057280.716 7  23370149.622          42.000       -4149.029
  -1432076.461 6  24680114.939          38.000        2119.039
  -3351986.215 7  21663622.696          42.000       -1979.993
  12777172.881 6  23823321.254          40.000       -3833.011
 16  6 24  6  3  0.0000000  0 10G15G18G24G20G13S20G05G17G28G30
 -19446116.139 8  20765651.645          48.000         671.657
  -1056903.132 6  23845297.063          37.000        1546.923
 -11160629.585 7  22654703.136          45.000        2170.884
  -5093753.751 7  21678409.627          44.000       -2233.902
 -17231256.709 7  20227796.916          43.000       -1331.181
 121008097.967 6  38689233.833          38.000        -648.260
   -808046.848 7  23417578.389          43.000       -4158.445
  -1559005.581 6  24655963.297          41.000        2111.025
  -3232304.335 7  21686398.668          43.000       -2008.920
  13007212.139 6  23867098.877          40.000       -3835.513
 16  6 24  6  4  0.0000000  0 10G15G18G24G20G13S20G05G17G28G30
 -19485581.795 7  20758139.989          47.000         643.567
  -1148987.358 6  23827769.925          38.000        1521.432
 -11290468.439 7  22629996.141          47.000        2156.269
  -4958653.829 7  21704121.389          45.000       -2269.319
 -17150498.788 7  20243165.061          44.000       -1361.515
 121046969.617 6  38696631.661          38.000        -647.956
   -558213.048 7  23465119.570          43.000       -4169.965
  -1685348.656 6  24631918.764          40.000        2100.152
  -3110835.764 6  21709509.440          41.000       -2039.977
  13237451.502 6  23910914.175          40.000       -3840.250
 16  6 24  6  5  0.0000000  0 10G15G18G24G20G13S20G05G17G28G30
 -19523278.686 8  20750967.461          48.000         613.191
  -1239488.300 6  23810543.594          36.000        1495.003
 -11419399.719 7  22605459.756          46.000        2140.711
  -4821395.414 7  21730239.321          44.000       -2306.316
 -17067856.324 7  20258890.970          44.000       -1393.374
 121085878.973 6  38704036.504          39.000        -648.721
   -307651.589 7  23512799.009          43.000       -4182.268
  -1810932.731 6  24608021.563          37.000        2085.848
  -2987444.432 6  21732992.809          41.000       -2072.823
  13468031.217 6  23954790.200          39.000       -3846.327
 16  6 24  6  6  0.0000000  0 10G15G18G24G20G13S20G05G17G28G30
 -19559190.513 7  20744133.590          47.000         585.059
  -1328385.042 6  23793626.550          37.000        1469.200
 -11547412.955 7  22581101.747          45.000        2126.630
  -4681989.818 7  21756768.189          45.000       -2340.374
 -16983323.366 7  20274976.843          44.000       -1423.591
 121124819.188 6  38711445.727          38.000        -648.504
    -56380.007 7  23560614.473          42.000       -4192.963
  -1935729.602 6  24584277.401          41.000        2074.641
  -2862139.421 7  21756838.776          43.000       -2103.233
  13698946.881 6  23998732.535          38.000       -3850.594
 16  6 24  6  7  0.0000000  0 10G15G18G24G20G13S20G05G17G28G30
 -19593382.464 7  20737627.206          47.000         554.700
  -1415738.848 6  23777004.921          37.000        1443.002
 -11674577.430 7  22556903.321          46.000        2111.566
  -4540527.881 7  21783687.471          44.000       -2375.208
 -16896974.153 7  20291408.875          44.000       -1455.535
 121163710.822 6  38718845.090          39.000        -648.051
    195504.375 6  23608541.025          39.000       -4203.404
  -2059791.680 7  24560669.542          42.000        2060.665
  -2735009.789 7  21781031.356          44.000       -2134.790
  13930113.949 6  24042723.766          36.000       -3854.292
 16  6 24  6  8  0.0000000  0 10G15G18G24G20G13S20G05G17G28G30
 -19625796.534 7  20731458.484          47.000         525.683
  -1501488.045 6  23760690.730          40.000        1414.862
 -11800840.029 7  22532875.889          47.000        2096.562
  -4396979.922 7  21811002.821          43.000       -2409.369
 -16808762.375 7  20308193.873          44.000       -1485.082
 121202605.086 6  38726246.216          38.000        -648.040
    448023.787 6  23656591.351          37.000       -4213.985
  -2183049.931 7  24537214.495          42.000        2046.949
  -2606023.673 7  21805573.953          42.000       -2165.066
  14161569.89815  24086772.531          31.000       -3861.147
 16  6 24  6  9  0.0000000  0 10G15G18G24G20G13S20G05G17G28G30
 -19656455.070 8  20725625.260          48.000         496.155
  -1585651.568 6  23744669.336          36.000        1389.059
 -11926228.260 7  22509015.247          46.000        2082.162
  -4251395.462 7  21838709.194          44.000       -2443.087
 -16718719.583 7  20325329.044          44.000       -1515.963
 121241463.797 6  38733640.100          39.000        -646.643
    701124.402 6  23704755.208          37.000       -4223.811
  -2305513.380 6  24513912.504          40.000        2034.112
  -2475228.416 6  21830461.820          41.000       -2195.004
  14393271.48915  24130874.641          32.000       -3864.161
 16  6 24  6 10  0.0000000  0 11G15G18G24G20G13S20G05G17G28G21G30
 -19685257.393 7  20720144.077          47.000         464.633
  -1668123.740 6  23728981.782          40.000        1360.214
 -12050645.336 7  22485339.926          46.000        2065.749
  -4103701.074 7  21866811.234          42.000       -2478.853
 -16626755.933 7  20342830.444          45.000       -1548.475
 121280385.604 6  38741048.904          39.000        -649.409
    954873.911 6  23753049.576          39.000       -4234.334
  -2427069.582 5  24490788.819          35.000        2018.595
  -2342547.884 7  21855710.174          42.000       -2226.970
   4717796.63113  26048085.653          21.000       -2406.287
  14625301.26215  24175025.751          31.000       -3870.011
 16  6 24  6 11  0.0000000  0 10G15G18G24G20G13S20G05G17G28G21
 -19712267.047 7  20715003.505          47.000         436.253
  -1748964.079 6  23713600.951          41.000        1334.401
 -12174158.901 7  22461835.093          46.000        2052.212
  -3953988.386 6  21895299.727          41.000       -2511.069
 -16532944.789 7  20360681.371          44.000       -1577.621
 121319303.303 6  38748453.538          39.000        -646.912
   1209176.036 6  23801442.188          39.000       -4241.311
  -2547768.346 5  24467822.169          34.000        2004.450
  -2208070.740 7  21881302.907          44.000       -2255.771
   4862517.29911  26075616.879          11.000       -2415.417
 16  6 24  6 12  0.0000000  0 10G15G18G24G20G13S20G05G17G28G30
 -19737474.686 8  20710208.621          48.000         404.879
  -1828160.079 6  23698531.466          41.000        1306.351
 -12296764.352 7  22438503.594          46.000        2035.729
  -3802276.142 7  21924171.618          42.000       -2545.112
 -16437287.978 7  20378881.215          42.000       -1610.021
 121358201.944 6  38755855.728          39.000        -648.742
   1464006.759 6  23849936.221          40.000       -4251.638
  -2667588.658 6  24445015.153          38.000        1988.572
  -2071813.660 7  21907233.163          45.000       -2285.607
  15089994.60715  24263465.618          33.000       -3876.576
 16  6 24  6 13  0.0000000  0 10G15G18G24G20G13S20G05G17G28G30
 -19760795.942 7  20705768.885          47.000         373.123
  -1905623.282 7  23683792.367          42.000        1277.054
 -12418381.662 7  22415360.539          45.000        2019.381
  -3648507.450 7  21953433.382          43.000       -2579.073
 -16339711.281 7  20397451.964          43.000       -1642.126
 121397153.105 6  38763267.394          39.000        -650.078
   1719418.298 6  23898536.805          40.000       -4261.318
  -2786433.735 6  24422398.327          39.000        1972.536
  -1933716.760 7  21933511.551          45.000       -2316.588
  15322804.885 5  24307766.905          33.000       -3882.231
 16  6 24  6 14  0.0000000  0 11G15G18G24G20G13S20G05G17G28G21G30
 -19782289.063 7  20701677.681          47.000         343.226
  -1981407.608 6  23669371.978          41.000        1249.269
 -12539072.649 7  22392392.039          45.000        2003.980
  -3492768.850 7  21983068.930          43.000       -2612.157
 -16240282.926 7  20416374.666          43.000       -1672.564
 121436092.650 6  38770677.123          39.000        -648.729
   1975320.669 6  23947234.517          41.000       -4268.916
  -2904347.538 6  24399956.736          37.000        1957.315
  -1793863.616 7  21960123.499          45.000       -2345.244
   5301437.39514  26159365.342          24.000       -2479.317
  15555839.14615  24352114.853          33.000       -3885.633
 16  6 24  6 15  0.0000000  0 10G15G18G24G20G13S20G05G17G28G30
 -19801913.262 8  20697946.161          48.000         310.737
  -2055468.281 6  23655275.308          40.000        1218.793
 -12658800.685 8  22369611.774          48.000        1987.019
  -3335047.685 7  22013080.338          42.000       -2645.552
 -16138973.203 7  20435649.251          42.000       -1704.451
 121475046.553 6  38778091.546          39.000        -649.985
   2231722.143 5  23996018.171          35.000       -4278.063
  -3021277.312 6  24377700.816          37.000        1941.712
  -1652238.492 7  21987074.279          44.000       -2376.382
  15789118.75214  24396484.126          28.000       -3889.932
 16  6 24  6 16  0.0000000  0 10G15G18G24G20G13S20G05G17G28G30
 -19819586.655 8  20694583.225          48.000         278.996
  -2127719.829 6  23641523.821          41.000        1189.992
 -12777487.230 7  22347024.143          46.000        1970.221
  -3175290.778 7  22043483.277          43.000       -2678.578
 -16035711.010 7  20455300.552          43.000       -1736.100
 121514096.819 6  38785520.330          39.000        -650.821
   2488672.517 5  24044914.118          35.000       -4284.894
  -3137127.821 6  24355650.895          37.000        1921.780
  -1508785.062 7  22014371.933          45.000       -2404.874
  16022708.52316  24440957.070          36.000       -3894.312
 16  6 24  6 17  0.0000000  0 10G15G18G24G20G13S20G05G17G28G30
 -19835437.537 8  20691566.501          48.000         249.754
  -2198288.048 6  23628091.516          39.000        1162.804
 -12895264.994 7  22324612.252          46.000        1956.375
  -3013654.974 7  22074242.112          43.000       -2708.287
 -15930635.026 7  20475297.245          43.000       -1765.611
 121553108.486 6  38792945.433          39.000        -648.874
   2746011.210 6  24093886.740          37.000       -4291.299
  -3252014.797 6  24333789.053          39.000        1907.625
  -1363657.159 7  22041991.719          46.000       -2431.992
  16256461.947 5  24485433.138          35.000       -3894.372
 16  6 24  6 18  0.0000000  0 10G15G18G24G20G13S20G05G17G28G30
 -19849522.377 8  20688885.904          48.000         219.386
  -2267223.706 6  23614976.368          40.000        1134.315
 -13012193.286 7  22302361.811          47.000        1941.247
  -2850224.882 7  22105340.163          42.000       -2739.144
 -15823812.447 6  20495621.845          41.000       -1794.781
 121592005.697 6  38800346.681          38.000        -648.888
   3003650.565 6  24142915.605          37.000       -4297.605
  -3365980.658 6  24312105.482          40.000        1890.804
  -1216936.248 7  22069910.602          46.000       -2459.468
  16490305.13015  24529925.208          31.000       -3897.638
 16  6 24  6 19  0.0000000  0 10G15G18G24G20G13S20G05G17G28G30
 -19861779.190 7  20686553.054          47.000         189.018
  -2334461.975 7  23602185.272          43.000        1106.888
 -13128213.495 8  22280286.204          48.000        1926.232
  -2684967.058 7  22136789.992          43.000       -2769.184
 -15715191.607 7  20516296.096          43.000       -1825.239
 121630835.931 6  38807735.470          39.000        -646.496
   3261621.927 6  24192007.343          37.000       -4301.984
  -3478950.736 6  24290606.116          39.000        1874.822
  -1068584.611 7  22098140.168          46.000       -2485.975
  16724281.57015  24574452.003          35.000       -3900.803
 16  6 24  6 20  0.0010000  0 10G15G18G24G20G13S20G05G17G28G30
 -19872181.932 7  20684573.449          47.000         157.479
  -2399973.642 7  23589719.517          44.000        1076.583
 -13243305.590 7  22258381.417          46.000        1910.013
  -2517881.477 7  22168584.446          43.000       -2800.625
 -15604755.976 7  20537311.393          43.000       -1855.714
 121669621.588 6  38815116.354          39.000        -646.934
   3519923.277 6  24241163.560          39.000       -4307.794
  -3590887.088 5  24269300.395          34.000        1856.023
   -918599.910 7  22126679.616          45.000       -2513.506
  16958404.771 5  24619000.961          35.000       -3903.276
 16  6 24  6 21  0.0010000  0 10G15G18G24G20G13S20G05G17G28G30
 -19880687.438 7  20682954.627          47.000         126.295
  -2463710.630 7  23577588.876          44.000        1048.662
 -13357424.952 7  22236666.890          47.000        1894.835
  -2348959.605 7  22200728.253          44.000       -2829.599
 -15492476.957 6  20558674.194          41.000       -1886.105
 121708390.755 6  38822494.096          38.000        -645.022
   3778558.539 6  24290382.125          41.000       -4312.486
  -3701729.14514  24248183.712          28.000        1838.802
   -766968.946 7  22155536.238          46.000       -2540.161
  17192692.819 6  24663590.072          37.000       -3905.446
 16  6 24  6 22  0.0010000  0 10G15G18G24G20G13S20G05G17G28G30
 -19887401.234 7  20681675.090          46.000          97.272
  -2525774.884 7  23565777.469          45.000        1020.995
 -13470681.576 7  22215113.183          46.000        1880.942
  -2178331.912 7  22233201.538          46.000       -2857.557
 -15378467.544 7  20580371.114          42.000       -1913.872
 121747038.928 6  38829849.206          38.000        -642.112
   4037395.903 7  24339637.459          42.000       -4315.073
  -3811571.52616  24227305.870          39.000        1822.968
   -613819.146 7  22184679.218          45.000       -2564.620
  17427028.100 6  24708188.152          39.000       -3904.564
 16  6 24  6 23  0.0010000  0 10G15G18G24G20G13S20G05G17G28G30
 -19892324.933 7  20680739.095          47.000          65.825
  -2586165.079 7  23554284.791          44.000         991.351
 -13583080.397 8  22193727.942          48.000        1865.066
  -2006029.501 7  22265988.665          45.000       -2886.592
 -15262741.358 6  20602389.433          41.000       -1944.776
 121785561.440 6  38837178.682          38.000        -641.587
   4296403.615 6  24388923.348          40.000       -4319.642
  -3920401.196 6  24206601.239          41.000        1803.696
   -459177.665 7  22214107.510          46.000       -2590.494
  17661392.194 5  24752783.038          35.000       -3907.531
 16  6 24  6 24  0.0010000  0 10G15G18G24G20G13S20G05G17G28G30
 -19895248.720 8  20680185.383          48.000          32.014
  -2644668.337 7  23543153.018          44.000         959.766
 -13694415.078 7  22172537.531          46.000        1847.102
  -1831872.376 7  22299126.349          43.000       -2917.968
 -15145099.739 7  20624782.407          45.000       -1976.741
 121824152.262 6  38844523.251          39.000        -644.027
   4555760.036 6  24438276.577          39.000       -4325.513
  -4027995.753 7  24186125.224          42.000        1782.066
   -302860.214 7  22243855.210          47.000       -2619.163
  17895978.86814  24797406.072          28.000       -3912.080
 16  6 24  6 25  0.0010000  0 10G15G18G24G20G13S20G05G17G28G30
 -19896157.310 8  20680014.597          49.000          -1.880
  -2701265.077 7  23532385.204          45.000         927.265
 -13804671.680 7  22151558.740          47.000        1828.777
  -1655872.866 7  22332617.645          43.000       -2948.743
 -15025537.517 7  20647532.657          43.000       -2008.426
 121862824.064 6  38851881.903          38.000        -644.181
   4815450.974 6  24487691.668          37.000       -4330.895
  -4134325.599 6  24165888.259          40.000        1761.492
   -144875.646 7  22273916.631          47.000       -2646.804
  18130786.82716  24842109.638          38.000       -3914.482
 16  6 24  6 26  0.0010000  0 10G15G18G24G20G13S20G05G17G28G30
 -19894999.391 7  20680230.160          47.000         -38.033
  -2755900.675 7  23521987.649          45.000         892.865
 -13913801.544 7  22130791.271          47.000        1808.174
  -1478008.831 7  22366465.152          44.000       -2980.808
 -14904014.434 7  20670657.581          42.000       -2042.780
 121901608.251 6  38859262.927          38.000        -648.757
   5075497.820 6  24537172.964          37.000       -4338.307
  -4239324.703 5  24145893.310          35.000        1737.946
     14802.454 7  22304304.457          47.000       -2676.566
  18365852.071 6  24886839.171          38.000       -3921.170
 16  6 24  6 27  0.0010000  0 10G15G18G24G20G13S20G05G17G28G30
 -19891603.235 7  20680876.551          47.000         -74.888
  -2808399.398 7  23511999.388          46.000         857.194
 -14021635.167 8  22110272.048          48.000        1786.195
  -1298137.310 7  22400694.591          45.000       -3014.382
 -14780369.537 7  20694187.769          43.000       -2078.402
 121940665.719 6  38866694.242          38.000        -653.256
   5336042.775 6  24586751.685          36.000       -4346.218
  -4342807.703 5  24126194.213          32.000        1712.985
    176322.141 7  22335040.032          47.000       -2707.087
  18601330.985 5  24931639.115          31.000       -3927.810
 16  6 24  6 28  0.0010000  0 10G15G18G24G20G13S20G05G17G28G30
 -19885867.166 8  20681970.104          48.000        -114.823
  -2858656.500 7  23502435.535          46.000         818.910
 -14128072.679 7  22090016.865          47.000        1762.235
  -1116185.592 7  22435317.499          44.000       -3049.423
 -14654512.185 7  20718136.395          42.000       -2115.930
 121980093.628 6  38874197.259          38.000        -660.293
   5597158.443 6  24636440.971          36.000       -4356.381
  -4444659.500 6  24106827.997          39.000        1684.654
    339758.925 7  22366140.351          46.000       -2739.732
  18837310.45015  24976546.064          33.000       -3935.810
 16  6 24  6 29  0.0010000  0 10G15G18G24G20G13S20G05G17G28G30
 -19877828.636 8  20683500.139          49.000        -153.375
  -2906705.748 7  23493289.788          46.000         782.198
 -14233153.837 7  22070020.067          47.000        1739.870
   -932220.071 7  22470328.167          45.000       -3082.671
 -14526490.341 7  20742498.644          43.000       -2151.657
 122019842.343 6  38881760.969          38.000        -664.737
   5858777.814 5  24686222.673          35.000       -4365.548
  -4544902.744 7  24087753.966          42.000        1657.236
    505051.438 7  22397595.188          47.000       -2770.311
  19073737.814 5  25021545.847          34.000       -3945.582
 16  6 24  6 30  0.0000000  0 10G15G18G24G20G13S20G05G17G28G30
 -19867512.503 8  20385670.327          48.000        -191.110
  -2952569.188 7  23184769.781          46.000         746.215
 -14336904.909 7  21750486.355          47.000        1718.030
   -746294.270 7  22205914.109          44.000       -3115.477
 -14396339.510 7  20467471.922          43.000       -2187.232
 122059890.481 6  38589588.902          38.000        -671.161
   6120847.188 5  24436304.982          35.000       -4370.837
  -4643548.388 6  23769187.101          41.000        1630.794
    672150.960 7  22129601.340          47.000       -2800.195
  19310574.29914  24766818.580          29.000       -3951.617
 16  6 24  6 31  0.0000000  0 10G15G18G24G20G13S20G05G17G28G30
 -19854831.460 8  20388084.407          49.000        -231.086
  -2996156.234 7  23176475.239          46.000         707.706
 -14439239.561 7  21731012.436          47.000        1693.769
   -558349.825 7  22241676.690          43.000       -3149.555
 -14263983.673 7  20492659.880          44.000       -2224.884
 122100321.693 6  38597283.505          38.000        -677.122
   6383425.384 5  24486276.437          35.000       -4379.874
  -4740494.289 6  23750731.349          38.000        1601.330
    841119.758 7  22161754.466          47.000       -2831.762
  19547892.55714  24811974.316          28.000       -3959.297
 16  6 24  6 32  0.0000000  0 10G15G18G24G20G13S20G05G17G28G30
 -19839784.764 8  20390946.889          48.000        -269.550
  -3037462.530 7  23168614.021          46.000         670.162
 -14540159.205 8  21711809.030          48.000        1671.494
   -368415.025 7  22277821.204          44.000       -3181.442
 -14129433.138 7  20518265.230          45.000       -2260.325
 122141118.639 6  38605046.601          38.000        -682.432
   6646484.684 6  24536336.976          37.000       -4387.753
  -4835726.065 6  23732612.195          40.000        1574.110
   1011935.096 7  22194259.108          47.000       -2861.436
  19785678.55415  24857232.066          34.000       -3966.841
 16  6 24  6 33  0.0000000  0 10G15G18G24G20G13S20G05G17G28G30
 -19822674.064 8  20394203.309          49.000        -302.138
  -3076786.361 7  23161131.297          46.000         639.230
 -14639965.926 7  21692815.235          47.000        1654.381
   -176820.214 7  22314279.542          43.000       -3206.488
 -13992999.852 7  20544225.710          44.000       -2289.156
 122181967.266 6  38612820.150          38.000        -680.379
   6909695.394 6  24586421.370          36.000       -4388.065
  -4929530.449 7  23714766.782          43.000        1551.626
   1184270.425 7  22227053.669          47.000       -2884.305
  20023618.240 6  24902510.373          36.000       -3966.364
 16  6 24  6 34  0.0000000  0 10G15G18G24G20G13S20G05G17G28G30
 -19803535.069 8  20397845.274          48.000        -337.036
  -3114160.346 7  23154019.025          46.000         605.395
 -14738696.861 7  21674026.935          47.000        1635.799
     16370.210 7  22351043.574          43.000       -3234.192
 -13854730.681 7  20570539.050          44.000       -2320.299
 122222831.833 6  38620595.722          38.000        -682.612
   7172993.98816  24636525.290          36.000       -4390.789
  -5021928.620 6  23697180.313          41.000        1527.158
   1358067.553 7  22260127.067          47.000       -2909.601
  20261662.17915  24947801.803          32.000       -3969.896
 16  6 24  6 35  0.0000000  0 10G15G18G24G20G13S20G05G17G28G30
 -19782231.865 8  20401898.227          48.000        -372.513
  -3149445.498 7  23147302.733          46.000         571.178
 -14836216.225 7  21655468.838          47.000        1615.525
    211263.735 7  22388132.406          45.000       -3262.124
 -13714499.870 7  20597220.259          43.000       -2352.945
 122263836.172 6  38628398.291          38.000        -684.036
   7436489.438 6  24686668.927          38.000       -4392.591
  -5112769.952 7  23679894.983          42.000        1501.898
   1533437.681 7  22293497.746          47.000       -2935.210
  20499932.80615  24993144.693          32.000       -3972.837
 16  6 24  6 36  0.0000000  0 10G15G18G24G20G13S20G05G17G28G30
 -19758794.821 8  20406359.514          49.000        -408.039
  -3182668.924 7  23140981.688          46.000         536.208
 -14932555.895 8  21637137.925          48.000        1596.156
    407801.074 7  22425531.015          44.000       -3288.847
 -13572349.807 7  20624273.454          44.000       -2384.972
 122304953.669 6  38636222.829          38.000        -686.754
   7700123.143 6  24736838.076          39.000       -4394.740
  -5202070.792 7  23662904.212          42.000        1475.343
   1710327.347 7  22327158.797          46.000       -2960.979
  20738386.42315  25038525.415          34.000       -3973.323
 16  6 24  6 37  0.0000000  0 10G15G18G24G20G13S20G05G17G28G30
 -19733206.144 8  20411230.359          49.000        -443.856
  -3213809.883 7  23135057.060          46.000         502.756
 -15027697.511 7  21619032.015          47.000        1576.377
    605971.829 7  22463240.202          43.000       -3315.452
 -13428272.312 7  20651688.356          43.000       -2417.163
 122346199.641 6  38644072.931          38.000        -687.804
   7963886.782 6  24787032.092          39.000       -4396.927
  -5289797.955 6  23646206.308          40.000        1449.663
   1888730.738 7  22361108.894          47.000       -2985.203
  20977029.97314  25083935.000          29.000       -3978.484
 16  6 24  6 38  0.0000000  0 10G15G18G24G20G13S20G05G17G28G30
 -19705516.080 7  20416496.171          47.000        -479.085
  -3242915.745 7  23129516.022          46.000         467.503
 -15121691.712 7  21601145.036          46.000        1556.930
    805697.520 7  22501247.317          43.000       -3342.135
 -13282328.672 7  20679462.891          43.000       -2448.629
 122387513.262 6  38651933.626          38.000        -689.093
   8227702.899 6  24837233.925          40.000       -4397.372
  -5375987.336 6  23629804.185          41.000        1422.975
   2068574.624 7  22395331.860          47.000       -3010.048
  21215799.21414  25129372.156          29.000       -3980.993
 16  6 24  6 39  0.0000000  0 10G15G18G24G20G13S20G05G17G28G30
 -19675631.898 7  20422181.854          47.000        -517.960
  -3269890.282 7  23124384.001          46.000         430.239
 -15214444.811 7  21583493.932          46.000        1533.989
   1007042.689 7  22539564.191          44.000       -3370.814
 -13134436.294 7  20707604.089          43.000       -2482.590
 122428987.323 6  38659827.616          38.000        -693.072
   8491638.936 6  24887458.618          37.000       -4400.929
  -5460530.749 6  23613718.679          41.000        1393.200
   2249928.818 7  22429840.869          46.000       -3036.867
  21454776.96715  25174851.751          30.000       -3985.655
 16  6 24  6 40  0.0000000  0 10G15G18G24G20G13S20G05G17G28G30
 -19643413.829 8  20428315.204          48.000        -555.432
  -3294590.697 7  23119685.355          47.000         393.990
 -15305817.887 7  21566105.418          45.000        1511.987
   1210118.803 7  22578204.069          42.000       -3397.678
 -12984467.041 7  20736146.381          44.000       -2515.407
 122470745.636 6  38667772.334          38.000        -696.697
   8755807.478 6  24937726.152          36.000       -4402.828
  -5543273.908 6  23597972.580          41.000        1365.421
   2432910.748 7  22464663.512          46.000       -3062.058
  21694089.97914  25220392.212          27.000       -3990.582
 16  6 24  6 41  0.0000000  0 10G15G18G24G20G13S20G05G17G28G30
 -19608927.608 7  20434877.341          47.000        -592.089
  -3317080.464 7  23115404.171          46.000         358.181
 -15395876.118 8  21548970.805          48.000        1491.433
   1414831.640 7  22617160.476          42.000       -3423.626
 -12832497.193 7  20765061.496          43.000       -2547.632
 122512711.343 6  38675759.002          38.000        -699.936
   9020117.523 6  24988023.211          37.000       -4404.632
  -5624267.741 7  23582559.762          42.000        1336.249
   2617431.062 7  22499775.514          46.000       -3086.778
  21933659.18513  25265982.390          23.000       -3993.416
 16  6 24  6 42  0.0000000  0 10G15G18G24G20G13S20G05G17G28G30
 -19572284.523 7  20441850.291          47.000        -629.105
  -3337467.469 7  23111525.808          47.000         321.353
 -15484729.494 7  21532058.874          45.000        1470.190
   1621042.557 7  22656402.526          43.000       -3449.528
 -12678647.615 7  20794337.186          43.000       -2580.426
 122554780.093 6  38683764.865          38.000        -703.573
   9284432.070 6  25038321.212          37.000       -4406.534
  -5703607.813 7  23567460.647          42.000        1308.205
   2803356.290 7  22535155.080          46.000       -3110.549
  22173364.33614  25311600.662          25.000       -3997.768
 16  6 24  6 43  0.0000000  0 10G15G18G24G20G13S20G05G17G28G30
 -19533489.990 7  20449228.819          46.000        -664.280
  -3355754.805 7  23108044.193          45.000         286.718
 -15572382.418 7  21515381.666          47.000        1450.828
   1828717.816 7  22695919.887          43.000       -3473.185
 -12522935.130 7  20823971.390          43.000       -2610.241
 122596944.850 6  38691788.213          38.000        -702.827
   9548721.248 5  25088609.041          34.000       -4405.903
  -5781285.184 7  23552681.621          43.000        1281.429
   2990658.965 7  22570799.104          46.000       -3133.148
  22413202.57113  25357235.075          20.000       -3997.529
 16  6 24  6 44  0.0000000  0 10G15G18G24G20G13S20G05G17G28G30
 -19492505.507 7  20457032.399          47.000        -701.783
  -3371900.481 7  23104973.757          47.000         250.469
 -15658795.968 7  21498938.361          47.000        1428.832
   2037868.038 7  22735723.747          45.000       -3498.494
 -12365331.432 6  20853958.961          41.000       -2643.401
 122639235.086 6  38699837.231          38.000        -706.982
   9812998.599 6  25138900.568          36.000       -4405.489
  -5857245.075 7  23538231.061          45.000        1250.679
   3179355.897 7  22606705.579          46.000       -3157.077
  22653185.84112  25402897.950          16.000       -3995.773
 16  6 24  6 45  0.0000000  0  9G15G18G24G20G13S20G05G17G28
 -19449196.328 8  20465273.509          48.000        -741.387
  -3385767.625 7  23102332.352          45.000         212.158
 -15743833.880 7  21482753.545          46.000        1405.530
   2248601.053 7  22775822.044          43.000       -3524.983
 -12205712.549 6  20884331.623          40.000       -2676.457
 122681785.032 6  38707934.219          38.000        -711.762
  10077374.310 6  25189213.629          37.000       -4405.893
  -5931338.957 6  23524120.396          40.000        1219.045
   3369559.958 7  22642901.519          47.000       -3182.620
 16  6 24  6 46  0.0000000  0 10G15G18G24G20G13S20G05G17G28G30
 -19403542.776 8  20473962.181          48.000        -778.299
  -3397333.763 7  23100132.002          45.000         175.352
 -15827474.031 7  21466840.116          47.000        1384.508
   2460908.625 7  22816223.817          43.000       -3549.285
 -12044068.839 7  20915094.455          43.000       -2709.061
 122724601.504 6  38716081.098          38.000        -714.365
  10341844.084 6  25239539.359          36.000       -4406.265
  -6003530.804 7  23510392.485          44.000        1188.933
   3561268.906 7  22679382.526          47.000       -3205.008
  23133445.94111  25494419.456          10.000       -4006.993
 16  6 24  6 47  0.0000000  0  9G15G18G24G20G13S20G05G17G28
 -19355697.738 7  20483063.692          47.000        -815.997
  -3406748.829 7  23098339.655          46.000         138.696
 -15909868.123 7  21451159.734          47.000        1361.802
   2674611.318 7  22856891.096          44.000       -3573.839
 -11880563.666 6  20946206.116          41.000       -2741.141
 122767522.342 6  38724248.498          38.000        -715.843
  10606231.396 6  25289853.589          37.000       -4406.027
  -6073958.720 7  23496992.497          46.000        1158.365
   3754309.100 7  22716115.531          46.000       -3228.751
 16  6 24  6 48  0.0000000  0  9G15G18G24G20G13S20G05G17G28
 -19305719.541 8  20492576.416          48.000        -851.376
  -3414068.772 7  23096948.140          46.000         104.156
 -15991071.822 7  21435708.421          47.000        1343.059
   2889623.311 7  22897809.274          46.000       -3594.704
 -11715264.909 7  20977663.554          43.000       -2770.323
 122810497.222 6  38732426.071          38.000        -717.137
  10870454.146 6  25340133.862          36.000       -4402.468
  -6142665.215 7  23483910.313          42.000        1130.165
   3948600.777 7  22753088.685          45.000       -3248.742
 16  6 24  6 49  0.0000000  0  9G15G18G24G20G13S20G05G17G28
 -19253539.314 8  20502507.754          48.000        -888.094
  -3419222.232 7  23095967.089          45.000          67.269
 -16071015.289 7  21420494.693          47.000        1321.272
   3105986.309 7  22938980.585          45.000       -3617.680
 -11548115.093 7  21009472.666          45.000       -2801.624
 122853595.121 6  38740627.830          38.000        -719.276
  11134558.181 5  25390392.042          35.000       -4402.187
  -6209566.749 7  23471181.426          42.000        1099.325
   4144191.849 7  22790308.290          44.000       -3270.884
 16  6 24  6 50  0.0000000  0  9G15G18G24G20G13S20G05G17G28
 -19199149.582 7  20512854.145          47.000        -923.991
  -3422199.339 7  23095405.314          47.000          32.721
 -16149687.565 7  21405524.064          47.000        1301.713
   3323681.126 7  22980404.540          44.000       -3637.872
 -11379116.429 7  21041631.009          44.000       -2830.843
 122896815.028 6  38748853.113          38.000        -719.378
  11398528.98015  25440618.864          33.000       -4397.342
  -6274640.205 7  23458802.486          44.000        1071.042
   4341068.778 7  22827772.389          43.000       -3290.382
 16  6 24  6 51  0.0000000  0  9G15G18G24G20G13S20G05G17G28
 -19142719.342 8  20523594.213          48.000        -957.768
  -3423167.046 7  23095219.504          47.000          -0.740
 -16227254.974 7  21390764.147          47.000        1283.508
   3542511.813 7  23022046.326          44.000       -3657.106
 -11208448.136 7  21074107.557          44.000       -2858.155
 122939989.832 6  38757069.618          38.000        -719.539
  11662174.42215  25490792.847          32.000       -4389.250
  -6338039.005 7  23446732.188          42.000        1042.882
   4539043.218 7  22865447.287          43.000       -3308.722
 16  6 24  6 52  0.0000000  0  9G15G18G24G20G13S20G05G17G28
 -19084230.038 7  20534723.508          47.000        -991.942
  -3422103.688 7  23095420.408          47.000         -34.640
 -16303695.985 7  21376216.179          47.000        1264.574
   3762471.338 7  23063903.710          44.000       -3675.092
 -11036101.410 7  21106905.555          44.000       -2886.881
 122983125.973 6  38765276.629          39.000        -718.437
  11925490.85714  25540903.887          28.000       -4383.591
  -6399729.442 6  23434991.402          40.000        1014.744
   4738113.316 7  22903325.061          42.000       -3326.969
 16  6 24  6 53  0.0000000  0  9G15G18G24G20G13S20G05G17G28
 -19023627.104 8  20546256.741          48.000       -1027.215
  -3418952.373 7  23096019.091          47.000         -69.695
 -16378953.155 8  21361896.478          48.000        1244.314
   3983587.577 7  23105981.978          44.000       -3694.414
 -10862031.676 7  21140028.163          44.000       -2915.645
 123026270.659 6  38773487.149          38.000        -718.539
  12188511.86815  25590961.075          30.000       -4379.991
  -6459641.171 7  23423595.450          42.000         983.966
   4938313.672 7  22941423.040          42.000       -3345.758
 16  6 24  6 54  0.0000000  0  9G15G18G24G20G13S20G05G17G28
 -18960907.670 8  20558191.957          48.000       -1063.692
  -3413708.290 7  23097016.877          46.000        -105.622
 -16453019.802 7  21347801.588          47.000        1223.835
   4205837.696 7  23148276.403          43.000       -3714.513
 -10686245.968 7  21173478.695          44.000       -2944.346
 123069430.779 6  38781700.303          38.000        -720.737
  12451218.33414  25640951.517          28.000       -4376.864
  -6517755.708 6  23412535.153          41.000         952.034
   5139627.274 7  22979734.609          43.000       -3364.845
 16  6 24  6 55  0.0000000  0  9G15G18G24G20G13S20G05G17G28
 -18895933.181 8  20570557.042          49.000       -1102.136
  -3406230.491 7  23098438.162          45.000        -143.587
 -16525753.322 7  21333960.250          47.000        1200.756
   4429334.500 7  23190804.817          43.000       -3735.715
 -10508615.480 7  21207283.413          46.000       -2976.167
 123112737.586 6  38789940.331          38.000        -724.899
  12713729.00014  25690907.616          26.000       -4373.741
  -6573918.647 6  23401846.651          40.000         919.564
   5342173.973 7  23018274.462          42.000       -3386.300
 16  6 24  6 56  0.0000000  0 10G15G18G24G20G10G13S20G05G17G28
 -18828669.769 8  20583355.921          49.000       -1139.414
  -3396482.984 7  23100292.282          45.000        -179.971
 -16597116.224 7  21320379.339          47.000        1178.480
   4654086.374 7  23233574.498          43.000       -3755.202
    -91761.90616  24456153.679          37.000        1517.163
 -10329116.022 7  21241439.754          45.000       -3006.437
 123156233.403 6  38798217.179          38.000        -725.362
  12976056.40414  25740820.038          25.000       -4368.047
  -6628081.431 6  23391537.045          40.000         886.429
   5545968.519 7  23057057.885          43.000       -3405.877
 16  6 24  6 57  0.0000000  0 10G15G18G24G20G10G13S20G05G17G28
 -18759249.449 8  20596566.975          49.000       -1174.176
  -3384596.522 7  23102555.454          46.000        -215.155
 -16667236.884 8  21307037.810          48.000        1158.857
   4879935.845 7  23276550.772          43.000       -3772.819
   -181846.08214  24438998.231          28.000        1492.251
 -10147889.763 7  21275926.777          45.000       -3034.285
 123199789.828 6  38806506.974          39.000        -725.245
  13238083.46112  25790675.903          17.000       -4368.748
  -6680359.974 7  23381595.656          44.000         856.390
   5750859.877 7  23096047.639          42.000       -3423.745
 16  6 24  6 58  0.0010000  0 11G15G18G24G20G10G13S20G12G05G17G28
 -18687698.695 8  20610182.787          48.000       -1211.076
  -3370595.300 7  23105220.661          46.000        -251.621
 -16736139.322 7  21293926.066          47.000        1137.368
   5106834.009 7  23319729.853          43.000       -3791.121
   -270166.13914  24422213.338          26.000        1454.021
  -9964970.514 7  21310735.808          46.000       -3063.197
 123243367.492 6  38814799.615          38.000        -726.513
   -189033.85416  24099278.806          38.000        3151.586
  13499721.41313  25840471.897          20.000       -4362.623
  -6730767.129 7  23372003.167          43.000         823.633
   5956805.671 7  23135238.577          42.000       -3441.606
 16  6 24  7  1  0.0010000  0 10G15G18G24G20G10G13S20G12G17G28
 -18459220.149 7  20653659.080          47.000       -1325.141
  -3314833.375 7  23115832.627          45.000        -365.285
 -16934423.206 8  21256193.216          48.000        1068.389
   5794591.297 7  23450603.729          42.000       -3847.600
   -522466.62315  24374200.390          31.000        1352.141
  -9405122.307 7  21417271.464          46.000       -3154.462
 123375255.742 6  38839895.977          38.000        -735.254
   -752560.866 6  23992042.593          39.000        3112.329
  -6869543.186 7  23345595.630          44.000         720.462
   6581812.655 7  23254171.880          42.000       -3499.554
 16  6 24  7  2  0.0010000  0 10G15G18G24G20G10G13S20G12G17G28
 -18378715.423 7  20668978.731          47.000       -1357.968
  -3291918.228 7  23120192.755          45.000        -398.024
 -16997957.924 7  21244101.820          47.000        1050.487
   6025856.573 7  23494614.068          42.000       -3860.633
   -602651.451 6  24358956.944          37.000        1322.257
  -9215101.546 7  21453431.666          46.000       -3179.062
 123419347.172 6  38848284.838          38.000        -733.394
   -939027.559 6  23956561.921          40.000        3104.449
  -6911866.798 7  23337539.946          42.000         690.985
   6792219.003 7  23294213.045          44.000       -3513.808
 16  6 24  7  3  0.0010000  0 10G15G18G24G20G10G13S20G12G17G28
 -18296287.357 7  20684663.771          47.000       -1389.772
  -3267086.163 7  23124919.060          45.000        -430.157
 -17060453.699 8  21232210.544          48.000        1032.661
   6257838.451 7  23538756.697          42.000       -3872.229
   -681099.161 6  24344026.957          37.000        1292.820
  -9023643.507 7  21489861.334          46.000       -3202.910
 123463263.464 6  38856643.405          39.000        -729.851
  -1125027.012 6  23921165.480          41.000        3095.407
  -6952446.551 6  23329816.393          39.000         661.539
   7003382.544 7  23334394.597          43.000       -3525.939
 16  6 24  7  4  0.0010000  0 10G15G18G24G20G10G13S20G12G17G28
 -18211877.644 8  20700727.709          48.000       -1425.182
  -3240276.400 7  23130019.270          44.000        -465.192
 -17121845.792 7  21220527.274          47.000        1012.045
   6490571.621 7  23583044.181          43.000       -3887.120
   -757735.35615  24329433.462          30.000        1263.170
  -8830698.893 7  21526578.913          46.000       -3229.559
 123507057.018 6  38864977.681          38.000        -731.311
  -1310483.199 7  23885877.406          42.000        3084.210
  -6991208.746 5  23322432.106          35.000         629.192
   7215344.639 7  23374729.170          43.000       -3540.744
 16  6 24  7  5  0.0010000  0 11G15G18G24G20G10G13S20G12G17G19G28
 -18125352.761 7  20717191.483          47.000       -1459.167
  -3211353.779 7  23135523.836          44.000        -498.789
 -17181994.145 7  21209081.048          47.000         993.140
   6724166.649 7  23627495.225          43.000       -3899.636
   -832410.17915  24315226.472          33.000        1228.442
  -8636142.210 7  21563601.626          46.000       -3255.115
 123550868.736 6  38873315.099          38.000        -729.392
  -1495244.270 6  23850716.107          41.000        3074.416
  -7028003.437 6  23315437.902          38.000         596.815
    -55289.85117  23671160.608          44.000        2308.318
   7428223.093 7  23415240.932          45.000       -3554.567
 16  6 24  7  6  0.0000000  0 11G15G18G24G20G10G13S20G12G17G19G28
 -18036738.160 8  20434262.674          48.000       -1495.299
  -3180342.108 7  22841632.050          44.000        -535.238
 -17240918.305 7  20898074.682          47.000         970.739
   6958574.963 7  23372308.702          42.000       -3914.903
   -905130.87015  24001592.277          32.000        1194.115
  -8440008.626 7  21301133.843          44.000       -3283.036
 123594662.173 6  38581855.105          38.000        -730.065
  -1679317.186 7  23515898.220          43.000        3061.038
  -7062840.788 6  23009011.921          37.000         563.335
   -193127.415 7  23345136.986          43.000        2285.895
   7641976.791 7  23156122.823          45.000       -3570.960
 16  6 24  7  7  0.0000000  0 11G15G18G24G20G10G13S20G12G17G19G28
 -17945901.618 8  20451548.720          48.000       -1531.859
  -3147108.231 7  22847955.869          44.000        -572.353
 -17298479.254 7  20887123.553          47.000         948.268
   7193905.797 7  23417092.697          43.000       -3929.455
   -975750.464 5  23988162.153          35.000        1160.224
  -8242174.458 7  21338780.140          45.000       -3311.011
 123638566.859 6  38590210.740          38.000        -733.503
  -1862552.153 7  23481027.031          43.000        3047.208
  -7095573.455 6  23002785.614          37.000         529.113
   -329567.265 6  23319168.112          39.000        2262.651
   7856721.544 7  23196987.377          44.000       -3586.970
 16  6 24  7  8  0.0000000  0 11G15G18G24G20G10G13S20G12G17G19G28
 -17852810.950 8  20469263.222          48.000       -1569.960
  -3111617.901 7  22854712.663          46.000        -609.964
 -17354637.454 7  20876434.317          46.000         924.722
   7430168.315 7  23462053.375          45.000       -3944.809
  -1044217.895 6  23975134.518          37.000        1124.337
  -8042615.771 7  21376753.733          45.000       -3339.979
 123682628.045 6  38598595.832          39.000        -735.637
  -2044897.533 7  23446329.559          44.000        3031.154
  -7126152.47315  22996955.548          32.000         490.527
   -464546.803 6  23293482.020          39.000        2237.072
   8072474.892 7  23238044.074          45.000       -3603.721
 16  6 24  7  9  0.0000000  0 11G15G18G24G20G10G13S20G12G17G19G28
 -17757605.567 7  20487379.881          47.000       -1603.694
  -3074009.176 7  22861870.132          46.000        -643.320
 -17409525.173 8  20865992.020          48.000         904.618
   7667201.174 7  23507159.552          44.000       -3956.508
  -1110656.293 6  23962492.342          37.000        1090.969
  -7841480.739 7  21415028.727          47.000       -3364.527
 123726712.366 6  38606983.680          38.000        -734.631
  -2226474.647 7  23411775.458          43.000        3020.697
  -7154703.50316  22991539.402          37.000         459.580
   -598177.261 6  23268054.156          40.000        2216.538
   8289081.367 7  23279261.314          43.000       -3616.264
 16  6 24  7 10  0.0000000  0 11G15G18G24G20G10G13S20G12G17G19G28
 -17660383.343 7  20505879.991          47.000       -1637.376
  -3034378.879 7  22869409.690          45.000        -677.660
 -17463232.954 8  20855772.946          48.000         885.093
   7904884.876 7  23552387.917          43.000       -3966.912
  -1175145.87315  23950213.339          34.000        1058.357
  -7638875.393 7  21453582.156          45.000       -3389.385
 123770717.903 6  38615357.935          39.000        -733.095
  -2407361.250 7  23377353.717          44.000        3008.669
  -7181307.07015  22986464.931          30.000         428.201
   -730526.673 7  23242870.403          42.000        2194.679
   8506429.632 7  23320624.525          44.000       -3628.570
 16  6 24  7 11  0.0000000  0 11G15G18G24G20G10G13S20G12G17G19G28
 -17561146.598 8  20524764.599          48.000       -1669.780
  -2992728.396 7  22877334.794          46.000        -709.920
 -17515755.437 8  20845777.164          48.000         866.279
   8143194.693 7  23597738.188          44.000       -3975.837
  -1237673.887 5  23938320.387          35.000        1028.108
  -7434810.167 7  21492416.499          45.000       -3412.288
 123814650.752 6  38623720.132          39.000        -730.225
  -2587541.086 7  23343066.063          43.000        2998.319
  -7206162.87015  22981805.880          31.000         390.731
   -861568.067 7  23217935.141          43.000        2173.655
   8724501.887 7  23362121.597          44.000       -3639.343
 16  6 24  7 12  0.0000000  0 11G15G18G24G20G10G13S20G12G17G19G28
 -17460009.344 8  20544011.980          48.000       -1701.013
  -2949169.384 7  22885624.677          47.000        -741.808
 -17567197.964 7  20835986.754          47.000         848.901
   8381995.913 7  23643178.939          44.000       -3983.063
  -1298335.317 6  23926779.302          39.000         995.578
  -7229406.869 7  21531501.758          44.000       -3433.925
 123858389.314 6  38632042.071          39.000        -726.510
  -2767107.823 7  23308895.431          43.000        2987.806
  -7229644.82315  22977444.896          30.000         364.946
   -991385.223 7  23193230.100          43.000        2153.624
   8943171.197 7  23403730.786          42.000       -3648.989
 16  6 24  7 13  0.0000000  0 11G15G18G24G20G10G13S20G12G17G19G28
 -17356998.118 8  20563614.001          48.000       -1733.453
  -2903728.502 7  22894270.545          46.000        -773.430
 -17617580.612 7  20826399.064          47.000         829.842
   8621240.210 7  23688708.058          44.000       -3992.101
  -1357141.178 5  23915586.680          33.000         963.930
  -7022701.402 7  21570839.365          46.000       -3456.916
 123901905.803 6  38640323.386          39.000        -723.887
  -2946069.233 7  23274842.239          44.000        2976.155
  -7250579.24915  22973463.856          34.000         332.897
  -1119975.200 6  23168758.700          41.000        2132.339
   9162396.585 7  23445450.819          42.000       -3659.431
 16  6 24  7 14  0.0000000  0 11G15G18G24G20G10G13S20G12G17G19G28
 -17252049.876 8  20583584.659          48.000       -1764.401
  -2856340.906 7  22903289.533          47.000        -805.162
 -17666831.129 7  20817027.494          47.000         812.130
   8860969.533 7  23734325.824          45.000       -3998.986
  -1414010.70014  23904754.388          29.000         931.321
  -6814638.023 7  21610432.897          46.000       -3478.338
 123945276.052 6  38648577.024          39.000        -721.609
  -3124341.393 7  23240916.310          43.000        2966.240
  -7269585.47615  22969838.329          33.000         301.934
  -1247244.536 6  23144540.206          41.000        2110.414
   9382228.438 7  23487284.836          42.000       -3667.928
 16  6 24  7 15  0.0000000  0 11G15G18G24G20G10G13S20G12G17G19G28
 -17145250.038 7  20603907.793          47.000       -1795.286
  -2807091.201 7  22912660.788          47.000        -836.117
 -17715025.709 7  20807856.620          47.000         794.601
   9101078.438 7  23780016.636          44.000       -4005.097
  -1469013.52715  23894292.581          34.000         902.721
  -6605309.448 7  21650263.717          45.000       -3499.335
 123988422.861 6  38656786.130          39.000        -717.503
  -3301989.996 7  23207112.796          45.000        2955.356
  -7286734.316 5  22966573.026          32.000         269.933
  -1373248.255 7  23120566.591          43.000        2089.403
   9602567.772 6  23529210.956          41.000       -3675.524
 16  6 24  7 16  0.0000000  0 11G15G18G24G20G10G13S20G12G17G19G28
 -17036587.439 7  20624585.830          47.000       -1826.730
  -2755967.363 8  22922390.384          48.000        -867.978
 -17762144.139 8  20798889.738          48.000         775.859
   9341557.697 7  23825779.623          43.000       -4010.868
  -1522119.983 6  23884189.725          36.000         868.795
  -6394712.732 7  21690339.137          45.000       -3520.635
 124031356.280 6  38664958.748          38.000        -713.811
  -3478983.292 7  23173432.444          45.000        2944.138
  -7301998.84115  22963667.007          32.000         239.090
  -1497945.079 7  23096840.525          45.000        2067.115
   9823413.190 7  23571238.305          42.000       -3684.808
 16  6 24  7 17  0.0000000  0 11G15G18G24G20G10G13S20G12G17G19G28
 -16925954.657 7  20645639.012          47.000       -1860.337
  -2702860.407 7  22932495.316          47.000        -901.515
 -17808069.756 8  20790152.344          48.000         755.252
   9582494.887 7  23871629.477          43.000       -4019.373
  -1573206.485 6  23874467.755          36.000         833.516
  -6182747.715 7  21730674.460          44.000       -3544.836
 124074192.409 6  38673108.471          38.000        -713.107
  -3655192.857 7  23139899.565          45.000        2929.596
  -7315256.22915  22961153.442          32.000         203.129
  -1621196.375 7  23073385.390          45.000        2041.832
  10044860.078 6  23613376.358          41.000       -3696.145
 16  6 24  7 18  0.0000000  0 11G15G18G24G20G10G13S20G12G17G19G28
 -16813420.762 7  20667053.448          47.000       -1891.088
  -2647839.495 7  22942965.290          47.000        -932.488
 -17852862.847 8  20781626.796          48.000         737.700
   9823800.816 7  23917544.996          42.000       -4023.537
  -1622325.171 6  23865122.046          38.000         802.699
  -5969490.969 7  21771257.541          44.000       -3564.796
 124116856.869 6  38681228.424          38.000        -709.051
  -3830667.144 7  23106507.649          45.000        2918.857
  -7326560.86014  22958987.539          28.000         172.540
  -1743040.913 7  23050196.215          43.000        2019.165
  10266826.833 7  23655617.489          42.000       -3703.412
 16  6 24  7 19  0.0000000  0 11G15G18G24G20G10G13S20G12G17G19G28
 -16699050.299 7  20688816.888          47.000       -1921.748
  -2590968.185 7  22953786.100          47.000        -963.545
 -17896577.809 8  20773308.033          48.000         719.516
  10065392.045 7  23963519.043          43.000       -4028.302
  -1669524.005 6  23856137.941          36.000         770.598
  -5755014.156 7  21812071.158          44.000       -3584.614
 124159284.556 6  38689301.104          38.000        -705.357
  -4005449.833 7  23073249.034          45.000        2907.372
  -7335962.64716  22957212.939          36.000         140.764
  -1863512.783 7  23027272.125          44.000        1996.671
  10489237.469 7  23697938.543          42.000       -3710.505
 16  6 24  7 20  0.0000000  0 11G15G18G24G20G10G13S20G12G17G19G28
 -16582824.675 7  20710933.242          46.000       -1952.870
  -2532227.468 7  22964965.163          47.000        -995.038
 -17939186.418 8  20765200.871          48.000         700.143
  10307268.005 7  24009548.407          43.000       -4034.106
  -1714767.450 5  23847525.020          34.000         737.831
  -5539306.302 7  21853117.874          44.000       -3605.755
 124201509.340 6  38697336.615          39.000        -702.277
  -4179501.136 7  23040126.863          45.000        2894.747
  -7343427.83815  22955783.487          34.000         108.356
  -1982561.579 7  23004615.827          44.000        1971.707
  10712099.112 7  23740349.011          43.000       -3718.302
 16  6 24  7 21  0.0000000  0 11G15G18G24G20G10G13S20G12G17G19G28
 -16464766.642 7  20733400.554          47.000       -1982.208
  -2471638.821 7  22976495.377          47.000       -1024.588
 -17980700.362 8  20757300.023          48.000         683.336
  10549387.319 6  24055617.488          40.000       -4037.654
  -1758060.95016  23839291.117          36.000         705.374
  -5322396.733 7  21894395.003          45.000       -3624.452
 124243519.007 6  38705330.542          39.000        -697.513
  -4352821.789 7  23007145.097          45.000        2883.052
  -7348963.963 6  22954740.191          38.000          75.990
  -2100179.119 7  22982232.363          42.000        1948.597
  10935378.497 7  23782836.644          43.000       -3724.406
