     2.11           OBSERVATION DATA    M (MIXED)           RINEX VERSION / TYPE
teqc  2015Nov6      anonyme             20160629 07:48:05UTCPGM / RUN BY / DATE
Linux 2.4.21-27.ELsmp|Opteron|gcc|Linux x86_64|=+           COMMENT
teqc  2015Nov6      anonyme             20160629 07:45:55UTCCOMMENT
-Unknown-                                                   MARKER NAME
-Unknown-           -Unknown-                               OBSERVER / AGENCY
-Unknown-           U-BLOX              -Unknown-           REC # / TYPE / VERS
-Unknown-           UBLOX           NONE                    ANT # / TYPE
        0.0000        0.0000        0.0000                  APPROX POSITION XYZ
        0.0000        0.0000        0.0000                  ANTENNA: DELTA H/E/N
     1     0                                                WAVELENGTH FACT L1/2
     4    L1    C1    S1    D1                              # / TYPES OF OBSERV
 SNR is mapped to RINEX snr flag value [0-9]                COMMENT
  L1 & L2: min(max(int(snr_dBHz/6), 0), 9)                  COMMENT
    17                                                      LEAP SECONDS
  2016     6    23     0     1    0.0000000     GPS         TIME OF FIRST OBS
                                                            END OF HEADER
 16  6 23  0  1  0.0000000  0 10G01G19G17G31S20G03G22G23G09G06
  39627772.29414  25223566.512          28.000       -4447.535
   7900892.188 7  23116040.476          45.000       -3060.584
  12823532.421 7  23784231.510          46.000       -3695.908
   1043120.412 5  25026671.098          34.000       -3531.187
  39889458.638 6  38542277.121          38.000        -721.831
  19284566.875 7  21899211.350          47.000       -2988.568
  17591334.266 7  23741142.088          43.000       -3570.785
 -16565640.174 7  20688152.645          44.000       -1120.825
 -14012703.659 8  20528775.340          49.000         695.046
 -14690291.110 7  21006205.340          47.000         755.738
 16  6 23  0  2  0.0000000  0 11G01G19G17G31S20G03G22G23G02G09G06
  39894604.23813  25274331.307          19.000       -4446.169
   8085376.906 7  23151147.644          45.000       -3088.520
  13045705.759 7  23826509.094          45.000       -3709.816
   1255722.120 6  25067131.051          36.000       -3554.514
  39932758.768 6  38550515.631          38.000        -721.660
  19464369.939 7  21933426.743          46.000       -3004.534
  17805831.913 5  23781948.044          34.000       -3579.106
 -16497489.062 7  20701120.007          44.000       -1150.676
     54765.58315  24391237.892          33.000        2613.737
 -14053442.085 8  20521023.813          49.000         663.265
 -14734623.886 8  20997769.381          48.000         721.973
 16  6 23  0  3  0.0000000  0 10G01G19G17G31S20G03G22G23G09G06
  40161529.43513  25325144.910          23.000       -4450.573
   8271459.832 7  23186556.806          45.000       -3114.204
  13268652.699 7  23868934.535          45.000       -3721.984
   1469619.826 6  25107837.540          36.000       -3576.285
  39976007.430 6  38558746.986          38.000        -719.248
  19645072.708 7  21967815.747          46.000       -3018.394
  18020771.82816  23822862.086          37.000       -3585.347
 -16427635.056 7  20714415.555          45.000       -1178.218
 -14092341.482 8  20513620.925          49.000         633.290
 -14776960.516 8  20989713.278          49.000         689.191
 16  6 23  0  4  0.0000000  0 10G01G19G17G31S20G03G22G23G09G06
  40428521.55614  25375947.292          27.000       -4450.953
   8459088.687 7  23222261.539          45.000       -3140.433
  13492319.719 7  23911497.553          45.000       -3734.070
   1684763.991 5  25148778.107          35.000       -3597.500
  40019170.151 6  38566960.192          38.000        -719.676
  19826640.540 7  22002362.030          44.000       -3033.688
  18236120.210 7  23863841.776          42.000       -3592.170
 -16356114.183 7  20728024.037          44.000       -1206.637
 -14129427.815 8  20506563.551          49.000         602.459
 -14817315.888 7  20982031.693          47.000         655.636
 16  6 23  0  5  0.0000000  0  9G19G17G31S20G03G22G23G09G06
   8648315.333 7  23258271.791          45.000       -3166.774
  13716757.042 7  23954206.333          44.000       -3746.653
   1901208.60315  25189960.446          32.000       -3619.037
  40062327.102 6  38575173.294          38.000        -719.130
  20009142.617 8  22037098.888          48.000       -3048.886
  18451946.621 6  23904912.487          41.000       -3600.442
 -16282859.388 7  20741964.283          45.000       -1235.335
 -14164623.476 8  20499865.512          49.000         570.826
 -14855601.348 8  20974747.378          48.000         620.852
 16  6 23  0  6  0.0000000  0 10G19G17G31S20G03G22G23G02G09G06
   8839068.220 7  23294570.146          45.000       -3191.569
  13941892.795 7  23997047.176          44.000       -3757.277
   2118883.35315  25231383.529          33.000       -3637.650
  40105426.010 6  38583373.850          38.000        -717.142
  20192525.670 7  22071990.301          44.000       -3062.932
  18668197.785 6  23946066.888          36.000       -3607.864
 -16207926.680 7  20756224.182          45.000       -1262.558
   -568434.25815  24272730.497          30.000        2572.361
 -14197973.542 8  20493519.181          49.000         540.795
 -14891850.905 8  20967849.918          48.000         587.691
 16  6 23  0  7  0.0000000  0 11G07G19G17G31S20G03G22G23G02G09G06
    940057.39317  24706749.800          42.000        2936.045
   9031332.089 7  23331157.337          46.000       -3217.884
  14167709.004 7  24040018.773          44.000       -3770.495
   2337776.428 6  25273044.056          36.000       -3659.143
  40148479.390 6  38591568.245          38.000        -719.257
  20376791.815 7  22107058.294          46.000       -3079.144
  18884876.72814  23987324.490          26.000       -3615.678
 -16131315.828 7  20770803.647          45.000       -1291.544
   -722696.30015  24243369.459          31.000        2565.231
 -14229467.894 8  20487525.782          48.000         508.734
 -14926043.410 7  20961342.208          47.000         551.611
 16  6 23  0  8  0.0000000  0 11G07G19G17G31S20G03G22G23G02G09G06
    763885.990 7  24673224.127          43.000        2935.725
   9225138.072 7  23368036.836          46.000       -3242.707
  14394236.698 7  24083126.657          44.000       -3781.263
   2557920.926 5  25314931.385          33.000       -3677.892
  40191536.415 6  38599760.983          38.000        -718.658
  20561990.900 7  22142299.706          46.000       -3093.846
  19102032.01616  24028629.278          37.000       -3623.696
 -16052979.718 7  20785707.878          44.000       -1319.844
   -876303.45715  24214144.288          34.000        2554.774
 -14259048.980 8  20481896.656          48.000         477.941
 -14958110.294 8  20955240.530          48.000         516.894
 16  6 23  0  9  0.0000000  0 12G07G01G19G17G31S20G03G22G23G02G09G06
    587709.542 7  24639696.588          43.000        2935.962
  41763654.53913  25630179.497          20.000       -4452.731
   9420409.016 7  23405196.168          46.000       -3265.978
  14621397.556 7  24126353.376          43.000       -3791.298
   2779242.45815  25357051.760          31.000       -3696.408
  40234549.490 6  38607946.042          38.000        -716.048
  20748063.520 7  22177705.186          44.000       -3108.249
  19319606.367 6  24070024.143          41.000       -3629.932
 -15972980.548 7  20800932.111          44.000       -1346.874
  -1029289.35915  24185029.734          33.000        2543.547
 -14286768.495 8  20476621.071          48.000         447.047
 -14988092.184 8  20949535.304          48.000         482.411
 16  6 23  0 10  0.0000000  0 12G07G01G19G17G31S20G03G22G23G02G09G06
    411512.127 7  24606165.733          44.000        2936.179
  42030867.79313  25681015.192          20.000       -4465.263
   9617084.083 7  23442621.632          46.000       -3290.229
  14849130.301 7  24169688.828          43.000       -3800.983
   3001681.39915  25399391.416          30.000       -3718.087
  40277476.129 6  38616116.252          38.000        -715.332
  20934967.042 7  22213275.745          46.000       -3122.985
  19537556.814 7  24111496.697          42.000       -3636.184
 -15891363.712 7  20816460.764          44.000       -1374.323
  -1181672.86815  24156031.677          30.000        2532.846
 -14312661.918 7  20471694.107          47.000         415.660
 -15016013.531 8  20944221.695          48.000         447.654
 16  6 23  0 11  0.0000000  0 11G07G19G17G31S20G03G22G23G02G09G06
    235394.318 7  24572650.600          43.000        2934.625
   9815218.567 7  23480323.945          46.000       -3314.097
  15077489.694 7  24213145.577          44.000       -3810.956
   3225296.58314  25441939.618          27.000       -3736.398
  40320401.806 6  38624285.082          38.000        -715.647
  21122776.026 7  22249009.603          43.000       -3137.267
  19755958.747 5  24153057.165          33.000       -3643.001
 -15808057.033 7  20832316.066          45.000       -1402.030
  -1333355.66614  24127159.437          29.000        2522.970
 -14336647.330 7  20467129.584          47.000         384.257
 -15041781.568 8  20939318.568          48.000         411.545
 16  6 23  0 12  0.0000000  0 11G07G19G17G31S20G03G22G23G02G09G06
     59320.457 6  24539146.391          40.000        2933.291
  10014732.721 7  23518289.964          45.000       -3336.226
  15306395.630 7  24256707.166          45.000       -3819.243
   3450012.34714  25484694.624          28.000       -3753.358
  40363264.696 6  38632439.936          38.000        -713.967
  21311428.775 7  22284913.530          44.000       -3150.889
  19974544.65215  24194703.995          32.000       -3651.132
 -15723125.807 7  20848478.964          45.000       -1428.835
  -1484375.88515  24098424.128          32.000        2510.893
 -14358779.744 8  20462918.026          48.000         353.478
 -15065440.287 8  20934817.022          49.000         377.151
 16  6 23  0 13  0.0000000  0 11G07G19G17G31S20G03G22G23G02G09G06
   -116683.41514  24505665.845          29.000        2930.605
  10215607.454 7  23556515.993          45.000       -3359.624
  15535828.089 7  24300365.430          45.000       -3828.830
   3675810.87514  25527657.967          27.000       -3772.537
  40406076.327 6  38640589.850          38.000        -713.938
  21500924.712 7  22320970.846          43.000       -3166.286
  20193725.47616  24236407.345          41.000       -3656.711
 -15636573.373 7  20864948.008          44.000       -1456.516
  -1634710.510 5  24069817.271          34.000        2498.869
 -14379053.007 8  20459060.062          48.000         321.782
 -15086972.589 8  20930719.118          49.000         340.423
 16  6 23  0 14  0.0000000  0 11G07G19G17G31S20G03G22G23G02G09G06
   -292543.05515  24472202.505          32.000        2928.313
  10417871.981 7  23595007.997          45.000       -3382.084
  15765816.357 7  24344130.663          45.000       -3837.617
   3902724.46214  25570841.410          28.000       -3791.608
  40448884.488 6  38648736.013          38.000        -712.714
  21691311.878 7  22357199.417          44.000       -3180.105
  20413344.289 7  24278198.121          42.000       -3663.968
 -15548355.008 7  20881735.571          45.000       -1483.950
  -1784287.290 5  24041355.041          35.000        2488.289
 -14397412.431 8  20455566.703          48.000         290.443
 -15106313.085 8  20927037.297          48.000         303.772
 16  6 23  0 15  0.0000000  0 11G07G19G17G31S20G03G22G23G02G09G06
   -468295.884 6  24438741.608          38.000        2928.037
  10621443.923 7  23633742.455          43.000       -3402.895
  15996277.983 7  24387985.014          43.000       -3844.850
   4130674.65914  25614212.391          27.000       -3807.369
  40491635.744 6  38656870.293          38.000        -710.993
  21882526.945 7  22393589.438          44.000       -3193.471
  20633338.446 7  24320062.136          42.000       -3669.788
 -15458537.961 7  20898827.920          45.000       -1510.184
  -1933145.815 5  24013025.084          34.000        2475.514
 -14413915.172 8  20452426.100          48.000         259.919
 -15123508.019 8  20923767.946          49.000         268.715
 16  6 23  0 16  0.0010000  0 11G07G19G17G31S20G03G22G23G02G09G06
   -643932.021 6  24405315.542          41.000        2925.260
  10826293.305 7  23672726.643          44.000       -3425.732
  16227183.657 7  24431924.454          43.000       -3852.400
   4359634.48614  25657784.904          29.000       -3824.879
  40534317.512 6  38664993.143          38.000        -710.928
  22074558.599 7  22430127.874          42.000       -3207.515
  20853697.234 6  24361997.069          41.000       -3675.922
 -15367137.861 7  20916220.029          45.000       -1536.944
  -2081278.636 6  23984838.934          36.000        2460.835
 -14428569.890 8  20449636.369          48.000         228.367
 -15138555.339 8  20920904.278          49.000         232.133
 16  6 23  0 17  0.0010000  0 10G07G19G17S20G03G22G23G02G09G06
   -819349.886 6  24371932.612          41.000        2921.836
  11032463.982 7  23711959.688          44.000       -3446.565
  16458576.252 7  24475959.171          45.000       -3859.475
  40577009.122 6  38673118.784          39.000        -711.515
  22267470.176 7  22466839.781          42.000       -3221.990
  21074482.429 6  24404018.135          39.000       -3682.853
 -15274092.013 7  20933926.329          44.000       -1563.527
  -2228587.222 6  23956809.906          38.000        2448.906
 -14441300.483 8  20447214.453          48.000         196.699
 -15151368.236 8  20918464.232          48.000         195.150
 16  6 23  0 18  0.0010000  0 11G07G19G17G31S20G03G22G23G02G09G06
   -994573.021 6  24338586.223          39.000        2918.638
  11239892.805 7  23751431.592          43.000       -3466.855
  16690393.338 7  24520073.060          45.000       -3867.050
   4820662.39514  25745515.368          28.000       -3858.958
  40619664.217 6  38681236.032          39.000        -710.102
  22461217.555 7  22503712.405          44.000       -3236.080
  21295652.248 6  24446104.658          41.000       -3689.582
 -15179449.743 7  20951936.053          43.000       -1590.799
  -2375097.723 6  23928928.018          38.000        2434.780
 -14452148.980 8  20445149.778          48.000         165.200
 -15161978.169 8  20916444.474          48.000         158.742
 16  6 23  0 19  0.0010000  0 10G07G19G17S20G03G22G23G02G09G06
  -1169595.851 5  24305273.129          34.000        2915.969
  11448540.407 7  23791135.497          43.000       -3487.669
  16922596.367 7  24564258.983          45.000       -3873.580
  40662273.097 6  38689346.405          39.000        -710.139
  22655780.267 6  22540729.134          41.000       -3250.219
  21517185.808 7  24488258.189          42.000       -3694.990
 -15083235.274 7  20970246.060          43.000       -1617.012
  -2520805.781 6  23901200.599          40.000        2421.401
 -14461130.217 8  20443440.704          48.000         133.989
 -15170389.435 8  20914843.835          48.000         121.538
 16  6 23  0 20  0.0010000  0 10G07G19G17S20G03G22G23G02G09G06
  -1344325.86515  24272021.443          30.000        2908.449
  11658452.169 7  23831081.506          43.000       -3508.538
  17155230.429 7  24608527.131          44.000       -3880.168
  40704901.290 6  38697457.999          39.000        -710.143
  22851222.986 7  22577928.216          43.000       -3264.905
  21739148.114 7  24530494.260          42.000       -3703.168
 -14985387.570 7  20988864.047          43.000       -1644.057
  -2665622.540 6  23873638.870          39.000        2406.144
 -14468174.254 8  20442101.696          48.000         101.754
 -15176521.599 8  20913679.434          49.000          83.253
 16  6 23  0 21  0.0010000  0 10G07G19G17S20G03G22G23G02G09G06
  -1518798.93115  24238810.450          32.000        2904.080
  11869546.639 7  23871250.493          43.000       -3527.504
  17388215.353 7  24652863.528          44.000       -3885.217
  40747497.407 6  38705563.520          39.000        -708.734
  23047483.772 7  22615273.445          42.000       -3277.619
  21961477.434 6  24572803.499          41.000       -3707.683
 -14885973.312 7  21007782.997          43.000       -1669.335
  -2809585.505 6  23846243.982          39.000        2392.073
 -14473338.292 8  20441118.604          48.000          70.664
 -15180421.532 8  20912936.020          48.000          47.037
 16  6 23  0 22  0.0010000  0 10G07G19G17S20G03G22G23G02G09G06
  -1693009.456 6  24205672.103          39.000        2901.312
  12081783.612 7  23911639.581          44.000       -3547.189
  17621511.283 7  24697255.294          43.000       -3891.070
  40790040.828 6  38713659.566          40.000        -709.625
  23244541.587 6  22652764.016          39.000       -3291.692
  22184153.504 6  24615179.521          40.000       -3715.128
 -14785016.643 7  21026994.448          42.000       -1695.893
  -2952691.546 7  23819017.210          42.000        2377.003
 -14476638.198 7  20440489.523          47.000          39.064
 -15182094.802 8  20912617.257          49.000           8.957
 16  6 23  0 23  0.0010000  0 10G07G19G17S20G03G22G23G02G09G06
  -1866849.950 6  24172593.732          40.000        2894.945
  12295225.085 7  23952255.922          44.000       -3567.050
  17855181.085 7  24741723.125          43.000       -3897.411
  40832624.416 6  38721762.907          39.000        -710.089
  23442477.449 7  22690439.909          44.000       -3306.263
  22407257.284 6  24657632.358          40.000       -3721.265
 -14682440.750 7  21046513.999          43.000       -1722.922
  -3094834.994 7  23791967.994          43.000        2361.075
 -14477988.407 8  20440235.465          49.000           6.771
 -15181445.664 8  20912741.084          49.000         -30.012
 16  6 23  0 24  0.0010000  0 10G07G19G17S20G03G22G23G02G09G06
  -2040356.615 6  24139577.274          38.000        2887.858
  12509787.814 7  23993085.331          44.000       -3585.611
  18089142.314 7  24786245.576          43.000       -3901.894
  40875184.981 6  38729864.624          40.000        -709.965
  23641228.036 7  22728256.450          42.000       -3319.889
  22630726.044 6  24700152.972          41.000       -3727.693
 -14578313.638 7  21066329.175          43.000       -1748.794
  -3236054.459 7  23765091.902          42.000        2345.489
 -14477447.801 8  20440336.293          48.000         -25.089
 -15178522.919 8  20913297.153          49.000         -68.044
 16  6 23  0 25  0.0010000  0 10G07G19G17S20G03G22G23G02G09G06
  -2213463.829 6  24106635.102          38.000        2882.445
  12725490.801 7  24034130.320          44.000       -3604.161
  18323415.775 7  24830828.195          42.000       -3907.026
  40917771.518 6  38737968.138          40.000        -709.632
  23840831.799 7  22766243.864          42.000       -3333.264
  22854598.240 6  24742752.479          41.000       -3734.201
 -14472600.662 6  21086444.286          41.000       -1774.771
  -3376286.859 6  23738400.607          41.000        2330.031
 -14474973.553 8  20440807.710          48.000         -56.841
 -15173273.781 8  20914296.038          48.000        -106.296
 16  6 23  0 26  0.0000000  0 10G07G19G17S20G03G22G23G02G09G06
  -2386207.359 6  23773972.247          40.000        2876.364
  12942252.843 7  23775587.614          44.000       -3620.898
  18557920.112 7  24575663.241          44.000       -3909.546
  40960323.043 6  38446273.649          40.000        -707.920
  24041226.692 6  22504583.817          41.000       -3345.662
  23078812.541 6  24485628.284          38.000       -3739.318
 -14365368.544 7  20807056.248          42.000       -1798.879
  -3515570.348 6  23412105.721          41.000        2314.291
 -14470623.879 7  20141840.441          46.000         -87.333
 -15165746.530 8  20615936.944          49.000        -143.964
 16  6 23  0 27  0.0000000  0 11G07G19G17S20G03G22G23G02G09G26G06
  -2558591.707 7  23741171.370          42.000        2868.907
  13160022.476 7  23817027.414          45.000       -3638.692
  18792606.020 7  24620321.977          43.000       -3913.745
  41002818.431 6  38454359.469          40.000        -708.854
  24242380.916 6  22542856.437          39.000       -3359.914
  23303337.210 6  24528355.089          38.000       -3745.374
 -14256653.253 7  20827749.274          44.000       -1824.716
  -3653910.957 7  23385786.168          44.000        2297.376
 -14464426.492 7  20143019.692          46.000        -119.284
   -679401.33411  25392803.906           9.000         988.419
 -15155959.161 8  20617797.556          49.000        -182.418
 16  6 23  0 28  0.0000000  0 10G07G19G17S20G03G22G23G02G09G06
  -2730537.594 6  23708453.328          41.000        2862.834
  13378832.013 7  23858666.146          45.000       -3654.378
  19027507.216 6  24665019.209          41.000       -3916.013
  41045309.811 6  38462446.807          40.000        -707.241
  24444346.487 6  22581295.131          41.000       -3372.239
  23528224.668 5  24571155.413          35.000       -3749.738
 -14146407.043 7  20848726.286          42.000       -1849.516
  -3791232.508 7  23359655.130          44.000        2280.911
 -14456325.806 7  20144564.106          47.000        -150.194
 -15143846.524 8  20620104.562          49.000        -220.689
 16  6 23  0 29  0.0000000  0 11G07G19G17S20G03G22G23G02G09G26G06
  -2902092.665 6  23675807.513          39.000        2856.310
  13598587.444 7  23900482.173          45.000       -3669.961
  19262530.797 6  24709741.395          40.000       -3917.620
  41087734.764 6  38470519.854          40.000        -706.430
  24647048.788 6  22619868.017          41.000       -3384.063
  23753401.156 6  24614008.175          37.000       -3753.648
 -14034709.322 6  20869980.320          41.000       -1873.141
  -3927584.929 7  23333702.189          43.000        2264.543
 -14446392.861 7  20146453.860          47.000        -180.316
   -795758.48812  25370835.094          15.000         942.377
 -15129470.133 8  20622838.679          49.000        -258.245
 16  6 23  0 30  0.0000000  0 10G07G19G17S20G03G22G23G02G09G06
  -3073257.550 5  23643229.650          32.000        2848.280
  13819242.432 7  23942475.459          46.000       -3685.847
  19497632.123 6  24754479.269          39.000       -3919.069
  41130066.721 6  38478575.834          40.000        -706.166
  24850460.893 6  22658573.211          38.000       -3396.863
  23978838.798 6  24656903.724          36.000       -3759.967
 -13921591.446 7  20891508.199          43.000       -1897.824
  -4062969.997 7  23307942.963          45.000        2246.921
 -14434651.211 7  20148686.982          46.000        -211.571
 -15112844.132 8  20626003.363          50.000        -296.918
 16  6 23  0 31  0.0000000  0 11G07G19G17S20G03G22G23G02G09G26G06
  -3243938.32415  23610743.521          34.000        2840.987
  14040842.831 7  23984644.294          46.000       -3700.459
  19732858.626 6  24799242.707          38.000       -3921.075
  41172381.804 6  38486627.993          40.000        -704.781
  25054648.293 6  22697430.797          37.000       -3409.162
  24204604.578 6  24699866.736          36.000       -3764.074
 -13806992.590 7  20913315.649          44.000       -1921.747
  -4197297.539 7  23282382.914          46.000        2230.505
 -14421032.338 7  20151274.675          44.000        -241.998
   -905107.22811  25350076.961           9.000         882.054
 -15093890.790 8  20629610.498          49.000        -334.654
 16  6 23  0 32  0.0000000  0 10G07G19G17S20G03G22G23G02G09G06
  -3414161.389 6  23578359.495          41.000        2832.433
  14263316.456 7  24026978.295          46.000       -3715.526
  19968140.097 6  24844013.370          37.000       -3922.682
  41214628.728 6  38494666.610          40.000        -704.397
  25259558.674 5  22736422.820          35.000       -3421.154
  24430645.82815  24742882.238          33.000       -3771.679
 -13690969.497 7  20935394.415          43.000       -1945.793
  -4330594.867 7  23257014.642          45.000        2212.346
 -14405585.542 7  20154217.270          46.000        -273.023
 -15072650.416 8  20633650.014          48.000        -373.592
 16  6 23  0 33  0.0000000  0 10G07G19G17S20G03G22G23G02G09G06
  -3583894.800 7  23546062.056          42.000        2824.198
  14486648.423 7  24069475.404          45.000       -3729.580
  20203463.021 5  24888793.665          35.000       -3920.782
  41256821.997 6  38502696.432          40.000        -703.198
  25465196.91415  22775553.747          33.000       -3434.977
  24656967.57515  24785945.205          30.000       -3773.561
 -13573522.984 6  20957742.002          41.000       -1969.474
  -4462833.122 7  23231849.666          45.000        2194.737
 -14388303.654 7  20157506.758          46.000        -303.191
 -15049106.848 8  20638131.806          49.000        -411.855
 16  6 23  0 34  0.0000000  0  9G07G19G17S20G23G02G09G26G06
  -3753053.545 6  23513865.357          38.000        2815.537
  14710876.867 7  24112145.217          47.000       -3744.255
  20438867.470 5  24933589.525          34.000       -3923.703
  41299021.817 6  38510727.599          40.000        -702.570
 -13454599.878 7  20980373.364          43.000       -1993.871
  -4593928.755 7  23206901.665          44.000        2175.554
 -14369126.481 7  20161155.633          46.000        -335.152
  -1057885.08413  25321363.291          22.000         791.920
 -15023191.114 8  20643064.337          50.000        -451.520
 16  6 23  0 35  0.0000000  0  8G07G19G17S20G23G02G09G06
  -3921658.629 6  23481782.922          40.000        2805.269
  14935934.192 7  24154972.554          47.000       -3758.600
  20674288.310 6  24978397.950          36.000       -3923.985
  41341190.229 6  38518753.058          40.000        -703.149
 -13334252.778 7  21003273.546          42.000       -2018.033
  -4723905.560 7  23182170.973          45.000        2156.354
 -14348099.460 7  20165157.422          47.000        -366.629
 -14994940.062 8  20648439.231          49.000        -490.858
 16  6 23  0 36  0.0000000  0  9G07G19G17S20G03G23G02G09G06
  -4089644.684 7  23449819.865          43.000        2794.929
  15161839.321 7  24197962.230          47.000       -3771.374
  20909746.283 5  25023200.389          34.000       -3924.109
  41383361.178 6  38526777.297          39.000        -702.898
  26086035.82115  22893816.699          34.000       -3471.106
 -13212448.521 7  21026454.729          42.000       -2041.445
  -4852700.234 7  23157663.991          46.000        2137.160
 -14325182.200 7  20169516.801          46.000        -397.245
 -14964304.794 8  20654269.627          49.000        -529.960
 16  6 23  0 37  0.0000000  0  9G07G19G17S20G03G23G02G09G06
  -4257056.288 6  23417959.641          41.000        2784.775
  15388500.275 7  24241094.352          46.000       -3784.109
  21145151.51314  25067990.596          29.000       -3924.073
  41425463.489 6  38534787.784          40.000        -700.985
  26294673.822 6  22933522.122          36.000       -3483.249
 -13089263.836 6  21049892.867          41.000       -2065.000
  -4980359.675 7  23133365.802          43.000        2117.744
 -14300444.751 7  20174224.451          46.000        -427.732
 -14931347.110 8  20660541.061          49.000        -569.220
 16  6 23  0 38  0.0000000  0 10G07G19G17S20G03G23G02G09G26G06
  -4423833.428 6  23386214.414          36.000        2774.033
  15615931.177 7  24284370.961          43.000       -3796.682
  21380520.45714  25112781.606          27.000       -3922.107
  41467548.693 6  38542796.701          40.000        -701.017
  26504048.287 6  22973366.536          37.000       -3495.257
 -12964670.323 6  21073599.145          40.000       -2087.598
  -5106825.170 7  23109296.839          42.000        2098.582
 -14273851.597 7  20179285.904          47.000        -458.055
  -1236725.89713  25287751.938          20.000         680.589
 -14896023.409 8  20667263.827          50.000        -607.896
 16  6 23  0 39  0.0000000  0 10G07G19G17S20G03G23G02G09G26G06
  -4590020.404 6  23354595.038          39.000        2763.936
  15844040.107 7  24327779.634          42.000       -3806.589
  21615763.42115  25157549.319          30.000       -3916.323
  41509553.819 6  38550790.157          39.000        -698.859
  26714087.006 6  23013341.023          40.000       -3506.382
 -12838745.524 6  21097565.152          40.000       -2109.389
  -5232144.957 7  23085454.921          44.000        2079.268
 -14245473.462 7  20184684.303          46.000        -487.675
  -1276419.82013  25280221.505          19.000         645.536
 -14858396.441 8  20674423.198          49.000        -645.964
 16  6 23  0 40  0.0000000  0  9G07G19S20G03G23G02G09G26G06
  -4755567.762 6  23323096.191          41.000        2753.703
  16072830.529 6  24371314.525          41.000       -3819.336
  41551502.184 6  38558774.609          39.000        -698.395
  26924812.272 6  23053441.711          40.000       -3517.236
 -12711471.816 6  21121785.112          39.000       -2131.936
  -5356270.950 7  23061836.522          46.000        2058.769
 -14215286.309 7  20190431.864          47.000        -518.510
  -1314368.83613  25272995.266          22.000         618.057
 -14818434.472 8  20682028.317          49.000        -685.658
 16  6 23  0 41  0.0000000  0  9G07G19S20G03G23G02G09G26G06
  -4920392.441 6  23291730.071          41.000        2741.687
  16302339.111 7  24414990.902          42.000       -3829.917
  41593461.247 6  38566759.096          39.000        -698.543
  27136280.171 6  23093671.879          36.000       -3529.499
 -12582797.342 6  21146271.519          40.000       -2156.211
  -5479121.828 7  23038458.361          46.000        2037.325
 -14183232.414 7  20196530.575          47.000        -549.050
  -1350410.12714  25266144.136          27.000         585.356
 -14776072.188 8  20690089.288          49.000        -725.549
 16  6 23  0 42  0.0000000  0  9G07G19S20G03G23G02G09G26G06
  -5084537.618 6  23260491.912          40.000        2729.510
  16532475.373 7  24458787.702          44.000       -3841.168
  41635354.980 6  38574728.069          39.000        -698.575
  27348419.879 6  23134049.554          40.000       -3541.800
 -12452798.709 6  21171004.917          38.000       -2178.035
  -5600743.683 7  23015310.211          45.000        2016.077
 -14149381.553 7  20202972.410          46.000        -579.540
  -1384600.09314  25259642.813          24.000         552.460
 -14731371.961 7  20698593.111          47.000        -765.210
 16  6 23  0 43  0.0000000  0  9G07G19S20G03G23G02G09G26G06
  -5247935.534 6  23229396.148          39.000        2717.586
  16763260.680 7  24502700.739          43.000       -3850.998
  41677227.704 6  38582696.450          39.000        -697.755
  27561271.984 6  23174554.912          41.000       -3553.495
 -12321440.170 6  21196003.366          37.000       -2200.149
  -5721070.801 7  22992414.984          46.000        1994.342
 -14113691.859 7  20209762.395          46.000        -610.108
  -1416908.67613  25253489.883          18.000         523.066
 -14684284.787 8  20707555.839          49.000        -804.667
 16  6 23  0 44  0.0000000  0  9G07G19S20G03G23G02G09G26G06
  -5410618.112 7  23198444.871          43.000        2705.385
  16994617.517 7  24546726.504          42.000       -3860.077
  41719036.358 6  38590655.424          39.000        -695.768
  27774777.858 6  23215176.262          38.000       -3563.302
 -12188785.195 6  21221241.267          37.000       -2220.800
  -5840136.859 8  22969760.535          48.000        1974.215
 -14076220.949 7  20216895.189          47.000        -639.228
  -1447356.09213  25247686.796          20.000         490.311
 -14634861.298 8  20716959.186          48.000        -842.974
 16  6 23  0 45  0.0000000  0  8G07G19S20G03G23G02G09G06
  -5572575.409 7  23167625.937          42.000        2692.601
  17226508.282 7  24590855.348          44.000       -3869.381
  41760773.340 6  38598595.867          39.000        -694.890
  27988919.405 6  23255932.642          40.000       -3574.673
 -12054856.879 6  21246731.568          39.000       -2243.129
  -5957934.524 8  22947342.520          48.000        1952.403
 -14036986.084 7  20224360.374          47.000        -668.586
 -14583112.002 8  20726808.106          48.000        -882.159
 16  6 23  0 46  0.0000000  0  8G07G19S20G03G23G02G09G06
  -5733691.618 6  23136962.851          39.000        2678.150
  17459002.998 7  24635096.588          44.000       -3878.898
  41802528.974 6  38606541.736          39.000        -694.855
  28203785.327 6  23296819.113          39.000       -3586.464
 -11919571.544 6  21272477.898          39.000       -2265.735
  -6074350.791 8  22925187.392          48.000        1928.860
 -13995897.837 7  20232179.189          46.000        -699.982
 -14528940.854 8  20737117.311          49.000        -922.585
 16  6 23  0 47  0.0000000  0  9G07G19S20G03G23G02G09G26G06
  -5893993.222 7  23106460.201          42.000        2664.573
  17692028.740 7  24679442.198          44.000       -3888.037
  41844259.088 6  38614483.801          39.000        -696.234
  28419321.540 6  23337827.665          37.000       -3597.942
 -11782987.822 6  21298462.860          38.000       -2286.575
  -6189414.340 8  22903291.312          48.000        1906.015
 -13953009.660 7  20240341.144          46.000        -730.090
  -1471474.11414  25232469.438          25.000         393.601
 -14472394.958 8  20747876.853          48.000        -962.161
 16  6 23  0 48  0.0000000  0  8G07G19S20G03G23G02G09G06
  -6053437.149 6  23076118.915          41.000        2650.311
  17925582.867 7  24723886.995          44.000       -3896.486
  41885977.091 6  38622420.858          38.000        -694.318
  28635544.628 6  23378983.306          41.000       -3608.943
 -11645094.807 7  21324710.186          42.000       -2307.394
  -6303083.335 8  22881662.117          48.000        1882.770
 -13908304.481 7  20248847.270          46.000        -759.776
 -14413451.138 8  20759093.836          48.000       -1001.870
 16  6 23  0 49  0.0000000  0  8G07G19S20G03G23G02G09G06
  -6212048.888 7  23045936.512          43.000        2635.288
  18159592.991 7  24768418.381          44.000       -3904.797
  41927631.748 6  38630348.597          39.000        -695.474
  28852400.987 6  23420248.220          41.000       -3620.719
 -11505950.461 6  21351184.418          41.000       -2330.120
  -6415386.816 8  22860292.877          48.000        1859.339
 -13861835.724 7  20257689.453          46.000        -790.268
 -14352156.878 8  20770757.439          48.000       -1042.019
 16  6 23  0 50  0.0000000  0  9G07G19S20G03G23G02G09G26G06
  -6369738.223 6  23015924.249          38.000        2620.695
  18394104.234 7  24813043.857          44.000       -3912.441
  41969302.453 6  38638278.621          39.000        -694.566
  29069954.508 6  23461640.502          38.000       -3631.435
 -11365496.523 6  21377910.648          41.000       -2352.366
  -6526235.659 7  22839197.971          47.000        1835.479
 -13813539.203 7  20266881.721          47.000        -820.263
  -1535348.39414  25220610.689          25.000         296.587
 -14288442.197 8  20782882.426          48.000       -1081.737
 16  6 23  0 51  0.0000000  0  9G07G19S20G03G23G02G09G26G06
  -6526523.854 7  22986090.833          43.000        2605.601
  18629051.552 7  24857750.390          44.000       -3919.430
  42010955.355 6  38646203.865          39.000        -694.376
  29288158.888 7  23503171.864          42.000       -3642.135
 -11223783.496 7  21404880.971          42.000       -2372.244
  -6635651.283 7  22818375.464          46.000        1811.278
 -13763461.129 7  20276408.615          46.000        -849.386
  -1552166.58114  25217411.384          27.000         263.807
 -14222347.980 7  20795457.385          47.000       -1121.372
 16  6 23  0 52  0.0000000  0  9G07G19S20G03G23G02G09G26G06
  -6682351.412 7  22956438.987          42.000        2589.552
  18864442.522 7  24902546.495          44.000       -3925.517
  42052610.749 6  38654130.260          39.000        -693.060
  29507040.382 7  23544825.638          43.000       -3652.774
 -11080790.336 7  21432090.782          42.000       -2393.309
  -6743583.189 7  22797839.245          45.000        1786.462
 -13711575.494 7  20286284.147          46.000        -878.825
  -1567012.35511  25214602.422          10.000         228.086
 -14153842.898 8  20808495.978          48.000       -1161.375
 16  6 23  0 53  0.0000000  0  9G07G19S20G03G23G02G09G26G06
  -6837250.430 7  22926964.993          44.000        2574.450
  19100203.472 7  24947408.597          43.000       -3932.352
  42094216.342 6  38662048.418          39.000        -693.402
  29726543.372 6  23586586.906          39.000       -3663.689
 -10936577.554 7  21459533.902          42.000       -2413.940
  -6850061.267 7  22777576.750          45.000        1762.888
 -13657937.910 7  20296490.797          46.000        -908.404
  -1579962.23814  25212148.276          26.000         197.526
 -14082977.491 7  20821980.093          47.000       -1200.501
 16  6 23  0 54  0.0000000  0  9G07G19S20G03G23G02G09G26G06
  -6991205.706 7  22897664.280          42.000        2556.946
  19336303.386 7  24992338.563          44.000       -3938.556
  42135771.276 6  38669957.572          39.000        -692.828
  29946655.630 7  23628478.980          42.000       -3674.341
 -10791162.485 6  21487202.321          40.000       -2434.854
  -6955074.078 7  22757593.424          46.000        1737.209
 -13602560.877 7  20307027.151          45.000        -938.245
  -1590776.84514  25210102.569          24.000         154.354
 -14009759.584 8  20835913.673          48.000       -1240.208
 16  6 23  0 55  0.0000000  0  9G07G19S20G03G23G02G09G26G06
  -7144133.517 7  22868564.384          43.000        2540.018
  19572780.068 7  25037337.823          43.000       -3943.806
  42177334.231 6  38677865.452          39.000        -692.120
  30167433.691 7  23670494.271          43.000       -3685.079
 -10644493.594 7  21515115.882          42.000       -2454.159
  -7058539.812 7  22737903.942          46.000        1711.341
 -13545388.479 7  20317905.827          45.000        -967.408
  -1599519.80013  25208448.882          23.000         132.745
 -13934128.614 8  20850306.717          48.000       -1279.926
 16  6 23  0 56  0.0000000  0  8G07G19S20G03G23G02G09G06
  -7296072.772 7  22839652.270          43.000        2523.273
  19809549.940 7  25082395.053          43.000       -3948.771
  42218855.146 6  38685767.766          39.000        -691.678
  30388811.505 6  23712615.467          39.000       -3694.867
 -10496641.242 7  21543251.548          43.000       -2473.878
  -7160499.351 7  22718501.481          46.000        1686.593
 -13486487.119 7  20329115.305          45.000        -996.070
 -13856146.755 7  20865144.445          47.000       -1319.369
 16  6 23  0 57  0.0010000  0  8G07G19S20G03G23G02G09G06
  -7446946.597 7  22810943.155          45.000        2506.817
  20046651.227 7  25127513.970          42.000       -3952.750
  42260398.003 6  38693673.902          39.000        -691.973
  30610844.795 6  23754861.398          37.000       -3704.642
 -10347555.802 7  21571622.549          42.000       -2493.607
  -7260878.438 7  22699399.583          47.000        1660.650
 -13425804.270 7  20340663.424          46.000       -1024.897
 -13775757.008 8  20880443.994          48.000       -1358.660
 16  6 23  0 58  0.0010000  0  9G07G19S20G03G23G02G09G26G06
  -7596781.529 7  22782428.784          44.000        2488.537
  20283998.971 6  25172678.414          41.000       -3958.560
  42301899.127 6  38701569.741          40.000        -691.269
  30833468.479 7  23797238.100          43.000       -3715.116
 -10197304.511 6  21600209.338          41.000       -2513.577
  -7359706.763 8  22680593.885          48.000        1633.962
 -13363400.646 7  20352537.686          45.000       -1054.526
  -1614579.49314  25205809.712          28.000          26.223
 -13693016.981 8  20896188.121          48.000       -1398.735
 16  6 23  1  1  0.0010000  0 10G07G19S20G03G04G23G02G09G26G06
  -8039763.025 7  22698130.447          43.000        2432.330
  20997401.135 6  25308433.849          40.000       -3968.730
  42426238.820 6  38725231.312          40.000        -690.645
  31504934.66016  23925016.883          38.000       -3745.033
     97325.90914  25175675.786          29.000        -868.332
  -9739559.568 7  21687321.140          45.000       -2572.867
  -7646622.365 8  22625996.202          48.000        1552.616
 -13165836.557 7  20390134.599          46.000       -1141.215
  -1610122.01314  25206728.448          27.000         -79.723
 -13430629.949 8  20946118.185          48.000       -1517.343
 16  6 23  1  2  0.0010000  0 10G07G19S20G03G04G23G02G09G26G06
  -8185091.726 7  22670475.882          42.000        2412.448
  21235663.979 6  25353774.627          40.000       -3973.234
  42467725.233 6  38733126.104          40.000        -690.602
  31730023.477 7  23967853.573          42.000       -3756.373
    150659.23915  25185823.593          32.000        -906.980
  -9584594.822 7  21716807.854          44.000       -2592.419
  -7738921.896 8  22608431.895          48.000        1524.083
 -13096465.956 7  20403332.600          44.000       -1170.755
  -1604200.20414  25207856.814          27.000        -116.654
 -13338370.254 8  20963674.535          48.000       -1557.515
 16  6 23  1  3  0.0010000  0 10G07G19S20G03G04G23G02G09G26G06
  -8329271.837 7  22643041.278          45.000        2394.261
  21474066.053 6  25399137.760          38.000       -3973.134
  42509177.053 6  38741012.887          40.000        -691.035
  31955683.453 6  24010797.477          41.000       -3764.877
    206351.212 5  25196425.805          33.000        -947.668
  -9428507.988 7  21746509.346          43.000       -2609.670
  -7829573.868 8  22591181.936          48.000        1497.687
 -13025401.540 7  20416855.350          44.000       -1198.347
  -1596863.95514  25209385.610          28.000        -151.085
 -13243771.483 7  20981677.401          47.000       -1596.202
 16  6 23  1  4  0.0010000  0 10G07G19S20G03G04G23G02G09G26G06
  -8472291.518 7  22615823.423          43.000        2373.492
  21712575.825 6  25444527.312          40.000       -3976.927
  42550590.276 6  38748892.586          40.000        -690.890
  32181899.640 5  24053855.278          35.000       -3775.947
    264393.549 5  25207469.873          32.000        -988.422
  -9271318.495 7  21776421.183          44.000       -2629.153
  -7918569.213 7  22574243.952          46.000        1468.669
 -12952659.557 7  20430700.160          45.000       -1227.172
  -1586988.16314  25211293.565          28.000        -185.845
 -13146847.537 7  21000120.397          47.000       -1635.357
 16  6 23  1  5  0.0010000  0 10G07G19S20G03G04G23G02G09G26G06
  -8614065.906 7  22588847.079          45.000        2352.047
  21951234.222 6  25489941.434          37.000       -3979.010
  42592027.169 6  38756779.962          40.000        -690.663
  32408730.88115  24097034.952          31.000       -3786.533
    324850.811 5  25218977.908          33.000       -1028.438
  -9112972.877 7  21806555.424          46.000       -2648.802
  -8005825.318 7  22557641.256          46.000        1439.761
 -12878182.672 7  20444872.355          45.000       -1255.911
  -1574691.79613  25213615.822          22.000        -220.441
 -13047539.171 7  21019017.726          47.000       -1675.117
 16  6 23  1  6  0.0010000  0  9G07G19S20G03G04G23G02G09G06
  -8754620.579 7  22562096.925          43.000        2332.353
  22189972.077 6  25535374.367          39.000       -3979.215
  42633445.186 6  38764659.416          40.000        -689.928
  32636123.95516  24140282.839          41.000       -3794.247
    387674.92914  25230925.094          26.000       -1065.952
  -8953528.343 7  21836896.518          46.000       -2666.611
  -8091371.158 7  22541361.023          45.000        1411.540
 -12802025.175 7  20459364.970          46.000       -1283.523
 -12945898.803 7  21038359.897          47.000       -1712.929
 16  6 23  1  7  0.0000000  0  9G07G19S20G03G04G23G02G09G06
  -8893912.076 7  22235799.456          44.000        2310.071
  22428788.940 6  25281027.601          39.000       -3981.247
  42674864.921 6  38472749.451          40.000        -690.496
  32864096.400 7  23883871.852          43.000       -3804.698
    452888.62714  24943546.934          29.000       -1107.201
  -8792970.933 7  21567658.016          47.000       -2685.614
  -8175165.351 7  22225623.763          45.000        1381.787
 -12724171.185 7  20174387.017          45.000       -1311.935
 -12841908.959 7  20758356.337          47.000       -1752.666
 16  6 23  1  8  0.0000000  0  9G07G19S20G03G04G23G02G09G06
  -9031862.591 7  22209547.244          43.000        2288.757
  22667718.679 6  25326492.782          39.000       -3982.920
  42716348.164 6  38480641.888          40.000        -691.213
  33092698.838 7  23927373.831          42.000       -3815.108
    520546.46715  24956423.257          30.000       -1145.576
  -8631254.922 7  21598431.039          47.000       -2704.202
  -8257134.334 7  22210024.246          45.000        1351.422
 -12644571.753 7  20189535.045          45.000       -1340.923
 -12735519.427 7  20778601.417          47.000       -1793.149
 16  6 23  1  9  0.0000000  0 10G07G19S20G03G04G23G02G09G26G06
  -9168485.329 7  22183552.143          46.000        2265.588
  22906706.964 6  25371973.476          41.000       -3983.660
  42757858.242 6  38488542.351          40.000        -692.147
  33321892.917 6  23970995.117          37.000       -3824.993
    590615.00215  24969755.171          32.000       -1188.482
  -8468422.794 7  21629416.239          47.000       -2724.232
  -8337292.481 7  22194770.696          46.000        1320.145
 -12563266.853 7  20205005.448          45.000       -1369.801
  -1506405.53914  24927348.717          28.000        -369.500
 -12626769.207 7  20799294.775          46.000       -1832.707
 16  6 23  1 10  0.0000000  0  9G07G19S20G03G04G23G02G09G06
  -9303731.068 7  22157813.753          44.000        2243.163
  23145758.318 6  25417464.275          39.000       -3984.406
  42799428.906 6  38496451.645          40.000        -692.277
  33551700.772 5  24014731.331          35.000       -3834.324
    663119.63015  24983556.322          31.000       -1227.509
  -8304456.731 8  21660617.525          48.000       -2741.608
  -8415594.319 7  22179871.317          46.000        1289.941
 -12480236.197 7  20220807.737          45.000       -1397.994
 -12515637.458 7  20820442.973          46.000       -1871.472
 16  6 23  1 11  0.0000000  0 10G07G19S20G03G04G23G02G09G26G06
  -9437535.282 7  22132350.186          43.000        2218.315
  23384895.412 6  25462971.109          38.000       -3985.938
  42841100.901 6  38504380.902          40.000        -695.736
  33782160.838 5  24058583.048          35.000       -3847.359
    738103.02214  24997825.574          28.000       -1269.227
  -8139322.247 8  21692043.273          48.000       -2762.287
  -8491978.466 7  22165335.564          47.000        1256.925
 -12395442.955 7  20236941.458          45.000       -1428.541
  -1458576.97815  24936640.835          31.000        -446.932
 -12402086.452 7  20842050.147          46.000       -1912.877
 16  6 23  1 12  0.0000000  0  9G07G19S20G03G04G23G02G09G06
  -9569974.172 7  22107148.232          44.000        2196.698
  23623999.149 5  25508465.782          33.000       -3984.598
  42882784.166 6  38512312.497          40.000        -693.176
  34013170.108 5  24102531.404          35.000       -3854.768
    815466.62414  25012552.738          28.000       -1307.942
  -7973126.439 8  21723668.808          48.000       -2777.648
  -8566524.613 7  22151148.694          46.000        1227.130
 -12308992.073 7  20253394.099          46.000       -1453.759
 -12286221.078 7  20864098.968          46.000       -1949.317
 16  6 23  1 13  0.0000000  0 10G07G19S20G03G04G23G02G09G26G06
  -9701091.592 7  22082196.864          43.000        2174.486
  23862983.56815  25553941.799          32.000       -3982.859
  42924410.190 6  38520233.866          40.000        -692.980
  34244659.020 6  24146583.868          37.000       -3862.240
    895139.05014  25027705.809          24.000       -1347.398
  -7805942.615 8  21755483.522          49.000       -2794.990
  -8639279.243 7  22137304.669          46.000        1197.108
 -12220954.907 7  20270147.407          45.000       -1480.570
  -1401754.38214  24947635.712          26.000        -518.365
 -12168112.782 7  20886574.639          46.000       -1987.502
 16  6 23  1 14  0.0000000  0  9G07G19S20G03G04G23G02G09G06
  -9830845.413 7  22057508.784          46.000        2150.400
  24101850.04715  25599395.254          32.000       -3979.743
  42966008.685 6  38528149.634          40.000        -693.844
  34476644.451 6  24190729.167          37.000       -3870.419
    977141.34115  25043313.284          31.000       -1386.917
  -7637758.448 8  21787487.466          48.000       -2811.810
  -8710203.127 7  22123808.880          46.000        1166.074
 -12131316.556 7  20287202.011          43.000       -1507.970
 -12047746.972 7  20909477.334          45.000       -2025.545
 16  6 23  1 15  0.0000000  0  9G07G19S20G03G04G23G02G09G06
  -9959132.601 7  22033093.016          44.000        2126.625
  24340658.30315  25644841.886          32.000       -3979.017
  43007657.569 6  38536073.464          40.000        -693.083
  34709202.473 6  24234984.053          39.000       -3881.049
   1061552.12115  25059373.801          31.000       -1425.082
  -7468501.513 8  21819694.093          48.000       -2829.456
  -8779196.887 7  22110679.737          46.000        1133.863
 -12040003.062 7  20304580.526          45.000       -1535.400
 -11925050.205 7  20932830.647          47.000       -2063.712
 16  6 23  1 16  0.0000000  0 11G07G05G19S20G03G04G23G02G09G26G06
 -10085940.758 7  22008963.500          44.000        2100.012
   -166207.39314  25092242.542          29.000        2773.934
  24579380.595 5  25690276.581          33.000       -3978.919
  43049355.612 6  38544008.619          40.000        -695.823
  34942320.433 6  24279347.428          39.000       -3890.799
   1148360.20015  25075891.287          31.000       -1466.135
  -7298187.610 8  21852105.657          49.000       -2848.289
  -8846251.028 7  22097920.330          46.000        1100.557
 -11947029.159 7  20322272.639          45.000       -1564.138
  -1300058.93114  24967257.923          24.000        -629.454
 -11800038.045 7  20956615.171          44.000       -2103.988
 16  6 23  1 17  0.0000000  0 11G07G05G19S20G03G04G23G02G09G26G06
 -10211215.330 7  21985123.309          42.000        2075.395
   -332576.74915  25060576.051          31.000        2771.125
  24818030.13514  25735691.925          29.000       -3976.828
  43091134.139 6  38551958.746          40.000        -696.432
  35176027.256 6  24323820.302          38.000       -3900.442
   1237594.65816  25092876.631          36.000       -1507.625
  -7126792.396 8  21884720.951          48.000       -2864.930
  -8911314.305 7  22085539.575          46.000        1068.466
 -11852367.925 7  20340287.057          46.000       -1591.140
  -1261114.36114  24974672.311          27.000        -667.555
 -11672684.763 7  20980852.355          45.000       -2141.497
 16  6 23  1 18  0.0000000  0 11G07G05G19S20G03G04G23G02G09G26G06
 -10335021.937 7  21961564.817          43.000        2051.139
   -498882.03815  25028938.562          30.000        2769.782
  25056472.10014  25781066.312          28.000       -3972.650
  43132913.595 6  38559909.030          39.000        -696.069
  35410231.254 6  24368393.690          38.000       -3907.873
   1329165.841 6  25110297.271          37.000       -1544.540
  -6954410.717 8  21917523.871          48.000       -2881.185
  -8974456.304 7  22073524.053          46.000        1036.290
 -11756113.248 7  20358603.695          45.000       -1616.990
  -1219946.30614  24982508.105          29.000        -704.841
 -11543085.570 7  21005513.090          45.000       -2178.437
 16  6 23  1 19  0.0000000  0 10G07G05S20G03G04G23G02G09G26G06
 -10457355.223 7  21938283.714          42.000        2025.883
   -665127.41515  24997285.560          33.000        2771.027
  43174678.141 6  38567855.685          39.000        -696.939
  35644912.832 6  24413052.915          39.000       -3915.520
   1423053.897 6  25128166.834          37.000       -1583.935
  -6781065.923 8  21950510.942          49.000       -2897.972
  -9035674.603 7  22061874.270          47.000        1003.030
 -11658286.960 7  20377219.064          45.000       -1644.753
  -1176568.97315  24990756.892          30.000        -742.838
 -11411263.833 7  21030598.004          46.000       -2216.525
 16  6 23  1 20  0.0000000  0 11G07G05G19S20G03G04G23G02G09G26G06
 -10578113.875 7  21915303.784          43.000        2000.198
   -831220.44314  24965683.582          26.000        2767.944
  25532571.86614  25871716.669          29.000       -3966.896
  43216513.829 6  38575815.323          39.000        -698.067
  35880147.048 6  24457814.696          41.000       -3924.372
   1519334.389 5  25146486.858          35.000       -1623.962
  -6606686.043 8  21983695.847          49.000       -2914.546
  -9094871.803 7  22050609.108          47.000         969.783
 -11558816.016 7  20396146.966          45.000       -1670.724
  -1130899.35915  24999452.039          33.000        -781.017
 -11277148.532 7  21056120.449          46.000       -2253.831
 16  6 23  1 21  0.0000000  0 10G07G05S20G03G04G23G02G09G26G06
 -10697337.174 7  21892618.902          45.000        1974.790
   -997376.67614  24934079.161          29.000        2765.488
  43258360.983 6  38583779.410          39.000        -696.989
  36115870.504 7  24502669.486          43.000       -3931.615
   1617943.297 6  25165251.322          37.000       -1662.391
  -6431338.296 8  22017062.111          48.000       -2929.841
  -9152090.013 7  22039720.818          47.000         937.719
 -11457766.109 7  20415377.351          45.000       -1696.522
  -1082990.697 5  25008570.982          34.000        -815.989
 -11140807.445 7  21082063.548          45.000       -2290.199
 16  6 23  1 22  0.0000000  0 10G07G05S20G03G04G23G02G09G26G06
 -10815021.906 7  21870224.340          45.000        1948.477
  -1163264.94514  24902482.785          25.000        2763.805
  43300213.427 6  38591743.096          39.000        -698.072
  36352060.421 7  24547613.865          44.000       -3939.718
   1718857.190 6  25184453.402          37.000       -1701.317
  -6255048.436 8  22050609.265          48.000       -2946.132
  -9207330.541 7  22029209.400          47.000         904.235
 -11355162.370 7  20434901.370          46.000       -1723.032
  -1032856.90915  25018107.823          30.000        -857.120
 -11002268.134 7  21108429.029          46.000       -2327.464
 16  6 23  1 23  0.0000000  0 10G07G05S20G03G04G23G02G09G26G06
 -10931097.990 7  21848137.338          46.000        1921.135
  -1328985.28914  24870998.543          25.000        2759.951
  43342126.572 6  38599719.556          39.000        -698.953
  36588762.159 7  24592657.938          44.000       -3949.312
   1822120.669 5  25204108.210          35.000       -1739.895
  -6077774.457 7  22084342.002          47.000       -2963.154
  -9260526.579 7  22019086.127          47.000         869.479
 -11250961.656 7  20454730.122          46.000       -1749.865
   -980445.68114  25028080.116          29.000        -891.289
 -10861490.078 7  21135216.422          45.000       -2364.669
 16  6 23  1 24  0.0000000  0 10G07G05S20G03G04G23G02G09G26G06
 -11045590.418 7  21826346.518          43.000        1894.572
  -1494581.31213  24839492.629          22.000        2757.983
  43384049.234 6  38607696.574          39.000        -698.634
  36825925.993 7  24637787.900          44.000       -3956.052
   1927682.624 5  25224193.079          35.000       -1777.836
  -5899569.617 7  22118254.284          47.000       -2977.637
  -9311707.056 7  22009345.555          46.000         835.756
 -11145215.957 7  20474852.160          45.000       -1774.657
   -925798.01214  25038486.204          29.000        -929.941
 -10718528.317 7  21162421.033          44.000       -2400.901
 16  6 23  1 25  0.0000000  0 10G07G05S20G03G04G23G02G09G26G06
 -11158495.698 6  21804858.913          41.000        1867.812
  -1660043.48215  24807963.331          32.000        2755.700
  43425963.966 6  38615672.807          39.000        -698.987
  37063530.973 7  24683004.416          43.000       -3963.846
   2035520.472 5  25244711.063          32.000       -1815.508
  -5720457.320 7  22152338.258          47.000       -2993.206
  -9360871.510 7  21999990.651          47.000         802.121
 -11037948.629 7  20495264.988          46.000       -1800.707
   -868927.00314  25049305.776          29.000        -967.288
 -10573409.377 7  21190038.009          46.000       -2437.069
 16  6 23  1 26  0.0000000  0  9G07G05S20G03G04G23G02G09G06
 -11269727.337 7  21783694.940          43.000        1840.210
  -1825311.44015  24776520.639          33.000        2753.845
  43467944.635 6  38623660.591          39.000        -699.382
  37301638.468 7  24728313.976          42.000       -3972.060
   2145693.39515  25265680.361          32.000       -1855.350
  -5540379.074 7  22186603.366          46.000       -3009.069
  -9407938.319 7  21991032.442          45.000         766.902
 -10929100.707 7  20515978.624          46.000       -1826.740
 -10426077.709 7  21218074.000          46.000       -2473.864
 16  6 23  1 27  0.0000000  0 10G07G05G16S20G03G04G23G02G09G06
 -11379284.211 7  21762847.549          45.000        1811.433
  -1990380.97214  24745128.325          28.000        2749.855
    -42110.64216  24418051.583          36.000         684.776
  43509970.852 6  38631657.538          39.000        -701.424
  37540224.962 6  24773718.518          41.000       -3980.879
   2258175.72515  25287083.036          31.000       -1892.897
  -5359361.837 7  22221052.347          47.000       -3025.179
  -9452910.105 7  21982473.790          45.000         731.435
 -10818697.892 7  20536987.499          46.000       -1853.345
 -10276562.770 7  21246525.655          45.000       -2510.575
 16  6 23  1 28  0.0000000  0 10G07G05G16S20G03G04G23G02G09G06
 -11487125.380 7  21742325.133          44.000        1782.633
  -2155217.50214  24713749.728          27.000        2744.885
    -82124.45315  24410432.364          30.000         645.532
  43552076.916 6  38639670.364          39.000        -702.891
  37779307.599 6  24819217.430          37.000       -3987.352
   2372982.59214  25308922.681          25.000       -1931.742
  -5177390.762 8  22255678.675          48.000       -3040.743
  -9495749.846 7  21974322.637          45.000         696.013
 -10706725.501 7  20558294.076          45.000       -1879.376
 -10124853.822 7  21275393.969          45.000       -2546.566
 16  6 23  1 29  0.0000000  0  9G07G16S20G03G04G23G02G09G06
 -11593210.419 7  21722137.691          43.000        1753.081
   -120179.61815  24403254.356          33.000         609.636
  43594290.972 6  38647703.606          39.000        -705.485
  38018902.606 5  24864806.473          35.000       -3996.733
   2490124.88915  25331221.896          31.000       -1973.053
  -4994452.973 8  22290492.714          48.000       -3056.971
  -9536420.954 7  21966584.687          46.000         659.707
 -10593169.709 7  20579906.397          47.000       -1906.072
  -9970941.205 7  21304682.554          45.000       -2583.822
 16  6 23  1 30  0.0000000  0 11G07G05G16S20G03G04G23G02G09G26G06
 -11697632.369 7  21702266.430          43.000        1726.244
  -2484545.02814  24651124.316          27.000        2736.720
   -155835.633 5  24396462.575          34.000         576.265
  43636498.374 6  38655734.563          39.000        -703.901
  38258892.68015  24910477.933          30.000       -4000.556
   2609483.53314  25353936.373          27.000       -2011.763
  -4810667.565 7  22325463.910          47.000       -3070.346
  -9575020.759 7  21959240.221          46.000         625.432
 -10478150.021 7  20601792.704          46.000       -1929.311
   -553378.40214  25109948.004          26.000       -1156.559
  -9814948.956 7  21334367.329          46.000       -2617.430
 16  6 23  1 31  0.0000000  0 11G07G05G16S20G03G04G23G02G09G26G06
 -11800325.442 7  21682724.909          43.000        1697.145
  -2648718.41813  24619856.388          23.000        2734.607
   -189292.40114  24390087.452          28.000         539.671
  43678754.970 6  38663777.298          39.000        -705.334
  38499319.90114  24956223.766          26.000       -4011.086
   2731096.94215  25377074.332          30.000       -2046.801
  -4625995.148 7  22360606.275          47.000       -3085.371
  -9611487.457 7  21952300.549          46.000         589.833
 -10361626.663 7  20623965.806          45.000       -1954.901
   -482871.30513  25123356.333          21.000       -1191.699
  -9656842.088 7  21364451.783          44.000       -2652.639
 16  6 23  1 32  0.0000000  0 10G07G05G16S20G03G23G02G09G26G06
 -11901319.239 7  21663506.862          43.000        1669.407
  -2812697.04015  24588678.224          33.000        2730.275
   -220582.61914  24384142.128          29.000         503.278
  43721002.898 6  38671816.265          39.000        -704.015
  38740127.59913  25002035.910          23.000       -4017.299
  -4440492.177 8  22395908.851          48.000       -3098.438
  -9645855.839 7  21945760.050          46.000         555.735
 -10243655.882 7  20646412.824          43.000       -1977.787
   -410145.81613  25137199.748          21.000       -1230.641
  -9496681.834 7  21394929.531          44.000       -2685.703
 16  6 23  1 33  0.0000000  0 10G07G05G16S20G04G23G02G09G26G06
 -12000596.901 7  21644616.460          45.000        1639.991
  -2976471.37114  24557524.333          27.000        2726.698
   -249701.72214  24378618.889          26.000         465.545
  43763240.539 6  38679853.364          39.000        -704.945
   2980672.00915  25424616.979          30.000       -2118.303
  -4254167.281 7  22431362.389          47.000       -3112.730
  -9678112.770 7  21939623.315          47.000         519.323
 -10124246.301 7  20669136.532          43.000       -2002.748
   -335203.18515  25151463.381          32.000       -1269.604
  -9334481.958 7  21425794.604          44.000       -2720.899
 16  6 23  1 34  0.0000000  0  9G07G05S20G03G23G02G09G26G06
 -12098080.314 7  21626062.342          43.000        1609.743
  -3139967.16614  24526400.403          29.000        2723.218
  43805534.015 6  38687901.143          39.000        -704.232
  39222844.94415  25093936.051          31.000       -4030.475
  -4066967.650 8  22466985.403          48.000       -3126.819
  -9708184.636 7  21933899.748          47.000         483.348
 -10003345.714 7  20692142.673          44.000       -2026.907
   -257994.01215  25166154.248          31.000       -1304.117
  -9170195.713 7  21457059.775          45.000       -2754.955
 16  6 23  1 35  0.0000000  0 10G07G05G16S20G03G23G02G09G26G06
 -12193792.462 7  21607848.537          42.000        1580.017
  -3303211.88914  24495336.468          27.000        2718.471
   -302040.58314  24368819.405          28.000         390.106
  43847841.307 6  38695950.649          39.000        -705.487
  39464850.78615  25139985.675          33.000       -4038.997
  -3878941.589 8  22502767.214          48.000       -3140.508
  -9736098.927 7  21928587.588          47.000         447.045
  -9881002.756 7  20715428.261          45.000       -2051.324
   -178560.23715  25181269.330          31.000       -1345.801
  -9003877.540 7  21488709.270          45.000       -2789.217
 16  6 23  1 36  0.0000000  0 10G07G05S20G03G04G23G02G09G26G06
 -12287691.063 7  21589982.271          42.000        1549.692
  -3466194.06413  24464303.385          18.000        2719.886
  43890199.776 6  38704012.876          39.000        -706.341
  39707261.62116  25186108.939          36.000       -4043.062
   3370143.46114  25499077.721          26.000       -2227.777
  -3690072.625 8  22538706.426          48.000       -3154.941
  -9761818.317 8  21923693.657          48.000         410.478
  -9757200.370 7  20738984.938          43.000       -2075.755
    -96878.04015  25196813.880          33.000       -1379.902
  -8835516.311 7  21520748.533          46.000       -2822.805
 16  6 23  1 37  0.0000000  0 11G07G05G16S20G03G04G23G02G09G26G06
 -12379819.378 7  21572453.022          43.000        1521.296
  -3628913.16415  24433369.227          35.000        2710.344
   -345405.54115  24360732.189          34.000         317.384
  43932555.247 6  38712073.341          39.000        -706.164
  39950011.669 6  25232304.342          36.000       -4048.853
   3504890.10714  25524715.791          28.000       -2262.903
  -3500427.976 8  22574797.507          49.000       -3167.136
  -9785390.012 7  21919207.502          47.000         375.145
  -9632006.698 7  20762804.712          42.000       -2098.017
    -13009.85615  25212766.764          30.000       -1413.184
  -8665186.390 7  21553160.794          45.000       -2854.782
 16  6 23  1 38  0.0000000  0 11G07G05G16S20G03G04G23G02G09G26G06
 -12470209.078 7  21555250.091          43.000        1492.290
  -3791419.938 5  24402450.058          33.000        2705.592
   -363295.85215  24357324.685          33.000         280.334
  43974856.268 6  38720122.708          39.000        -705.221
  40193045.953 6  25278551.659          36.000       -4053.753
   3641705.24914  25550751.603          27.000       -2298.063
  -3310064.682 7  22611018.191          46.000       -3179.361
  -9806852.047 8  21915124.815          48.000         339.258
  -9505479.375 7  20786884.529          42.000       -2120.184
     72992.23815  25229148.924          31.000       -1450.560
  -8492951.768 7  21585934.624          45.000       -2886.606
 16  6 23  1 39  0.0010000  0 11G07G05G16S20G03G04G23G02G09G26G06
 -12558772.289 7  21538399.987          45.000        1461.055
  -3953635.51514  24371603.553          27.000        2701.267
   -378895.70815  24354360.574          30.000         241.631
  44017182.824 6  38728177.764          39.000        -704.220
  40436436.161 6  25324867.818          38.000       -4059.313
   3780651.95514  25577192.627          27.000       -2333.306
  -3118913.574 7  22647396.224          47.000       -3191.836
  -9826118.442 8  21911458.228          48.000         303.062
  -9377550.638 7  20811228.875          42.000       -2143.220
    161200.62815  25245926.087          33.000       -1487.032
  -8318750.776 7  21619085.989          46.000       -2919.316
 16  6 23  1 40  0.0010000  0 12G07G05G29G16S20G03G04G23G02G09G26G06
 -12645510.515 7  21521893.180          45.000        1430.656
  -4115563.57815  24340776.871          32.000        2696.340
      4992.40214  24999017.145          26.000        -101.518
   -392212.26015  24351831.514          34.000         203.116
  44059506.093 6  38736230.777          40.000        -704.862
  40680147.415 6  25371242.138          36.000       -4064.112
   3921694.66213  25604027.380          20.000       -2375.656
  -2927009.341 7  22683914.138          46.000       -3204.630
  -9843198.267 8  21908207.147          48.000         266.290
  -9248253.884 7  20835833.315          42.000       -2166.350
    251588.04615  25263123.678          32.000       -1524.148
  -8142624.927 7  21652600.459          45.000       -2950.936
 16  6 23  1 41  0.0010000  0 12G07G05G16S20G03G04G30G23G02G09G26G06
 -12730406.715 7  21505737.175          44.000        1399.133
  -4277188.303 5  24310009.101          35.000        2689.594
   -403227.82515  24349730.246          31.000         163.430
  44101824.971 6  38744282.919          40.000        -706.573
  40924179.595 5  25417678.878          35.000       -4070.189
   4064809.22414  25631268.496          26.000       -2404.920
   -166941.41916  22987374.698          40.000        2779.417
  -2734355.089 7  22720574.725          45.000       -3217.851
  -9858078.899 8  21905375.483          48.000         228.711
  -9117593.627 7  20860697.851          43.000       -2188.990
    344153.99515  25280738.329          33.000       -1561.997
  -7964585.408 7  21686481.487          45.000       -2983.764
 16  6 23  1 42  0.0010000  0 12G07G05G16S20G03G04G30G23G02G09G26G06
 -12813409.065 7  21489941.849          43.000        1367.647
  -4438497.20714  24279289.563          25.000        2686.792
   -411893.59015  24348083.382          34.000         125.193
  44144189.225 6  38752345.495          40.000        -705.661
  41168563.05715  25464180.445          31.000       -4076.388
   4210045.89713  25658906.098          22.000       -2432.174
   -333238.692 6  22955724.192          37.000        2763.022
  -2540921.478 7  22757382.137          44.000       -3229.991
  -9870713.715 7  21902970.721          47.000         192.571
  -8985541.626 7  20885826.775          43.000       -2212.593
    438930.85015  25298774.089          33.000       -1597.126
  -7784611.244 7  21720730.506          47.000       -3015.611
 16  6 23  1 43  0.0010000  0 12G07G05G16S20G03G04G30G23G02G09G26G06
 -12894546.081 7  21474503.676          44.000        1336.736
  -4599448.70316  24248693.346          36.000        2679.917
   -418238.16815  24346869.039          30.000          87.652
  44186561.661 6  38760409.572          40.000        -705.253
  41413247.91015  25510747.049          31.000       -4081.963
   4357359.48713  25686933.783          18.000       -2471.216
   -498544.245 6  22924264.503          38.000        2746.257
  -2346759.824 7  22794332.153          44.000       -3242.438
  -9881136.004 7  21900987.905          47.000         155.297
  -8852150.281 7  20911209.757          42.000       -2234.269
    535870.00915  25317225.129          34.000       -1634.284
  -7602762.394 7  21755333.503          46.000       -3046.102
 16  6 23  1 44  0.0010000  0 12G07G05G29G16S20G03G30G23G02G09G26G06
 -12973832.339 7  21459416.759          45.000        1305.947
  -4760095.027 5  24218117.354          35.000        2674.903
     44526.12914  25007089.651          28.000        -251.374
   -422280.73815  24346108.750          33.000          47.386
  44228907.625 6  38768468.728          40.000        -705.752
  41658197.81314  25557361.763          27.000       -4083.428
   -662865.751 6  22892997.674          39.000        2731.636
  -2151908.318 7  22831410.236          43.000       -3253.734
  -9889365.801 8  21899422.865          48.000         119.199
  -8717458.034 7  20936839.782          43.000       -2255.356
    634936.67415  25336075.255          33.000       -1669.850
  -7419085.143 7  21790284.544          45.000       -3076.448
 16  6 23  1 45  0.0010000  0 11G07G05G16S20G04G30G23G02G09G26G06
 -13051241.323 7  21444685.983          45.000        1274.639
  -4920408.40014  24187602.140          28.000        2668.747
   -423995.58815  24345786.863          35.000           9.546
  44271246.639 6  38776524.325          40.000        -705.559
     77731.57911  25744128.495          11.000       -2532.414
   -826169.143 6  22861924.106          41.000        2713.034
  -1956362.227 6  22868615.689          41.000       -3265.081
  -9895381.359 8  21898278.235          48.000          81.426
  -8581461.489 7  20962719.834          42.000       -2277.567
    736137.30315  25355331.344          31.000       -1705.861
  -7233584.173 7  21825584.851          44.000       -3106.853
 16  6 23  1 46  0.0010000  0 12G07G05G29G16S20G04G30G23G02G09G26G06
 -13126700.378 7  21430326.373          45.000        1242.028
  -5080320.50315  24157190.634          33.000        2664.796
     78318.76614  25013689.463          26.000        -327.369
   -423313.237 5  24345911.528          33.000         -32.432
  44313628.309 6  38784589.449          40.000        -706.691
    230636.91012  25773304.124          17.000       -2572.677
   -988374.651 6  22831055.788          40.000        2694.534
  -1760070.888 6  22905970.026          41.000       -3277.989
  -9899116.329 7  21897566.895          47.000          43.567
  -8444111.759 7  20988857.433          42.000       -2300.394
    839523.68516  25375008.558          36.000       -1742.740
  -7046218.699 7  21861237.374          44.000       -3137.730
 16  6 23  1 47  0.0010000  0 13G07G05G29G16S20G03G04G30G23G02G09G26
                                G06
 -13200261.449 7  21416326.500          44.000        1210.373
  -5239882.036 5  24126812.335          33.000        2655.469
     99035.41614  25017629.129          25.000        -362.406
   -420287.38614  24346471.854          29.000         -71.924
  44355982.236 6  38792648.309          40.000        -705.376
  42394529.71114  25697515.386          24.000       -4102.279
    386030.26012  25802879.277          16.000       -2611.594
  -1149526.054 6  22800386.262          39.000        2677.386
  -1563108.704 7  22943455.467          42.000       -3288.320
  -9900627.330 7  21897278.861          46.000           6.601
  -8305483.209 6  21015238.009          40.000       -2320.438
    945023.884 5  25395082.521          35.000       -1776.625
  -6857071.608 7  21897232.513          45.000       -3166.979
 16  6 23  1 48  0.0000000  0 13G07G05G29G16S20G03G04G30G23G02G09G26
                                G06
 -13271942.770 7  21102894.571          45.000        1179.257
  -5399110.20816  23796718.310          36.000        2651.835
    121955.13114  24722221.547          24.000        -400.040
   -414940.03115  24047710.777          35.000        -108.730
  44398289.128 6  38500909.059          40.000        -705.068
  42640533.04814  25444542.772          27.000       -4102.185
    542984.36913  25533002.288          18.000       -2629.871
  -1309634.270 6  22470129.077          41.000        2659.978
  -1365515.693 6  22681258.005          41.000       -3298.424
  -9899938.500 7  21597617.422          47.000         -29.512
  -8165617.157 6  20742059.893          40.000       -2342.041
   1052598.757 5  25115759.834          35.000       -1810.288
  -6666193.084 7  21633765.130          45.000       -3195.826
 16  6 23  1 49  0.0000000  0 13G07G05G29G16S20G03G04G30G23G02G09G26
                                G06
 -13341682.093 7  21089621.394          44.000        1145.286
  -5557943.321 5  23766509.226          32.000        2645.000
    147135.99515  24727002.453          31.000        -439.114
   -407212.032 5  24049182.650          35.000        -149.108
  44440604.672 6  38508960.659          40.000        -705.867
  42886791.21513  25491395.787          23.000       -4107.704
    702201.19413  25563291.766          18.000       -2669.603
  -1468628.647 7  22439876.769          44.000        2640.057
  -1167249.673 7  22718991.047          43.000       -3310.782
  -9896993.199 7  21598177.365          46.000         -68.444
  -8024473.645 6  20768919.041          40.000       -2363.228
   1162290.123 5  25136633.698          35.000       -1844.986
  -6473551.713 7  21670423.552          45.000       -3226.409
 16  6 23  1 50  0.0000000  0 10G07G29G16S20G30G23G02G09G26G06
 -13409405.758 7  21076733.780          43.000        1112.561
    174645.25814  24732233.312          26.000        -477.845
   -397032.10014  24051114.093          27.000        -188.924
  44482985.203 6  38517025.836          40.000        -705.679
  -1626426.813 7  22409849.185          44.000        2620.811
   -968258.186 7  22756861.492          46.000       -3322.086
  -9891723.489 7  21599181.241          47.000        -106.454
  -7882000.734 6  20796030.816          38.000       -2385.506
   1274151.42315  25157915.669          31.000       -1882.264
  -6279104.780 7  21707424.087          44.000       -3254.873
 16  6 23  1 51  0.0000000  0 11G07G05G29G16S20G30G23G02G09G26G06
 -13475177.203 7  21064219.915          44.000        1079.610
  -5874611.19215  23706294.824          34.000        2629.316
    204380.67712  24737925.713          16.000        -510.299
   -384471.87415  24053515.592          35.000        -230.698
  44525359.976 6  38525088.831          40.000        -706.186
  -1783084.869 7  22380037.634          45.000        2601.350
   -768625.762 7  22794848.051          46.000       -3332.096
  -9884199.041 7  21600610.868          46.000        -144.172
  -7738284.656 6  20823376.634          38.000       -2406.095
   1388097.28615  25179604.283          31.000       -1917.122
  -6082947.961 7  21744751.324          43.000       -3283.518
 16  6 23  1 52  0.0000000  0 12G07G05G29G16S20G03G30G23G02G09G26G06
 -13539006.568 7  21052074.982          45.000        1046.511
  -6032167.21815  23676296.224          32.000        2620.818
    236228.74513  24743974.622          23.000        -541.490
   -369536.774 6  24056353.521          37.000        -269.485
  44567702.866 6  38533146.312          40.000        -706.318
  43627026.28112  25632284.185          17.000       -4116.086
  -1938603.427 7  22350442.728          45.000        2581.386
   -568382.664 7  22832954.650          47.000       -3343.377
  -9874435.242 7  21602470.363          47.000        -182.584
  -7593356.577 6  20850950.805          38.000       -2426.629
   1504097.27914  25201673.469          29.000       -1950.352
  -5885121.687 7  21782396.644          43.000       -3311.947
 16  6 23  1 53  0.0000000  0 12G07G05G29G16S20G03G30G23G02G09G26G06
 -13600802.532 7  21040314.896          43.000        1013.198
  -6189232.17715  23646416.879          33.000        2613.882
    270407.77411  24750496.536          11.000        -586.473
   -352141.45515  24059654.456          33.000        -310.066
  44610099.082 6  38541215.293          39.000        -706.929
  43874335.13412  25679328.646          14.000       -4118.183
  -2092882.881 7  22321085.110          46.000        2560.704
   -367456.924 7  22871188.409          47.000       -3354.469
  -9862347.150 7  21604771.418          47.000        -221.096
  -7447146.851 6  20878776.224          40.000       -2446.602
   1622222.34315  25224153.206          32.000       -1988.460
  -5685566.100 7  21820370.952          43.000       -3340.468
 16  6 23  1 54  0.0000000  0 12G07G05G29G16S20G04G30G23G02G09G26G06
 -13660613.098 7  21028930.235          42.000         980.095
  -6345851.55315  23616600.827          30.000        2605.977
    307094.03313  24757434.865          23.000        -619.946
   -332340.02615  24063429.828          35.000        -350.130
  44652485.432 6  38549281.987          40.000        -705.921
    383813.77413  25720282.388          23.000       -2825.689
  -2245961.799 7  22291953.524          45.000        2541.209
   -165916.114 7  22909539.974          46.000       -3364.256
  -9847988.393 7  21607502.569          47.000        -258.231
  -7299724.227 6  20906830.520          40.000       -2466.277
   1742403.22215  25247027.317          32.000       -2019.884
  -5484359.740 7  21858660.744          43.000       -3367.100
 16  6 23  1 55  0.0000000  0 12G07G05G29G16S20G03G30G23G02G09G26G06
 -13718451.677 7  21017929.879          46.000         946.600
  -6502035.53916  23586899.300          39.000        2598.954
    345927.27615  24764807.285          32.000        -663.560
   -310148.28515  24067647.668          32.000        -388.575
  44694842.037 6  38557342.295          39.000        -705.235
  44369373.84312  25773539.335          14.000       -4128.202
  -2397844.824 7  22263052.369          46.000        2520.407
     36206.702 7  22948001.196          45.000       -3374.382
  -9831379.053 7  21610662.472          46.000        -296.650
  -7151123.220 6  20935108.162          40.000       -2486.613
   1864605.10315  25270283.921          31.000       -2049.878
  -5281547.291 7  21897253.314          42.000       -3394.964
 16  6 23  1 56  0.0000000  0 10G07G05G16S20G04G30G23G02G09G06
 -13774255.476 7  21007305.366          43.000         913.575
  -6657717.529 6  23557268.621          40.000        2591.443
   -285508.87916  24072336.280          36.000        -430.657
  44737216.631 6  38565405.535          39.000        -705.794
    726595.77411  25785549.064          10.000       -2887.140
  -2548459.327 7  22234390.683          46.000        2500.438
    238955.777 7  22986585.809          46.000       -3384.215
  -9812462.222 7  21614263.115          47.000        -334.338
  -7001301.152 6  20963618.624          41.000       -2507.197
  -5077096.253 6  21936157.876          41.000       -3420.719
 16  6 23  1 57  0.0000000  0 10G07G05G29G16S20G30G23G02G09G06
 -13828069.096 7  20997068.632          44.000         880.251
  -6812939.527 6  23527729.660          40.000        2582.867
    424432.86511  24779784.423           7.000        -634.377
   -258469.746 6  24077487.026          36.000        -470.557
  44779560.496 6  38573464.604          39.000        -705.051
  -2697841.014 7  22205963.877          45.000        2479.680
    442267.648 7  23025271.755          46.000       -3392.982
  -9791289.524 7  21618291.428          47.000        -371.301
  -6850323.330 6  20992348.000          41.000       -2525.497
  -4871082.369 6  21975362.408          41.000       -3446.631
 16  6 23  1 58  0.0000000  0 10G07G05G16S20G30G23G02G09G26G06
 -13879891.262 7  20987205.630          44.000         846.463
  -6967695.345 6  23498280.760          41.000        2574.909
   -229033.431 5  24083084.043          34.000        -510.242
  44821860.373 6  38581512.854          39.000        -704.594
  -2845977.813 7  22177773.870          45.000        2457.936
    646126.532 8  23064070.604          48.000       -3402.949
  -9767864.659 7  21622750.221          47.000        -409.330
  -6698207.465 7  21021298.801          43.000       -2545.250
   2243040.37714  25342357.787          29.000       -2152.348
  -4663533.920 6  22014853.856          40.000       -3471.859
 16  6 23  2  1  0.0000000  0 11G07G05G29G16S20G30G23G02G09G26G06
 -14022932.641 7  20959985.297          44.000         742.738
  -7428652.657 7  23410564.204          43.000        2546.575
    160781.93514  24817884.809          28.000        -887.690
   -125916.62016  24102706.447          36.000        -635.088
  44948870.323 6  38605682.121          39.000        -706.216
  -3282348.443 7  22094736.625          46.000        2390.450
   1261279.745 7  23181128.566          46.000       -3432.321
  -9683672.104 7  21638769.363          45.000        -526.080
  -6234754.589 6  21109487.786          41.000       -2604.919
   2639892.96915  25417876.204          32.000       -2255.427
  -4031513.502 6  22135122.955          39.000       -3549.820
 16  6 23  2  2  0.0000000  0 11G07G05G29G16S20G30G23G02G09G26G06
 -14066411.698 7  20951709.810          43.000         707.357
  -7581124.288 7  23381546.237          42.000        2535.465
    215105.26811  24828203.594           8.000        -908.661
    -86564.374 5  24110196.918          34.000        -677.751
  44991269.947 6  38613749.671          39.000        -708.160
  -3425030.596 7  22067583.912          46.000        2365.800
   1467526.451 7  23220375.275          44.000       -3442.397
  -9650930.055 7  21645000.156          46.000        -565.366
  -6077904.523 7  21139337.029          43.000       -2623.990
   2776210.457 6  25443818.763          36.000       -2289.071
  -3817754.624 6  22175802.502          41.000       -3575.576
 16  6 23  2  3  0.0000000  0 11G07G05G29G16S20G30G23G02G09G26G06
 -14107842.691 7  20943827.826          45.000         673.949
  -7733050.109 7  23352637.072          43.000        2528.329
    271644.85813  24838979.488          23.000        -960.947
    -44783.524 5  24118143.782          33.000        -715.518
  45033642.504 6  38621813.730          38.000        -705.077
  -3566361.204 7  22040687.926          46.000        2344.813
   1674290.168 7  23259719.199          44.000       -3449.523
  -9615914.348 7  21651664.690          47.000        -602.455
  -5919955.699 6  21169392.028          41.000       -2640.956
   2914456.836 6  25470128.229          36.000       -2319.334
  -3602556.239 6  22216751.444          41.000       -3597.248
 16  6 23  2  4  0.0000000  0 11G07G05G29G16S20G30G23G02G09G26G06
 -14147122.805 7  20936353.235          45.000         636.027
  -7884319.247 7  23323853.723          44.000        2515.272
    330463.05014  24850179.404          25.000       -1000.211
      -475.818 6  24126578.903          36.000        -760.088
  45076078.674 6  38629888.766          38.000        -708.497
  -3706225.724 7  22014076.519          47.000        2317.975
   1881658.295 7  23299181.907          44.000       -3461.950
  -9578526.463 7  21658779.092          46.000        -643.685
  -5760822.390 6  21199672.483          41.000       -2662.617
   3054714.33114  25496813.207          28.000       -2354.866
  -3385844.165 7  22257994.406          43.000       -3624.526
 16  6 23  2  5  0.0000000  0 11G07G05G29G16S20G30G23G02G09G26G06
 -14184298.899 7  20929277.084          43.000         602.427
  -8034973.124 7  23295184.830          45.000        2505.930
    391484.43714  24861799.539          27.000       -1035.134
     46305.993 6  24135480.748          36.000        -799.914
  45118527.840 6  38637965.983          38.000        -707.242
  -3844660.781 7  21987732.920          47.000        2295.648
   2089568.098 7  23338747.309          44.000       -3470.015
  -9538822.113 7  21666334.129          47.000        -681.045
  -5600569.742 7  21230171.311          43.000       -2679.883
   3196914.60915  25523874.184          32.000       -2384.994
  -3167695.339 7  22299504.513          42.000       -3647.562
 16  6 23  2  6  0.0000000  0 11G07G05G29G16S20G30G23G02G09G26G06
 -14219429.314 7  20922595.396          45.000         568.268
  -8185062.340 7  23266621.964          45.000        2496.302
    454605.88913  24873814.241          18.000       -1075.664
     95498.009 5  24144838.287          34.000        -841.135
  45160915.631 6  38646031.718          38.000        -707.002
  -3981712.921 7  21961650.306          46.000        2272.904
   2297946.252 6  23378394.745          40.000       -3476.618
  -9496866.043 8  21674319.453          48.000        -717.880
  -5439272.895 7  21260863.051          43.000       -2696.813
   3340978.36815  25551289.279          31.000       -2418.513
  -2948196.793 7  22341274.959          42.000       -3669.376
 16  6 23  2  7  0.0000000  0 11G07G05G29G16S20G30G23G02G09G26G06
 -14252488.754 7  20916301.521          44.000         533.417
  -8334555.208 7  23238175.160          46.000        2485.806
    519941.82315  24886240.994          31.000       -1105.743
    147119.477 5  24154662.324          35.000        -881.771
  45203254.354 6  38654087.925          38.000        -704.925
  -4117346.255 7  21935841.277          46.000        2248.261
   2506802.659 6  23418140.286          41.000       -3485.136
  -9452640.473 7  21682734.611          47.000        -756.520
  -5276924.212 7  21291758.905          44.000       -2715.209
   3486909.68915  25579060.480          31.000       -2447.062
  -2727352.915 7  22383302.308          44.000       -3691.705
 16  6 23  2  8  0.0000000  0 11G07G05G29G16S20G30G23G02G09G26G06
 -14283403.127 7  20910418.843          44.000         497.754
  -8483369.425 7  23209856.249          46.000        2475.127
    587465.96914  24899078.596          24.000       -1143.439
    201239.25615  24164958.894          33.000        -922.418
  45245622.882 6  38662150.851          38.000        -705.767
  -4251474.910 7  21910318.833          46.000        2223.180
   2716196.988 6  23457986.601          41.000       -3493.781
  -9406078.122 8  21691597.716          48.000        -795.340
  -5113465.955 7  21322862.871          43.000       -2733.731
   3634762.00315  25607192.744          30.000       -2480.604
  -2505118.283 7  22425590.625          44.000       -3715.023
 16  6 23  2  9  0.0000000  0 11G07G05G29G16S20G30G23G02G09G26G06
 -14312245.285 7  20904932.146          45.000         463.653
  -8631569.526 7  23181654.481          46.000        2465.392
    657115.18814  24912346.939          26.000       -1178.768
    257777.760 6  24175726.359          38.000        -962.703
  45287946.848 6  38670204.161          38.000        -705.152
  -4384160.182 7  21885069.310          47.000        2199.489
   2926042.573 6  23497918.859          41.000       -3500.606
  -9357258.684 7  21700886.816          47.000        -832.198
  -4948987.266 6  21354158.371          41.000       -2749.903
   3784424.81614  25635680.033          28.000       -2510.629
  -2281594.446 7  22468127.502          44.000       -3736.044
 16  6 23  2 10  0.0000000  0 10G07G05G29G16S20G30G23G02G09G06
 -14339006.178 7  20899838.235          43.000         428.001
  -8779138.172 7  23153573.992          47.000        2453.457
    728886.47814  24925997.232          26.000       -1214.624
    316738.928 5  24186944.860          35.000       -1004.819
  45330222.138 6  38678250.108          38.000        -703.655
  -4515381.436 7  21860098.223          46.000        2174.125
   3136334.194 7  23537936.292          42.000       -3509.624
  -9306180.997 7  21710605.994          46.000        -871.036
  -4783495.214 7  21385655.526          45.000       -2767.541
  -2056800.984 7  22510903.779          44.000       -3757.540
 16  6 23  2 11  0.0000000  0 10G07G05G29G16S20G30G23G02G09G06
 -14363590.724 7  20895159.815          44.000         391.628
  -8925970.947 7  23125631.691          47.000        2440.760
    802851.38312  24940062.369          15.000       -1261.739
    378211.079 6  24198637.902          36.000       -1046.017
  45372544.527 6  38686303.244          38.000        -706.775
  -4645031.343 7  21835425.901          46.000        2147.468
   3347153.720 7  23578054.692          44.000       -3518.032
  -9252757.471 7  21720772.613          47.000        -910.091
  -4616910.363 7  21417355.050          46.000       -2785.565
  -1830670.876 7  22553935.964          44.000       -3779.783
 16  6 23  2 12  0.0000000  0 10G07G05G29G16S20G30G23G02G09G06
 -14386056.812 7  20890884.738          43.000         357.505
  -9072116.589 8  23097821.314          48.000        2430.447
    878943.86413  24954542.647          22.000       -1288.043
    442129.996 6  24210804.002          37.000       -1085.515
  45414839.584 6  38694351.703          37.000        -705.417
  -4773155.734 7  21811045.608          46.000        2122.978
   3558430.320 7  23618259.819          44.000       -3524.763
  -9197052.987 7  21731372.940          46.000        -947.361
  -4449305.663 7  21449247.888          45.000       -2801.464
  -1603289.990 7  22597204.302          44.000       -3799.508
 16  6 23  2 13  0.0000000  0 10G07G05G29G16S20G30G23G02G09G06
 -14406422.651 7  20887008.364          42.000         320.901
  -9217583.575 8  23070140.976          48.000        2417.885
    957122.54913  24969433.581          23.000       -1323.437
    508470.473 6  24223427.664          37.000       -1127.091
  45457080.595 6  38702390.198          37.000        -703.691
  -4899760.834 7  21786952.564          45.000        2096.483
   3770132.941 7  23658546.648          44.000       -3533.162
  -9139093.686 7  21742402.804          47.000        -985.632
  -4280714.557 7  21481331.789          45.000       -2818.853
  -1374704.606 6  22640700.226          41.000       -3820.205
 16  6 23  2 14  0.0000000  0 10G07G05G29G16S20G30G23G02G09G06
 -14424603.426 7  20883548.003          42.000         284.991
  -9362277.052 8  23042606.312          49.000        2405.541
   1037484.27214  24984732.274          26.000       -1356.748
    577311.217 6  24236525.344          38.000       -1166.660
  45499358.018 6  38710434.120          38.000        -705.113
  -5024749.386 7  21763167.219          45.000        2069.741
   3982333.941 7  23698924.707          43.000       -3540.246
  -9078802.181 7  21753876.619          47.000       -1024.125
  -4111066.762 7  21513612.301          44.000       -2835.385
  -1144857.642 7  22684440.035          43.000       -3841.029
 16  6 23  2 15  0.0000000  0 10G07G05G29G16S20G30G23G02G09G06
 -14440662.863 7  20880494.111          43.000         250.946
  -9506248.928 8  23015209.575          49.000        2393.920
   1119941.64513  25000407.456          20.000       -1382.848
    648581.944 6  24250089.660          38.000       -1206.982
  45541606.190 6  38718473.488          38.000        -703.832
  -5148172.110 7  21739681.303          45.000        2044.503
   4194958.300 7  23739388.045          44.000       -3546.649
  -9016249.572 7  21765778.871          46.000       -1060.633
  -3940439.880 7  21546083.020          45.000       -2851.184
   -913839.671 7  22728400.362          42.000       -3859.467
 16  6 23  2 16  0.0000000  0 11G07G05G29G16S20G30G23G02G09G26G06
 -14454618.003 7  20877836.896          42.000         214.627
  -9649506.957 7  22987944.395          47.000        2381.487
   1204451.44514  25016514.373          29.000       -1426.599
    722258.280 6  24264112.707          39.000       -1247.785
  45583800.591 6  38726504.898          38.000        -703.261
  -5270034.115 7  21716491.743          45.000        2017.420
   4407976.512 7  23779922.946          42.000       -3553.617
  -8951460.529 7  21778106.822          46.000       -1098.592
  -3768865.246 7  21578731.767          45.000       -2868.034
   4878598.97613  25844755.925          20.000       -2715.059
   -681695.428 7  22772578.031          43.000       -3878.793
 16  6 23  2 17  0.0000000  0 11G07G05G29G16S20G30G23G02G09G26G06
 -14466398.203 7  20875596.358          44.000         179.047
  -9791968.751 8  22960838.798          48.000        2368.214
   1291080.87713  25032984.535          22.000       -1463.146
    798403.749 6  24278598.639          37.000       -1289.177
  45626011.930 6  38734536.082          38.000        -702.986
  -5390251.663 7  21693615.468          45.000        1990.569
   4621448.611 7  23820545.692          42.000       -3561.116
  -8884373.001 7  21790873.227          46.000       -1136.391
  -3596285.937 7  21611573.426          46.000       -2884.213
   5042576.29513  25875963.231          21.000       -2755.907
   -448381.177 7  22816975.904          43.000       -3898.354
 16  6 23  2 18  0.0000000  0 11G07G05G29G16S20G30G23G02G09G26G06
 -14476066.954 7  20873755.203          43.000         143.894
  -9933685.986 7  22933868.334          47.000        2356.287
   1379747.95714  25049870.726          27.000       -1495.376
    876947.70916  24293542.988          36.000       -1327.644
  45668162.818 6  38742559.639          38.000        -701.820
  -5508875.618 7  21671042.005          45.000        1964.015
   4835299.668 7  23861240.734          43.000       -3567.041
  -8815058.246 7  21804064.160          46.000       -1173.275
  -3422778.752 7  21644590.913          45.000       -2899.068
   5208328.48013  25907505.041          20.000       -2776.063
   -213987.246 6  22861578.225          41.000       -3914.831
 16  6 23  2 19  0.0010000  0 11G07G05G29G16S20G30G23G02G09G26G06
 -14483615.336 7  20872317.620          42.000         107.662
 -10074638.947 8  22907048.153          48.000        2342.250
   1470241.44114  25067123.722          28.000       -1529.471
    957893.953 6  24308949.803          39.000       -1370.301
  45710254.667 6  38750566.393          38.000        -702.548
  -5625885.223 7  21648775.092          44.000        1936.175
   5049532.453 7  23902005.228          42.000       -3573.961
  -8743513.595 7  21817679.606          47.000       -1211.549
  -3248343.833 7  21677784.473          44.000       -2915.668
   5375754.52912  25939355.301          13.000       -2798.808
     21473.444 6  22906386.144          41.000       -3933.836
 16  6 23  2 20  0.0010000  0 10G07G05G16S20G30G23G02G09G26G06
 -14488977.105 7  20871299.050          43.000          71.014
 -10214745.533 8  22880386.750          48.000        2328.267
   1041297.973 6  24324823.097          40.000       -1409.745
  45752361.309 6  38758581.453          38.000        -701.335
  -5741197.398 7  21626831.391          44.000        1907.960
   5264195.828 7  23942855.368          43.000       -3581.115
  -8669683.008 7  21831729.718          47.000       -1249.318
  -3072933.604 7  21711162.866          43.000       -2931.902
   5545005.26912  25971528.267          15.000       -2832.422
    258032.907 6  22951400.342          41.000       -3951.406
 16  6 23  2 21  0.0010000  0 11G07G05G29G16S20G30G23G02G09G26G06
 -14492210.642 7  20870685.379          43.000          36.527
 -10354053.108 7  22853873.919          47.000        2315.100
   1657461.53114  25102826.327          26.000       -1596.022
   1127095.105 6  24341146.414          38.000       -1449.659
  45794425.739 6  38766585.536          38.000        -700.649
  -5854859.561 7  21605200.886          43.000        1880.874
   5479224.821 7  23983773.441          43.000       -3587.248
  -8593632.237 7  21846199.875          46.000       -1285.874
  -2896616.065 7  21744717.139          46.000       -2946.195
   5715807.32812  26004030.834          17.000       -2865.497
    495610.345 6  22996608.603          40.000       -3968.396
 16  6 23  2 22  0.0010000  0  9G07G05G16S20G30G23G02G09G06
 -14493331.607 7  20870471.718          43.000           0.361
 -10492563.321 8  22827520.408          49.000        2300.909
   1215262.808 6  24357924.868          39.000       -1489.794
  45836422.667 6  38774578.940          38.000        -700.527
  -5966873.415 7  21583889.267          45.000        1852.233
   5694594.789 7  24024759.710          44.000       -3593.521
  -8515384.875 7  21861089.012          45.000       -1323.559
  -2719418.058 7  21778437.905          46.000       -2961.388
    734164.959 6  23042005.484          40.000       -3984.666
 16  6 23  2 23  0.0010000  0 10G07G05G29G16S20G30G23G02G09G06
 -14492261.687 7  20870673.478          43.000         -35.789
 -10630184.218 8  22801330.581          49.000        2286.628
   1851447.28013  25140082.245          22.000       -1667.467
   1305871.709 5  24375160.972          34.000       -1529.022
  45878429.898 6  38782571.680          38.000        -700.296
  -6077147.058 7  21562903.652          44.000        1823.508
   5910375.653 7  24065822.219          44.000       -3598.830
  -8434870.269 7  21876410.320          45.000       -1360.348
  -2541272.699 7  21812334.814          45.000       -2975.988
    973749.815 6  23087598.366          41.000       -4001.078
 16  6 23  2 24  0.0010000  0  9G07G05G16S20G30G23G02G09G06
 -14489037.124 7  20871289.418          43.000         -71.805
 -10766938.767 8  22775309.270          50.000        2271.583
   1398877.219 6  24392868.057          38.000       -1570.847
  45920405.602 6  38790559.919          38.000        -700.029
  -6185703.372 7  21542246.329          44.000        1794.457
   6126522.222 7  24106950.672          42.000       -3606.237
  -8352133.521 7  21892154.919          45.000       -1397.822
  -2362227.419 7  21846408.388          46.000       -2991.711
   1214303.153 6  23133372.434          40.000       -4017.956
 16  6 23  2 25  0.0010000  0  9G07G05G16S20G30G23G02G09G06
 -14483638.721 7  20872314.653          42.000        -106.596
 -10902792.985 8  22749454.207          49.000        2257.176
   1494290.394 6  24411025.759          39.000       -1610.141
  45962361.491 6  38798542.294          38.000        -699.349
  -6292509.631 7  21521921.414          45.000        1766.006
   6343044.496 7  24148152.416          42.000       -3611.551
  -8267163.866 7  21908323.907          46.000       -1434.010
  -2182274.011 7  21880651.299          45.000       -3006.239
   1455819.120 6  23179331.177          40.000       -4033.149
 16  6 23  2 26  0.0010000  0  9G07G05G16S20G30G23G02G09G06
 -14476154.011 7  20873739.167          43.000        -142.284
 -11037819.557 8  22723759.721          49.000        2243.304
   1592016.762 6  24429621.688          39.000       -1647.891
  46004215.799 6  38806507.673          38.000        -696.126
  -6397638.991 7  21501917.689          44.000        1738.381
   6559848.342 7  24189412.443          42.000       -3615.459
  -8180056.747 7  21924901.055          46.000       -1469.849
  -2001509.756 7  21915048.505          45.000       -3019.517
   1698186.193 6  23225454.319          40.000       -4045.965
 16  6 23  2 27  0.0010000  0  9G07G05G16S20G30G23G02G09G06
 -14466565.972 7  20875564.425          43.000        -177.987
 -11171985.776 8  22698228.168          48.000        2228.402
   1692064.864 6  24448658.410          40.000       -1687.532
  46045979.119 6  38814456.823          38.000        -696.265
  -6501060.355 6  21482230.528          41.000        1708.783
   6776942.811 6  24230720.599          40.000       -3621.721
  -8090803.360 7  21941884.776          45.000       -1506.154
  -1819927.620 7  21949606.376          47.000       -3033.720
   1941397.091 6  23271736.920          40.000       -4060.944
 16  6 23  2 28  0.0010000  0  9G07G05G16S20G30G23G02G09G06
 -14454780.553 7  20877806.167          42.000        -214.152
 -11305182.089 7  22672882.512          47.000        2212.139
   1794519.958 6  24468153.479          40.000       -1727.696
  46087749.723 6  38822403.390          39.000        -696.152
  -6602665.587 7  21462900.171          44.000        1678.423
   6994415.446 7  24272110.439          44.000       -3627.373
  -7999318.142 7  21959294.824          46.000       -1542.823
  -1637443.166 7  21984329.412          46.000       -3048.735
   2185521.796 6  23318190.028          41.000       -4076.144
 16  6 23  2 29  0.0000000  0  9G07G05G16S20G30G23G02G09G06
 -14440842.399 7  20580665.482          42.000        -250.138
 -11437437.245 7  22347921.346          46.000        2196.009
   1899329.738 6  24188305.576          39.000       -1766.770
  46129477.811 6  38530552.232          39.000        -695.015
  -6702485.453 7  21144112.840          45.000        1648.914
   7212214.423 6  24013762.303          41.000       -3632.380
  -7905654.852 7  21677327.539          47.000       -1579.223
  -1454110.432 7  21719425.421          46.000       -3062.730
   2430491.845 6  23065013.805          40.000       -4089.907
 16  6 23  2 30  0.0000000  0  9G07G05G16S20G30G23G02G09G06
 -14424712.120 7  20583736.266          42.000        -287.458
 -11568695.633 7  22322944.919          47.000        2179.151
   2006524.623 6  24208704.392          39.000       -1805.002
  46171207.652 6  38538492.082          39.000        -695.097
  -6800466.170 7  21125467.178          44.000        1617.577
   7430372.314 5  24055257.472          34.000       -3638.188
  -7809782.366 7  21695569.613          47.000       -1615.672
  -1269898.738 7  21754476.732          43.000       -3077.025
   2676323.253 6  23111792.848          39.000       -4104.312
 16  6 23  2 31  0.0000000  0  9G07G05G16S20G30G23G02G09G06
 -14406428.231 7  20587215.752          43.000        -322.693
 -11698978.965 8  22298152.784          48.000        2162.992
   2116058.801 6  24229548.380          38.000       -1844.491
  46212897.510 6  38546426.643          39.000        -694.881
  -6896631.838 7  21107168.286          45.000        1587.204
   7648845.324 7  24096856.767          43.000       -3643.990
  -7711747.750 7  21714225.134          46.000       -1651.995
  -1084855.054 7  21789689.927          43.000       -3091.089
   2922954.525 6  23158724.686          39.000       -4117.499
 16  6 23  2 32  0.0000000  0 10G07G05G29G16S20G30G23G02G09G06
 -14385957.218 7  20591110.222          43.000        -359.494
 -11828236.472 8  22273556.929          49.000        2145.681
   2819066.07313  25026280.859          20.000       -1954.192
   2227956.535 6  24250840.560          37.000       -1884.279
  46254585.592 6  38554357.889          39.000        -694.595
  -6990934.232 7  21089224.018          45.000        1556.473
   7867661.275 6  24138496.756          41.000       -3649.685
  -7611525.744 7  21733296.076          46.000       -1688.210
   -898953.726 7  21825067.748          44.000       -3105.303
   3170396.544 6  23205809.596          38.000       -4130.521
 16  6 23  2 33  0.0000000  0 10G07G05G29G16S20G30G23G02G09G06
 -14363333.334 6  20595413.673          41.000        -394.797
 -11956484.653 8  22249150.880          49.000        2129.237
   2937248.21411  25048755.518          11.000       -1986.646
   2342174.922 5  24272577.040          35.000       -1924.543
  46296232.746 6  38562283.255          39.000        -693.218
  -7083393.527 7  21071627.829          45.000        1525.841
   8086781.09914  24180163.775          26.000       -3654.803
  -7509159.716 7  21752776.155          46.000       -1723.355
   -712237.213 7  21860598.207          44.000       -3118.438
   3418592.260 6  23253044.107          39.000       -4142.211
 16  6 23  2 34  0.0000000  0 10G07G05G29G16S20G30G23G02G09G06
 -14338572.068 7  20600127.535          42.000        -431.328
 -12083721.749 8  22224940.151          50.000        2111.044
   3057406.42012  25071560.823          15.000       -2014.093
   2458689.901 5  24294751.031          33.000       -1962.347
  46337832.892 6  38570200.192          39.000        -693.777
  -7174010.476 7  21054385.042          47.000        1493.904
   8306182.66517  24221943.436          43.000       -3659.782
  -7404673.761 7  21772658.602          46.000       -1760.198
   -524728.328 7  21896279.993          44.000       -3132.660
   3667504.009 6  23300410.839          39.000       -4155.392
 16  6 23  2 35  0.0000000  0 11G07G05G29G16S20G13G30G23G02G09G06
 -14311578.409 7  20605262.680          42.000        -468.450
 -12209833.996 8  22200941.460          49.000        2092.841
   3179298.37013  25094741.396          21.000       -2053.030
   2577588.25415  24317373.843          34.000       -2001.844
  46379481.228 6  38578125.383          39.000        -694.526
   -157614.25516  24458009.109          37.000        2629.252
  -7262675.002 7  21037511.850          46.000        1461.831
   8525958.317 6  24263765.727          41.000       -3665.573
  -7297981.287 7  21792964.583          47.000       -1796.347
   -336338.598 6  21932126.754          41.000       -3146.838
   3917205.275 6  23347926.612          39.000       -4166.855
 16  6 23  2 36  0.0000000  0 11G07G05G29G16S20G13G30G23G02G09G06
 -14282433.227 7  20610808.953          42.000        -503.104
 -12334883.941 8  22177145.244          48.000        2075.559
   3303021.68114  25118319.694          24.000       -2077.431
   2698779.763 6  24340439.785          39.000       -2038.284
  46421098.147 6  38586045.461          39.000        -692.548
   -315204.803 6  24428021.869          38.000        2624.321
  -7349453.578 7  21020997.994          46.000        1431.009
   8746021.935 5  24305638.781          31.000       -3668.669
  -7189172.078 7  21813668.969          46.000       -1830.875
   -147155.905 7  21968129.851          43.000       -3159.324
   4167593.298 6  23395571.500          38.000       -4178.383
 16  6 23  2 37  0.0000000  0 11G07G05G29G16S20G13G30G23G02G09G06
 -14251157.109 7  20616760.070          42.000        -539.624
 -12458873.569 7  22153548.989          47.000        2057.334
   3428470.56914  25142174.334          26.000       -2106.947
   2822234.661 6  24363929.209          39.000       -2076.081
  46462659.838 6  38593953.969          39.000        -692.437
   -472460.181 6  24398094.798          36.000        2617.914
  -7434352.020 7  21004843.821          46.000        1398.927
   8966349.11415  24347559.910          35.000       -3674.921
  -7078276.088 7  21834769.738          45.000       -1865.933
     42792.858 6  22004273.562          41.000       -3172.479
   4418626.252 6  23443340.948          37.000       -4190.503
 16  6 23  2 38  0.0000000  0 10G07G05G16S20G13G30G23G02G09G06
 -14217674.764 7  20623132.960          43.000        -576.306
 -12581708.275 7  22130175.278          47.000        2037.979
   2948019.847 6  24387866.004          39.000       -2115.341
  46504250.861 6  38601868.917          39.000        -692.983
   -629296.679 6  24368250.511          38.000        2610.286
  -7517280.110 7  20989063.450          46.000        1366.016
   9187012.508 6  24389557.017          38.000       -3679.399
  -6965226.430 7  21856281.633          44.000       -1901.663
    233577.012 7  22040580.171          42.000       -3186.093
   4670358.597 6  23491243.558          37.000       -4200.650
 16  6 23  2 39  0.0000000  0 10G07G05G16S20G13G30G23G02G09G06
 -14182069.566 7  20629907.570          42.000        -610.796
 -12703451.514 8  22107008.822          48.000        2020.188
   3076042.740 7  24412231.254          42.000       -2151.589
  46545784.622 6  38609771.073          39.000        -690.862
   -785788.583 6  24338471.767          39.000        2605.969
  -7598306.269 7  20973642.500          45.000        1334.858
   9407925.274 5  24431586.303          33.000       -3681.939
  -6850115.474 7  21878185.688          45.000       -1935.279
    425107.710 7  22077027.150          43.000       -3198.069
   4922686.303 6  23539264.777          39.000       -4210.582
 16  6 23  2 40  0.0000000  0 10G07G05G16S20G13G30G23G02G09G06
 -14144346.551 7  20637088.632          43.000        -646.832
 -12824088.900 8  22084052.956          49.000        2000.615
   3206289.805 6  24437013.897          41.000       -2189.409
  46587269.423 6  38617666.703          39.000        -692.156
   -941931.250 6  24308759.229          40.000        2598.799
  -7677420.401 7  20958588.896          47.000        1302.009
   9629079.36615  24473671.272          34.000       -3688.186
  -6732956.871 7  21900481.744          45.000       -1970.204
    617374.793 6  22113613.102          40.000       -3211.100
   5175584.152 6  23587388.202          38.000       -4219.478
 16  6 23  2 41  0.0000000  0 11G07G05G29G16S20G13G30G23G02G09G06
 -14104449.465 7  20644679.476          43.000        -682.749
 -12943543.109 7  22061319.528          47.000        1981.221
   3945668.58814  25241130.365          26.000       -2223.446
   3338807.764 6  24462229.915          41.000       -2227.281
  46628770.226 6  38625563.171          39.000        -691.750
  -1097658.615 6  24279123.628          40.000        2591.911
  -7754551.286 7  20943910.017          46.000        1269.012
   9850528.84415  24515815.712          34.000       -3693.178
  -6613703.605 7  21923173.396          44.000       -2004.483
    810429.668 7  22150351.551          42.000       -3223.901
   5429088.447 6  23635628.841          39.000       -4229.584
 16  6 23  2 42  0.0000000  0 11G07G05G29G16S20G13G30G23G02G09G06
 -14062426.651 7  20652676.178          43.000        -718.931
 -13061843.117 7  22038808.503          47.000        1961.212
   4079303.46014  25266694.917          26.000       -2252.812
   3473538.447 6  24487867.897          39.000       -2264.894
  46670229.855 6  38633453.025          39.000        -690.988
  -1253009.375 7  24249563.902          42.000        2585.510
  -7829733.052 7  20929605.393          47.000        1235.972
  10072222.682 6  24558010.269          36.000       -3697.421
  -6492413.415 7  21946251.379          43.000       -2038.720
   1004218.637 7  22187225.100          42.000       -3236.663
   5683130.277 6  23683971.737          39.000       -4238.509
 16  6 23  2 43  0.0000000  0 10G07G05G16S20G13G30G23G02G09G06
 -14018232.629 7  20661085.403          42.000        -753.888
 -13178921.712 7  22016527.157          45.000        1941.791
   3610519.251 6  24513933.601          36.000       -2300.997
  46711696.018 6  38641343.264          39.000        -691.127
  -1407927.380 7  24220082.457          43.000        2578.930
  -7902904.181 7  20915681.585          46.000        1203.024
  10294205.595 6  24600251.749          38.000       -3701.219
  -6369049.221 7  21969730.839          45.000       -2072.825
   1198783.847 7  22224253.502          42.000       -3248.542
   5937736.757 6  23732420.557          38.000       -4248.116
 16  6 23  2 44  0.0000000  0 10G07G05G16S20G13G30G23G02G09G06
 -13971917.676 7  20669899.299          43.000        -789.766
 -13294808.558 7  21994477.725          47.000        1921.097
   3749689.979 5  24540417.430          34.000       -2338.734
  46753125.873 6  38649226.277          39.000        -689.844
  -1562452.400 7  24190677.217          43.000        2572.123
  -7974100.218 7  20902130.426          44.000        1169.782
  10516425.555 5  24642543.713          35.000       -3705.849
  -6243670.532 7  21993591.254          46.000       -2106.101
   1394071.194 7  22261413.881          43.000       -3260.874
   6192838.319 6  23780964.707          39.000       -4255.053
 16  6 23  2 45  0.0000000  0 11G07G05G29G16S20G13G30G23G02G09G06
 -13923494.403 6  20679112.264          41.000        -825.505
 -13409494.343 7  21972652.947          47.000        1900.615
   4491196.24914  25345339.453          25.000       -2336.318
   3891028.489 6  24567312.997          36.000       -2374.980
  46794508.279 6  38657100.601          39.000        -690.211
  -1716586.900 7  24161347.293          45.000        2564.734
  -8043318.939 7  20888960.101          44.000        1136.552
  10738858.38115  24684890.034          31.000       -3709.653
  -6116299.070 7  22017828.717          45.000       -2139.958
   1590063.940 7  22298714.489          46.000       -3273.296
   6448403.152 6  23829595.567          38.000       -4263.756
 16  6 23  2 46  0.0000000  0 10G07G05G16S20G13G30G23G02G09G06
 -13872905.241 6  20688737.699          41.000        -860.208
 -13522899.747 7  21951071.618          47.000        1879.667
   4034583.820 6  24594633.826          39.000       -2410.442
  46835915.284 6  38664981.398          38.000        -690.187
  -1870260.975 7  24132101.722          45.000        2558.004
  -8110487.413 7  20876177.939          45.000        1102.403
  10961580.495 6  24727258.866          40.000       -3714.089
  -5986886.300 7  22042454.499          45.000       -2173.581
   1786816.932 7  22336152.867          44.000       -3285.706
   6704470.776 6  23878323.660          37.000       -4271.987
 16  6 23  2 47  0.0000000  0 10G07G05G16S20G13G30G23G02G09G06
 -13820222.121 7  20698767.787          44.000        -895.220
 -13635074.815 7  21929725.202          47.000        1859.531
   4180273.852 6  24622356.010          40.000       -2445.727
  46877283.312 6  38672854.343          39.000        -689.426
  -2023536.032 7  24102935.673          45.000        2551.690
  -8175662.360 7  20863776.785          46.000        1069.812
  11184511.662 6  24769681.567          39.000       -3716.672
  -5855513.549 7  22067453.419          45.000       -2205.444
   1984255.391 7  22373724.215          43.000       -3295.878
   6960951.193 6  23927133.297          38.000       -4277.703
 16  6 23  2 48  0.0000000  0 10G07G05G16S20G13G30G23G02G09G06
 -13765483.824 7  20709183.613          43.000        -929.355
 -13746036.129 7  21908608.746          46.000        1839.063
   4328050.912 6  24650476.983          41.000       -2480.764
  46918570.156 6  38680709.367          38.000        -686.860
  -2176438.943 7  24073838.883          46.000        2545.087
  -8238867.764 7  20851750.112          47.000        1036.531
  11407610.704 5  24812144.002          35.000       -3720.573
  -5722228.996 7  22092815.950          44.000       -2237.377
   2182337.717 7  22411420.297          43.000       -3306.699
   7217787.560 6  23976011.060          40.000       -4284.653
 16  6 23  2 49  0.0000000  0 10G07G05G16S20G13G30G23G02G09G06
 -13708609.964 7  20720007.966          44.000        -965.579
 -13855680.691 7  21887744.899          46.000        1816.004
   4477985.606 7  24679010.794          42.000       -2516.932
  46959856.729 6  38688564.966          38.000        -688.562
  -2328877.015 7  24044829.659          45.000        2536.619
  -8300007.910 7  20840113.138          46.000        1001.317
  11630960.53915  24854639.174          33.000       -3725.036
  -5586960.598 7  22118557.115          45.000       -2271.276
   2381142.432 6  22449248.635          39.000       -3319.350
   7475043.161 6  24024962.795          39.000       -4291.079
 16  6 23  2 50  0.0000000  0 10G07G05G16S20G13G30G23G02G09G06
 -13649640.366 7  20731227.670          43.000        -999.611
 -13964024.981 7  21867130.364          47.000        1794.992
   4630029.017 7  24707943.133          42.000       -2551.415
  47001114.538 6  38696416.552          38.000        -686.010
  -2480877.879 7  24015907.790          46.000        2529.824
  -8359107.527 7  20828867.484          46.000         968.653
  11854518.683 6  24897173.102          37.000       -3727.368
  -5449757.925 7  22144667.492          45.000       -2301.960
   2580627.979 6  22487211.427          39.000       -3330.089
   7732660.701 6  24073985.343          39.000       -4296.591
 16  6 23  2 51  0.0000000  0 10G07G05G16S20G13G30G23G02G09G06
 -13588596.092 7  20742845.851          44.000       -1035.527
 -14071067.033 7  21846758.107          47.000        1772.568
   4784150.596 6  24737270.265          41.000       -2586.598
  47042324.763 6  38704257.563          38.000        -686.952
  -2632450.032 7  23987063.138          45.000        2521.991
  -8416172.456 7  20818010.849          47.000         933.481
  12078268.05514  24939760.899          27.000       -3731.245
  -5310650.758 7  22171139.350          45.000       -2335.009
   2780771.671 6  22525290.332          38.000       -3341.341
   7990602.599 6  24123069.315          39.000       -4302.287
 16  6 23  2 52  0.0000000  0 10G07G05G16S20G13G30G23G02G09G06
 -13525438.286 7  20754864.845          44.000       -1069.977
 -14176745.091 7  21826649.611          47.000        1750.152
   4940378.582 7  24766999.643          42.000       -2621.249
  47083542.583 6  38712101.576          38.000        -686.323
  -2783542.797 7  23958311.357          45.000        2514.593
  -8471149.277 7  20807546.634          46.000         899.385
  12302246.29215  24982394.800          35.000       -3736.205
  -5169610.116 7  22197977.313          46.000       -2365.978
   2981610.598 6  22563510.672          36.000       -3352.332
   8248890.654 6  24172219.075          38.000       -4306.771
 16  6 23  2 53  0.0000000  0 10G07G05G16S20G13G30G23G02G09G06
 -13460187.489 7  20767282.019          45.000       -1105.325
 -14281056.084 7  21806798.871          47.000        1727.101
   5098683.509 7  24797126.397          43.000       -2655.650
  47124757.137 6  38719945.867          38.000        -685.924
  -2934162.842 7  23929646.181          43.000        2506.651
  -8524043.302 7  20797481.261          46.000         863.633
  12526435.490 6  25025043.377          38.000       -3738.294
  -5026665.754 7  22225178.800          46.000       -2398.352
   3183123.888 5  22601858.502          35.000       -3364.658
   8507488.164 6  24221427.450          38.000       -4313.104
 16  6 23  2 54  0.0000000  0 10G07G05G16S20G13G30G23G02G09G06
 -13392832.810 7  20780097.302          44.000       -1140.406
 -14383963.587 8  21787217.284          48.000        1703.069
   5259067.686 7  24827646.950          42.000       -2690.660
  47165982.621 6  38727791.695          38.000        -687.848
  -3084285.394 7  23901077.365          42.000        2497.829
  -8574827.809 7  20787817.819          47.000         828.335
  12750848.347 6  25067747.829          37.000       -3742.226
  -4881815.311 7  22252742.745          46.000       -2429.952
   3385322.352 6  22640335.465          38.000       -3374.446
   8766391.091 6  24270695.348          38.000       -4317.277
 16  6 23  2 55  0.0000000  0 10G07G05G16S20G13G30G23G02G09G06
 -13323407.417 7  20793309.856          44.000       -1173.448
 -14485477.576 8  21767900.032          48.000        1680.476
   5421487.555 7  24858553.013          42.000       -2722.669
  47207198.831 6  38735633.229          38.000        -685.067
  -3233930.241 7  23872603.077          44.000        2490.588
  -8623521.633 7  20778550.986          47.000         794.509
  12975454.40715  25110493.987          31.000       -3743.778
  -4735101.511 7  22280662.902          46.000       -2459.884
   3588171.791 6  22678938.435          40.000       -3385.175
   9025549.967 6  24320011.670          37.000       -4321.113
 16  6 23  2 56  0.0000000  0 10G07G05G29G16S20G13G30G02G09G06
 -13251919.881 7  20806912.458          44.000       -1209.738
 -14585582.378 7  21748850.781          47.000        1655.875
   6120222.34513  25657225.031          20.000       -2618.005
   5585925.032 6  24889844.517          41.000       -2757.246
  47248393.078 6  38743471.832          38.000        -687.305
  -3383093.153 7  23844219.006          46.000        2481.566
  -8670118.355 7  20769684.216          47.000         758.834
  -4586542.358 7  22308932.464          46.000       -2491.602
   3791664.125 6  22717665.598          41.000       -3397.384
   9284940.959 6  24369372.734          37.000       -4327.284
 16  6 23  2 57  0.0000000  0 10G07G05G16S20G13G30G23G02G09G06
 -13178311.144 7  20820921.877          45.000       -1244.427
 -14684194.918 7  21730084.625          47.000        1631.302
   5752429.034 6  24921530.116          41.000       -2791.760
  47289628.796 6  38751317.432          38.000        -688.326
  -3531700.498 7  23815939.532          47.000        2472.007
  -8714544.058 7  20761229.969          46.000         722.479
  13425285.16215  25196080.185          35.000       -3753.617
  -4436088.140 7  22337561.012          45.000       -2523.043
   3995858.327 6  22756517.391          41.000       -3408.634
   9544608.121 6  24418785.923          36.000       -4330.282
 16  6 23  2 58  0.0000000  0 10G07G05G16S20G13G30G23G02G09G06
 -13102657.510 7  20835317.504          43.000       -1277.460
 -14781365.831 7  21711593.642          47.000        1608.250
   5920913.791 6  24953592.919          41.000       -2823.658
  47330841.656 6  38759160.328          38.000        -685.802
  -3679813.782 7  23787753.417          47.000        2464.825
  -8756860.399 7  20753176.484          45.000         687.777
  13650499.83815  25238940.660          31.000       -3754.169
  -4283824.656 7  22366537.814          46.000       -2552.627
   4200678.787 7  22795498.351          44.000       -3418.220
   9804460.564 5  24468231.882          35.000       -4332.758
 16  6 23  3  1  0.0010000  0 11G07G05G28G16S20G13G30G23G02G09G06
 -12863320.782 7  20880859.606          42.000       -1381.926
 -15063873.069 7  21657834.425          47.000        1530.234
  -1874449.52214  25133851.488          26.000        2624.911
   6438266.382 6  25052042.057          37.000       -2923.582
  47454547.397 6  38782701.458          38.000        -688.319
  -4120941.635 7  23703813.595          42.000        2436.344
  -8870898.258 7  20731476.022          45.000         578.232
  14327318.99015  25367731.364          30.000       -3767.887
  -3816160.636 7  22455530.086          45.000       -2643.740
   4819019.915 7  22913165.519          44.000       -3452.041
  10585098.443 6  24616784.888          36.000       -4340.983
 16  6 23  3  2  0.0010000  0 11G07G05G28G16S20G13G30G23G02G09G06
 -12779418.847 7  20896824.775          42.000       -1415.277
 -15154956.231 7  21640502.258          47.000        1505.351
  -2032010.23013  25103834.164          18.000        2629.815
   6614646.933 5  25085604.567          35.000       -2955.742
  47495842.185 6  38790559.151          38.000        -688.729
  -4266863.288 7  23676045.709          45.000        2427.520
  -8904559.902 7  20725071.147          47.000         542.947
  14553335.84614  25410740.776          26.000       -3768.708
  -3656683.148 7  22485878.196          45.000       -2672.024
   5026427.375 7  22952629.832          43.000       -3461.866
  10845620.782 5  24666354.745          33.000       -4342.752
 16  6 23  3  3  0.0010000  0 10G07G05G28G16S20G13G30G02G09G06
 -12693522.942 7  20913171.598          43.000       -1448.239
 -15244521.344 7  21623458.316          47.000        1480.062
  -2189814.50713  25073837.327          22.000        2627.283
   6792909.970 6  25119527.197          36.000       -2986.670
  47537117.817 6  38798414.157          38.000        -687.344
  -4412266.370 7  23648373.660          46.000        2418.716
  -8936089.103 7  20719071.605          46.000         507.719
  -3495493.172 7  22516551.351          45.000       -2700.477
   5234418.470 7  22992214.167          45.000       -3471.387
  11106209.84715  24715940.079          30.000       -4341.810
 16  6 23  3  4  0.0010000  0 11G07G05G28G16S20G13G30G23G02G09G06
 -12605632.713 7  20929898.190          43.000       -1482.206
 -15332542.332 7  21606708.445          46.000        1453.072
  -2347719.03414  25043767.426          29.000        2631.517
   6973048.58815  25153803.508          34.000       -3018.581
  47578373.120 6  38806264.958          38.000        -688.453
  -4557134.867 7  23620806.138          47.000        2409.012
  -8965471.195 7  20713479.787          46.000         470.756
  15005772.70813  25496858.159          23.000       -3781.033
  -3332599.484 7  22547549.638          45.000       -2729.706
   5442995.703 7  23031902.890          42.000       -3482.195
  11366854.42715  24765540.264          30.000       -4346.221
 16  6 23  3  5  0.0010000  0 11G07G05G28G16S20G13G30G23G02G09G06
 -12515666.876 6  20947016.104          41.000       -1516.418
 -15418911.129 7  21590272.417          46.000        1426.124
  -2505618.52814  25013732.478          24.000        2631.939
   7155128.30114  25188452.800          29.000       -3051.092
  47619696.237 6  38814129.335          38.000        -688.517
  -4701371.789 7  23593359.179          47.000        2399.043
  -8992610.655 7  20708315.901          47.000         434.094
  15232307.69414  25539970.859          27.000       -3777.785
  -3167931.269 7  22578884.104          44.000       -2758.613
   5652242.747 7  23071718.668          42.000       -3492.295
  11627618.80415  24815165.822          34.000       -4345.205
 16  6 23  3  6  0.0010000  0  9G07G05G16S20G13G30G02G09G06
 -12423713.038 6  20964512.320          41.000       -1548.520
 -15503690.074 7  21574139.080          46.000        1399.684
   7339055.08815  25223453.836          33.000       -3082.496
  47661018.139 6  38821992.350          38.000        -688.345
  -4845048.967 7  23566017.619          43.000        2389.797
  -9017580.926 7  20703564.224          47.000         398.195
  -3001584.769 7  22610538.468          44.000       -2786.652
   5862074.961 7  23111653.614          46.000       -3501.633
  11888405.397 5  24864790.158          34.000       -4345.447
 16  6 23  3  7  0.0010000  0 10G07G05G28G16S20G13G30G02G09G06
 -12329785.930 6  20982385.758          40.000       -1583.200
 -15586866.066 7  21558311.540          47.000        1372.618
  -2821561.81214  24953606.444          24.000        2633.729
   7524805.032 5  25258799.427          33.000       -3110.593
  47702339.740 6  38829855.436          39.000        -689.826
  -4988163.510 7  23538783.535          45.000        2380.217
  -9040381.921 7  20699225.193          47.000         361.529
  -2833583.606 7  22642506.394          43.000       -2813.495
   6072481.226 7  23151684.343          42.000       -3511.971
  12149188.383 6  24914417.547          36.000       -4346.088
 16  6 23  3  8  0.0010000  0 10G07G05G28G16S20G13G30G02G09G06
 -12233834.517 6  21000646.032          40.000       -1615.340
 -15668363.123 8  21542805.137          48.000        1344.777
  -2979506.31614  24923553.556          26.000        2631.959
   7712418.17315  25294501.473          32.000       -3140.939
  47743716.706 6  38837730.196          39.000        -689.403
  -5130648.602 7  23511668.724          47.000        2370.210
  -9060949.507 7  20695310.586          46.000         324.632
  -2663887.230 7  22674800.640          44.000       -2841.301
   6283515.069 7  23191848.078          44.000       -3522.007
  12410006.242 6  24964049.352          37.000       -4346.928
 16  6 23  3  9  0.0010000  0 11G07G05G28G16S20G13G30G23G02G09G06
 -12135943.458 6  21019277.019          40.000       -1648.352
 -15748237.848 8  21527605.195          48.000        1317.378
  -3137424.97114  24893504.386          29.000        2631.482
   7901801.051 5  25330544.357          35.000       -3171.150
  47785080.373 6  38845601.797          39.000        -689.565
  -5272571.906 7  23484661.319          47.000        2360.679
  -9079353.626 7  20691808.152          46.000         288.795
  16140030.02213  25712699.064          20.000       -3784.132
  -2492588.381 7  22707396.285          43.000       -2868.457
   6495096.371 7  23232108.697          42.000       -3530.401
  12670763.590 6  25013676.166          39.000       -4344.369
 16  6 23  3 10  0.0000000  0 10G07G05G28G16S20G13G30G02G09G06
 -12036131.203 6  20738475.479          39.000       -1680.196
 -15826481.536 7  21212921.230          46.000        1290.464
  -3295325.99215  24563646.951          33.000        2631.150
   8092926.323 6  25067119.028          37.000       -3200.142
  47826412.512 6  38553674.207          39.000        -688.145
  -5413933.982 7  23157969.527          46.000        2351.058
  -9095598.640 7  20388925.997          47.000         252.209
  -2319715.096 7  22440502.324          45.000       -2894.642
   6707210.553 6  22972678.212          41.000       -3540.068
  12931431.477 6  24763487.647          38.000       -4343.771
 16  6 23  3 11  0.0000000  0 10G07G05G28G16S20G13G30G02G09G06
 -11934320.118 6  20757853.300          39.000       -1712.859
 -15902990.607 7  21198361.728          46.000        1261.014
  -3453099.368 5  24533622.926          33.000        2628.757
   8285861.400 6  25103834.111          38.000       -3230.540
  47867797.528 6  38561549.665          39.000        -690.527
  -5554640.556 7  23131193.407          46.000        2339.740
  -9109593.654 7  20386260.319          46.000         215.066
  -2145199.476 7  22473712.392          45.000       -2922.045
   6919939.129 7  23013163.171          43.000       -3549.993
  13192076.042 6  24813085.494          36.000       -4344.521
 16  6 23  3 12  0.0000000  0 10G07G05G28G16S20G13G30G02G09G06
 -11830579.894 6  20777594.522          39.000       -1744.587
 -15977807.243 7  21184125.264          47.000        1232.390
  -3610784.11013  24503643.400          19.000        2638.313
   8480527.473 6  25140880.103          37.000       -3258.565
  47909187.657 6  38569427.496          39.000        -689.659
  -5694743.161 8  23104532.807          48.000        2329.929
  -9121394.000 8  20384017.495          48.000         178.204
  -1969119.891 7  22507218.922          45.000       -2947.330
   7133217.288 6  23053743.966          41.000       -3559.122
  13452617.842 5  24862665.157          35.000       -4341.477
 16  6 23  3 13  0.0000000  0 10G07G05G28G16S20G13G30G02G09G06
 -11724895.022 6  20797700.698          39.000       -1776.783
 -16050888.970 7  21170218.348          47.000        1203.736
  -3768325.06715  24473651.833          30.000        2623.292
   8676929.962 5  25178251.350          34.000       -3286.933
  47950612.948 6  38577309.306          39.000        -690.626
  -5834209.223 8  23077993.330          48.000        2319.363
  -9130971.524 8  20382193.737          48.000         141.443
  -1791470.739 7  22541025.630          46.000       -2973.633
   7347064.514 6  23094437.438          40.000       -3568.251
  13713061.509 5  24912228.452          35.000       -4339.525
 16  6 23  3 14  0.0000000  0 10G07G05G28G16S20G13G30G02G09G06
 -11617317.331 6  20818178.144          41.000       -1808.510
 -16122259.964 7  21156635.151          46.000        1175.245
  -3925741.211 6  24443680.840          38.000        2622.650
   8875008.163 6  25215945.234          36.000       -3313.811
  47992028.975 6  38585190.470          39.000        -690.264
  -5973072.083 7  23051568.552          47.000        2309.559
  -9138363.786 7  20380786.168          46.000         105.321
  -1612312.594 7  22575116.811          45.000       -2997.996
   7561434.563 6  23135234.197          41.000       -3576.611
  13973346.114 6  24961761.872          36.000       -4336.060
 16  6 23  3 15  0.0000000  0 10G07G05G28G16S20G13G30G02G09G06
 -11507888.653 6  20839000.494          38.000       -1839.085
 -16191934.779 7  21143376.371          45.000        1146.383
  -4083040.797 6  24413748.411          39.000        2619.518
   9074710.929 5  25253945.927          34.000       -3341.957
  48033410.613 6  38593066.765          39.000        -689.063
  -6111356.115 7  23025254.514          46.000        2299.246
  -9143599.480 7  20379790.493          47.000          68.860
  -1431696.569 7  22609485.382          45.000       -3022.735
   7776290.598 7  23176123.582          43.000       -3585.015
  14233419.986 5  25011249.852          32.000       -4331.304
 16  6 23  3 16  0.0000000  0 10G07G05G28G16S20G13G30G02G09G06
 -11396537.38715  20860184.605          34.000       -1870.671
 -16259814.920 7  21130460.627          46.000        1116.663
  -4240118.145 6  24383859.626          40.000        2616.061
   9276099.900 5  25292269.555          34.000       -3369.771
  48074835.649 6  38600948.871          39.000        -690.166
  -6248970.467 7  22999065.785          47.000        2287.967
  -9146594.192 7  20379220.709          47.000          31.055
  -1249561.115 7  22644144.847          45.000       -3047.779
   7991709.114 6  23217106.623          39.000       -3595.197
  14493345.00115  25060714.588          31.000       -4332.401
 16  6 23  3 17  0.0000000  0 10G07G05G28G16S20G13G30G02G09G06
 -11283338.41115  20881730.808          35.000       -1902.949
 -16325947.466 7  21117875.897          47.000        1087.903
  -4397013.141 6  24354004.205          41.000        2613.707
   9479091.13315  25330900.498          30.000       -3396.869
  48116246.884 6  38608829.215          39.000        -690.126
  -6385971.886 8  22972996.853          48.000        2278.569
  -9147409.541 7  20379063.814          46.000          -4.232
  -1065989.298 7  22679079.712          45.000       -3071.286
   8207620.976 7  23258203.404          44.000       -3602.131
  14753037.51715  25110131.057          31.000       -4327.490
 16  6 23  3 18  0.0000000  0  9G05G28G16S20G13G30G02G09G06
 -16390348.035 7  21105620.364          47.000        1057.848
  -4553735.046 6  24324175.641          39.000        2608.856
   9683632.00315  25369825.302          31.000       -3422.038
  48157607.893 6  38616701.706          39.000        -690.170
  -6522385.757 7  22947034.838          46.000        2267.558
  -9146076.102 8  20379320.402          48.000         -40.695
   -881034.195 7  22714275.004          45.000       -3094.980
   8423988.661 7  23299378.780          44.000       -3610.691
  15012445.60915  25159499.904          33.000       -4322.574
 16  6 23  3 19  0.0000000  0 10G07G05G28G16S20G13G30G02G09G06
 -11052813.81115  20925847.209          33.000       -1964.093
 -16452900.580 8  21093718.600          48.000        1027.112
  -4710158.799 6  24294406.791          37.000        2604.357
   9889801.43015  25409055.032          30.000       -3449.636
  48199024.357 6  38624582.469          39.000        -689.967
  -6658103.505 7  22921212.808          47.000        2256.171
  -9142492.400 7  20379999.983          46.000         -78.581
   -694616.157 7  22749748.295          45.000       -3118.687
   8640906.659 6  23340643.973          39.000       -3619.347
  15271649.51214  25208819.682          29.000       -4317.529
 16  6 23  3 20  0.0000000  0 10G07G05G28G16S20G13G30G02G09G06
 -10934083.92815  20948445.276          35.000       -1994.976
 -16513635.970 8  21082160.868          48.000         996.849
  -4866307.675 7  24264698.964          42.000        2600.332
  10097532.54114  25448579.636          25.000       -3474.999
  48240445.531 6  38632465.151          39.000        -691.054
  -6793165.208 7  22895509.458          47.000        2245.116
  -9136704.201 7  20381101.581          46.000        -115.239
   -506803.368 7  22785489.744          45.000       -3141.719
   8858322.741 7  23382026.048          42.000       -3628.056
  15530582.49415  25258096.880          30.000       -4309.347
 16  6 23  3 21  0.0000000  0 10G07G05G28G16S20G13G30G02G09G06
 -10813483.86715  20971392.400          35.000       -2024.454
 -16572491.744 7  21070960.480          47.000         965.478
  -5022111.442 7  24235053.906          44.000        2593.803
  10306850.28214  25488417.157          25.000       -3500.818
  48281925.028 6  38640359.211          39.000        -690.373
  -6927516.054 8  22869944.435          48.000        2233.628
  -9128664.084 8  20382633.727          48.000        -152.503
   -317569.627 7  22821499.786          45.000       -3164.926
   9076278.701 6  23423499.125          40.000       -3637.360
  15789271.99314  25307320.542          27.000       -4308.550
 16  6 23  3 22  0.0000000  0 10G07G05G28G16S20G13G30G02G09G06
 -10691109.37415  20994675.178          34.000       -2056.470
 -16629535.145 7  21060105.101          47.000         935.650
  -5177629.091 6  24205457.482          41.000        2589.339
  10517635.54613  25528527.738          19.000       -3524.023
  48323375.405 6  38648246.657          39.000        -690.885
  -7061231.822 8  22844499.348          48.000        2223.606
  -9118454.624 7  20384573.965          46.000        -187.930
   -127018.950 7  22857758.634          45.000       -3186.521
   9294685.385 6  23465059.628          39.000       -3643.183
  16047615.08214  25356482.709          28.000       -4303.193
 16  6 23  3 23  0.0000000  0 10G07G05G28G16S20G13G30G02G09G06
 -10566971.27316  21018305.041          38.000       -2084.483
 -16684749.801 8  21049599.791          48.000         904.524
  -5332835.401 6  24175921.034          40.000        2583.865
  10729819.84212  25568927.383          13.000       -3549.687
  48364802.226 6  38656130.072          39.000        -690.979
  -7194304.097 7  22819175.155          47.000        2211.834
  -9106074.658 8  20386931.349          48.000        -224.880
     64828.144 7  22894266.583          45.000       -3208.677
   9513538.992 7  23506711.658          42.000       -3652.204
  16305594.21514  25405569.700          27.000       -4297.509
 16  6 23  3 24  0.0000000  0  9G07G05G28G16S20G13G30G02G09
 -10441003.557 6  21042277.994          39.000       -2113.380
 -16738041.301 8  21039458.876          49.000         872.156
  -5487628.122 6  24146462.501          41.000        2577.012
  10943644.28714  25609602.689          26.000       -3575.442
  48406276.284 6  38664021.898          39.000        -691.878
  -7326646.289 8  22793992.764          49.000        2200.093
  -9091445.771 7  20389713.525          45.000        -261.950
    258029.595 7  22931030.929          44.000       -3230.724
   9732912.836 6  23548453.224          41.000       -3660.592
 16  6 23  3 25  0.0000000  0  9G07G05G28G16S20G13G30G02G09
 -10313290.245 6  21066576.514          36.000       -2142.685
 -16789466.345 8  21029672.741          49.000         842.054
  -5642054.674 6  24117079.703          41.000        2570.813
  11158860.54612  25650562.730          17.000       -3599.080
  48447721.964 6  38671909.623          39.000        -690.039
  -7458323.025 8  22768931.930          48.000        2189.569
  -9074640.473 7  20392912.115          46.000        -297.803
    452491.150 7  22968037.780          45.000       -3251.081
   9952729.485 7  23590287.085          43.000       -3666.440
 16  6 23  3 26  0.0000000  0  8G07G05G28S20G13G30G02G09
 -10183862.092 6  21091210.463          39.000       -2171.435
 -16839028.407 8  21020240.096          48.000         809.828
  -5796110.091 6  24087764.715          41.000        2563.722
  48489131.752 6  38679789.077          39.000        -691.016
  -7589345.326 7  22744001.537          47.000        2177.335
  -9055678.192 7  20396521.675          46.000        -334.558
    648172.994 7  23005274.433          45.000       -3272.246
  10172965.293 7  23632195.423          44.000       -3674.797
 16  6 23  3 27  0.0000000  0  8G07G05G28S20G13G30G02G09
 -10052655.003 6  21116176.786          40.000       -2202.143
 -16886635.352 8  21011180.309          48.000         777.160
  -5949693.168 7  24058537.468          42.000        2555.544
  48530588.370 6  38687677.989          39.000        -690.375
  -7719628.882 7  22719208.442          47.000        2165.240
  -9034482.761 7  20400553.740          46.000        -371.673
    845131.060 7  23042753.034          44.000       -3292.929
  10393692.139 7  23674192.094          42.000       -3682.524
 16  6 23  3 28  0.0000000  0  8G07G05G28S20G13G30G02G09
  -9919721.249 6  21141475.327          41.000       -2229.995
 -16932312.111 8  21002489.682          49.000         745.185
  -6102819.280 6  24029387.629          38.000        2548.740
  48572041.930 6  38695566.587          39.000        -691.505
  -7849204.711 8  22694551.686          49.000        2153.708
  -9011095.084 7  20405001.067          44.000        -407.747
   1043303.818 7  23080466.846          44.000       -3313.083
  10614865.570 7  23716287.010          45.000       -3689.905
 16  6 23  3 29  0.0000000  0  8G07G05G28S20G13G30G02G09
  -9785035.785 6  21167105.212          40.000       -2258.551
 -16976006.092 8  20994175.753          49.000         712.180
  -6255427.041 5  24000341.253          35.000        2539.084
  48613527.286 6  38703461.571          39.000        -691.882
  -7978027.565 8  22670037.236          48.000        2141.052
  -8985479.130 8  20409883.202          48.000        -445.149
   1242706.738 7  23118411.001          43.000       -3333.433
  10836518.111 6  23758462.110          41.000       -3697.564
 16  6 23  3 30  0.0000000  0  8G07G05G28S20G13G30G02G09
  -9648666.562 6  21193053.110          40.000       -2286.242
 -17017758.921 8  20986228.208          48.000         679.343
  -6407547.912 6  23971401.428          40.000        2530.869
  48654996.267 6  38711350.710          39.000        -691.095
  -8106145.312 8  22645658.287          48.000        2129.297
  -8957692.244 7  20415164.807          45.000        -481.292
   1443262.301 7  23156575.970          44.000       -3351.893
  11058589.230 6  23800716.503          39.000       -3704.944
 16  6 23  3 31  0.0000000  0  8G07G05G28S20G13G30G02G09
  -9510596.011 6  21219330.084          41.000       -2314.874
 -17057524.143 8  20978662.684          48.000         646.745
  -6559125.757 6  23942565.135          41.000        2522.392
  48696475.754 6  38719244.316          39.000        -691.304
  -8233519.182 8  22621419.132          48.000        2116.746
  -8927705.224 7  20420874.553          46.000        -517.955
   1644980.460 7  23194961.284          45.000       -3371.043
  11281105.495 7  23843069.752          44.000       -3712.116
 16  6 23  3 32  0.0000000  0  8G07G05G28S20G13G30G02G09
  -9370871.889 6  21245916.660          40.000       -2342.796
 -17095322.539 8  20971469.111          48.000         613.598
  -6710171.613 6  23913821.521          40.000        2513.203
  48737940.830 6  38727135.846          39.000        -690.336
  -8360175.820 8  22597317.362          48.000        2104.830
  -8895555.582 7  20426991.657          45.000        -553.863
   1847803.397 7  23233557.327          45.000       -3390.222
  11504026.995 6  23885486.607          41.000       -3718.984
 16  6 23  3 33  0.0000000  0  8G07G05G28S20G13G30G02G09
  -9229456.745 6  21272829.502          41.000       -2371.115
 -17131090.108 8  20964663.910          49.000         579.229
  -6860611.248 6  23885194.787          41.000        2501.960
  48779448.067 6  38735034.512          39.000        -693.129
  -8486056.546 8  22573363.623          48.000        2091.510
  -8861195.466 7  20433528.631          45.000        -590.942
   2051760.199 7  23272367.885          44.000       -3408.076
  11727399.306 6  23927988.864          39.000       -3726.226
 16  6 23  3 34  0.0000000  0  8G07G05G28S20G13G30G02G09
  -9086432.904 6  21300044.234          40.000       -2397.277
 -17164882.523 8  20958233.138          48.000         546.199
  -7010489.068 7  23856671.831          42.000        2492.826
  48820919.361 6  38742924.523          39.000        -691.842
  -8611223.414 7  22549542.540          47.000        2079.550
  -8824697.194 7  20440473.312          45.000        -626.421
   2256759.328 7  23311379.504          45.000       -3425.460
  11951148.296 6  23970572.438          41.000       -3732.415
 16  6 23  3 35  0.0000000  0  8G07G05G28S20G13G30G02G09
  -8941764.282 6  21327574.657          41.000       -2424.114
 -17196635.400 8  20952189.726          48.000         512.207
  -7159731.121 6  23828267.152          39.000        2482.078
  48862400.980 6  38750818.513          39.000        -691.583
  -8735618.167 7  22525872.035          47.000        2066.985
  -8786014.129 7  20447834.634          45.000        -662.944
   2462827.975 7  23350591.767          45.000       -3443.341
  12175319.066 6  24013228.763          38.000       -3739.186
 16  6 23  3 36  0.0000000  0  8G07G05G28S20G13G30G02G09
  -8795517.002 7  21355405.102          42.000       -2450.909
 -17226388.789 8  20946531.057          49.000         478.998
  -7308366.732 6  23799985.270          40.000        2471.554
  48903845.881 6  38758706.012          39.000        -690.107
  -8859286.261 8  22502338.008          48.000        2054.850
  -8745202.803 7  20455604.046          47.000        -698.292
   2669891.238 7  23389994.393          44.000       -3460.300
  12399853.891 5  24055950.403          34.000       -3745.295
 16  6 23  3 37  0.0000000  0  8G07G05G28S20G13G30G02G09
  -8647649.838 7  21383544.032          43.000       -2477.246
 -17254074.069 8  20941259.695          48.000         444.510
  -7456316.380 6  23771830.198          40.000        2461.555
  48945304.369 6  38766593.144          39.000        -690.589
  -8982163.908 8  22478956.566          48.000        2041.801
  -8702212.106 7  20463783.626          45.000        -734.200
   2877981.625 7  23429591.066          43.000       -3475.867
  12624802.983 5  24098764.617          35.000       -3752.179
 16  6 23  3 38  0.0000000  0  8G07G05G28S20G13G30G02G09
  -8498226.254 6  21411974.328          41.000       -2503.565
 -17279728.652 8  20936377.526          48.000         410.184
  -7603605.799 6  23743803.369          39.000        2448.045
  48986738.837 6  38774478.810          39.000        -690.389
  -9104293.350 8  22455716.523          49.000        2028.916
  -8657095.736 7  20472369.448          46.000        -769.931
   3087026.398 7  23469372.450          44.000       -3492.234
  12850112.058 6  24141649.644          39.000       -3757.380
 16  6 23  3 39  0.0000000  0  8G07G05G28S20G13G30G02G09
  -8347231.760 7  21440710.980          43.000       -2528.484
 -17303311.783 8  20931890.446          48.000         376.428
  -7750182.757 6  23715913.890          41.000        2437.350
  49028184.485 6  38782365.680          38.000        -689.969
  -9225638.246 8  22432623.673          49.000        2016.426
  -8609830.234 7  20481364.162          46.000        -804.560
   3297031.521 7  23509334.792          43.000       -3507.087
  13075804.524 6  24184601.470          39.000       -3764.487
 16  6 23  3 40  0.0010000  0  8G07G05G28S20G13G30G02G09
  -8194749.316 7  21469726.819          44.000       -2553.500
 -17324882.909 8  20927785.841          49.000         343.004
  -7896097.598 7  23688151.536          44.000        2426.708
  49069559.974 6  38790237.927          38.000        -689.050
  -9346264.866 8  22409670.739          49.000        2004.606
  -8560491.329 7  20490751.577          45.000        -839.267
   3507905.822 7  23549464.953          44.000       -3521.311
  13301807.48114  24227581.532          25.000       -3767.845
 16  6 23  3 41  0.0010000  0  8G07G05G28S20G13G30G02G09
  -8040793.362 7  21499026.258          45.000       -2578.604
 -17344424.109 8  20924066.956          49.000         308.383
  -8041316.362 7  23660515.522          43.000        2413.980
  49110869.245 6  38798100.123          38.000        -688.031
  -9466156.146 8  22386855.609          48.000        1991.624
  -8509080.698 7  20500534.972          45.000        -874.462
   3719624.453 7  23589752.934          44.000       -3535.947
  13528115.49116  24270672.366          36.000       -3774.670
 16  6 23  3 42  0.0010000  0  8G07G05G28S20G13G30G02G09
  -7885300.203 7  21528615.283          44.000       -2604.007
 -17361849.182 8  20920751.606          49.000         272.366
  -8185742.510 7  23633031.603          42.000        2400.661
  49152189.338 6  38805962.615          38.000        -688.328
  -9585230.773 8  22364196.170          48.000        1977.820
  -8455527.710 7  20510725.323          44.000        -910.079
   3932243.112 7  23630212.433          44.000       -3551.006
  13754798.498 6  24313808.781          36.000       -3782.526
 16  6 23  3 43  0.0010000  0  7G07G05G28S20G13G30G02
  -7728321.835 7  21558488.555          45.000       -2628.350
 -17377183.615 8  20917833.075          49.000         238.451
  -8329390.145 7  23605695.680          43.000        2388.280
  49193478.595 6  38813817.848          38.000        -688.732
  -9703518.924 8  22341687.483          48.000        1965.000
  -8399875.897 7  20521312.283          43.000        -945.257
   4145701.467 7  23670831.671          44.000       -3564.163
 16  6 23  3 44  0.0010000  0  8G07G05G28S20G13G30G02G09
  -7569821.602 7  21588647.801          45.000       -2653.910
 -17390365.580 8  20915324.973          49.000         201.904
  -8472184.728 7  23578520.543          43.000        2373.517
  49234798.277 6  38821681.265          38.000        -688.586
  -9820960.833 8  22319336.965          48.000        1950.399
  -8342080.306 7  20532314.279          45.000        -981.075
   4360026.820 7  23711614.645          43.000       -3578.881
  14208971.73615  24400284.871          34.000       -3793.889
 16  6 23  3 45  0.0010000  0  8G07G05G28S20G13G30G02G09
  -7409870.385 7  21619086.391          45.000       -2678.060
 -17401440.240 8  20913216.602          48.000         166.667
  -8614159.068 7  23551501.673          42.000        2358.566
  49276097.937 6  38829541.733          38.000        -688.462
  -9937605.615 8  22297142.417          49.000        1937.131
  -8282203.472 7  20543704.472          43.000       -1015.163
   4575140.219 7  23752550.361          43.000       -3591.463
  14436689.245 6  24443618.106          37.000       -3798.440
 16  6 23  3 46  0.0010000  0  8G07G05G28S20G13G30G02G09
  -7248447.796 7  21649801.932          45.000       -2702.052
 -17410362.943 8  20911520.110          49.000         131.147
  -8755255.307 7  23524655.036          43.000        2344.417
  49317407.792 6  38837402.795          38.000        -688.743
 -10053411.425 8  22275103.891          48.000        1923.633
  -8220217.590 7  20555501.046          44.000       -1050.315
   4791052.584 7  23793640.179          44.000       -3604.465
  14664755.745 6  24487021.387          36.000       -3803.129
 16  6 23  3 47  0.0010000  0  8G07G05G28S20G13G30G02G09
  -7085608.226 7  21680790.256          45.000       -2725.588
 -17417162.000 8  20910226.630          49.000          95.587
  -8895489.044 7  23497973.182          44.000        2329.911
  49358692.477 6  38845259.808          38.000        -687.991
 -10168408.942 8  22253221.266          48.000        1909.839
  -8156168.906 7  20567690.495          45.000       -1084.789
   5007701.570 7  23834865.132          43.000       -3616.973
  14893127.17215  24530493.824          31.000       -3809.530
 16  6 23  3 48  0.0010000  0  9G07G05G28S20G13G15G30G02G09
  -6921306.670 7  21712056.474          46.000       -2750.083
 -17421768.116 8  20909348.203          48.000          58.926
  -9034777.653 6  23471463.562          41.000        2313.990
  49400003.681 6  38853120.258          38.000        -689.566
 -10282530.678 8  22231506.302          48.000        1895.255
   -160265.06815  25140061.444          32.000        2675.533
  -8090004.933 7  20580280.600          44.000       -1119.905
   5225123.534 7  23876239.895          44.000       -3629.832
  15121857.79016  24574003.743          37.000       -3814.755
 16  6 23  3 49  0.0010000  0  9G07G05G28S20G13G15G30G02G09
  -6755573.478 7  21743593.502          46.000       -2774.740
 -17424186.300 8  20908890.606          49.000          21.513
  -9173113.145 7  23445137.867          42.000        2296.543
  49441320.931 6  38860980.674          38.000        -690.410
 -10395784.344 7  22209951.741          46.000        1879.549
   -320630.06515  25109544.538          31.000        2670.251
  -8021748.531 7  20593270.978          46.000       -1155.551
   5443278.841 7  23917754.556          44.000       -3642.293
  15350927.160 6  24617594.230          37.000       -3821.614
 16  6 23  3 50  0.0000000  0  9G07G05G28S20G13G15G30G02G09
  -6588451.048 7  21475601.818          45.000       -2796.123
 -17424435.274 8  20609049.029          48.000         -13.236
  -9310500.136 7  23119198.546          42.000        2282.342
  49482623.052 6  38569048.407          38.000        -686.707
 -10508189.940 8  21888771.810          48.000        1866.929
   -480819.17714  24779266.780          29.000        2667.731
  -7951434.950 7  20306860.205          46.000       -1188.510
   5662117.499 7  23659606.155          44.000       -3652.271
  15580303.090 5  24361451.958          34.000       -3825.232
 16  6 23  3 51  0.0000000  0  9G07G05G28S20G13G15G30G02G09
  -6420004.966 7  21507656.978          45.000       -2819.125
 -17422556.843 7  20609406.112          47.000         -49.463
  -9446967.363 6  23093222.239          36.000        2265.840
  49523853.180 6  38576893.118          38.000        -686.750
 -10619790.343 7  21867535.593          47.000        1852.528
   -640876.10014  24748808.978          28.000        2666.316
  -7879123.194 7  20320616.491          44.000       -1221.565
   5881564.480 7  23701365.364          44.000       -3663.401
  15809929.37915  24405150.008          35.000       -3828.965
 16  6 23  3 52  0.0000000  0  9G07G05G28S20G13G15G30G02G09
  -6250167.337 7  21539974.816          45.000       -2842.019
 -17418458.653 8  20610186.975          48.000         -86.362
  -9582407.026 5  23067446.488          35.000        2249.858
  49565107.116 6  38584744.198          38.000        -687.359
 -10730494.641 7  21846466.968          47.000        1837.900
   -800710.12915  24718399.809          30.000        2664.311
  -7804738.356 7  20334774.481          45.000       -1256.186
   6101679.860 7  23743249.638          45.000       -3673.774
  16039884.104 6  24448908.192          38.000       -3835.015
 16  6 23  3 53  0.0000000  0 10G07G05G28G20S20G13G15G30G02G09
  -6079003.249 7  21572547.358          46.000       -2862.916
 -17412182.453 8  20611379.976          48.000        -122.600
  -9716847.840 6  23041874.415          41.000        2232.894
   -144553.40617  23044673.238          42.000        2404.538
  49606338.492 6  38592592.014          38.000        -686.301
 -10840345.529 7  21825563.195          46.000        1824.352
   -960363.71114  24688012.751          29.000        2659.637
  -7728339.511 7  20349312.781          45.000       -1289.787
   6322389.203 7  23785249.154          44.000       -3682.691
  16270111.643 6  24492716.841          40.000       -3839.255
 16  6 23  3 54  0.0000000  0 10G07G05G28G20S20G13G15G30G02G09
  -5906535.966 7  21605367.047          46.000       -2885.570
 -17403727.368 8  20612990.352          48.000        -159.330
  -9850274.469 7  23016489.741          43.000        2215.051
   -288219.608 7  23017331.749          42.000        2385.239
  49647528.897 6  38600428.558          38.000        -687.204
 -10949342.068 7  21804821.430          47.000        1809.593
  -1119837.80115  24657670.783          32.000        2657.538
  -7649942.542 7  20364229.715          45.000       -1323.137
   6543661.638 7  23827357.018          44.000       -3692.987
  16500599.775 6  24536575.398          41.000       -3843.489
 16  6 23  3 55  0.0000000  0 10G07G05G28G20S20G13G15G30G02G09
  -5732696.790 7  21638447.861          47.000       -2908.290
 -17393002.896 8  20615030.981          48.000        -197.215
  -9982581.264 6  22991310.438          40.000        2196.699
   -430634.452 6  22990224.982          40.000        2362.798
  49688758.444 6  38608273.600          38.000        -687.066
 -11057394.003 7  21784259.332          47.000        1793.371
  -1279040.77815  24627375.460          34.000        2650.457
  -7569473.632 7  20379542.334          45.000       -1358.285
   6765556.799 7  23869582.741          44.000       -3702.835
  16731426.313 6  24580501.261          41.000       -3849.765
 16  6 23  3 56  0.0000000  0 10G07G05G28G20S20G13G15G30G02G09
  -5557595.408 7  21671770.465          47.000       -2928.762
 -17380094.745 7  20617486.680          47.000        -233.030
 -10113839.845 7  22966332.789          42.000        2179.096
   -571871.765 6  22963350.861          41.000        2344.837
  49729938.075 6  38616110.650          38.000        -685.997
 -11164586.800 8  21763863.780          48.000        1779.502
  -1438059.02815  24597115.090          33.000        2649.828
  -7487035.671 7  20395229.626          44.000       -1389.830
   6987957.340 7  23911906.499          45.000       -3710.373
  16962492.432 6  24624474.274          40.000       -3852.424
 16  6 23  3 57  0.0000000  0 10G07G05G28G20S20G13G15G30G02G09
  -5381251.235 7  21705326.344          47.000       -2949.760
 -17365001.066 7  20620357.154          47.000        -270.029
 -10244032.263 7  22941559.465          44.000        2160.431
   -711916.104 7  22936705.426          44.000        2323.330
  49771059.313 6  38623936.183          38.000        -684.772
 -11270917.560 7  21743627.286          46.000        1764.404
  -1596889.94515  24566884.176          31.000        2646.048
  -7402643.157 7  20411290.335          45.000       -1423.334
   7210834.332 7  23954316.793          44.000       -3719.007
  17193788.095 6  24668490.581          38.000       -3857.647
 16  6 23  3 58  0.0000000  0 10G07G05G28G20S20G13G15G30G02G09
  -5203601.472 7  21739130.923          46.000       -2971.420
 -17347635.558 8  20623663.429          48.000        -308.168
 -10373058.170 5  22916999.610          35.000        2141.652
   -850668.272 7  22910296.947          43.000        2301.265
  49812209.832 6  38631765.380          38.000        -685.783
 -11376300.100 7  21723570.773          44.000        1748.225
  -1755447.08215  24536717.984          33.000        2640.906
  -7316227.260 7  20427735.700          46.000       -1456.411
   7434243.120 7  23996830.584          44.000       -3727.527
  17425386.641 6  24712562.554          41.000       -3861.943
 16  6 23  4  1  0.0000000  0 10G07G05G28G20S20G13G15G30G02G09
  -4663012.055 7  21842004.162          47.000       -3035.516
 -17281887.534 7  20636175.287          47.000        -423.044
 -10752957.405 6  22844712.868          40.000        2079.028
  -1259010.705 7  22832594.041          44.000        2233.882
  49935790.548 6  38655282.899          38.000        -687.986
 -11686720.217 8  21664503.932          48.000        1699.603
  -2229791.72814  24446556.618          27.000        2625.122
  -7044981.633 7  20479354.369          47.000       -1557.258
   8107381.567 7  24124923.087          42.000       -3752.363
  18121906.181 6  24845103.171          41.000       -3877.214
 16  6 23  4  2  0.0000000  0  9G07G05G28G20S20G13G30G02G09
  -4480337.066 7  21876766.357          47.000       -3053.895
 -17255418.080 7  20641211.630          47.000        -459.774
 -10877141.716 6  22821078.939          41.000        2059.747
  -1392436.545 7  22807205.318          45.000        2212.813
  49976999.826 6  38663124.329          38.000        -685.364
 -11788275.207 7  21645179.055          47.000        1684.902
  -6950618.670 7  20497308.461          44.000       -1588.525
   8332636.001 7  24167788.011          43.000       -3757.042
  18354619.834 6  24889388.246          41.000       -3880.366
 16  6 23  4  3  0.0000000  0 10G07G05G28G20S20G13G15G30G02G09
  -4296539.979 7  21911741.409          47.000       -3072.323
 -17226754.371 8  20646666.725          48.000        -495.687
 -11000157.783 7  22797667.919          42.000        2040.789
  -1524575.675 7  22782060.793          46.000        2192.126
  50018123.321 6  38670948.832          38.000        -685.094
 -11888949.385 7  21626020.287          46.000        1670.829
  -2544599.77415  24386666.371          32.000        2618.919
  -6854391.213 7  20515620.737          45.000       -1619.055
   8558196.666 7  24210712.388          43.000       -3762.102
  18587503.525 7  24933703.353          42.000       -3882.164
 16  6 23  4  4  0.0000000  0 11G07G05G28G20S20G13G15G30G27G02G09
  -4111624.550 7  21946928.552          46.000       -3092.391
 -17195879.556 8  20652542.300          48.000        -534.298
 -11121971.934 7  22774489.789          42.000        2018.765
  -1655397.207 7  22757165.318          46.000        2167.734
  50059181.417 6  38678763.598          38.000        -686.658
 -11988723.327 7  21607033.717          46.000        1654.403
  -2701597.52614  24356791.651          25.000        2613.032
  -6756298.930 7  20534285.961          44.000       -1651.307
     13368.50314  25489259.915          27.000        -145.172
   8784052.155 7  24253693.461          44.000       -3767.369
  18820563.369 6  24978052.593          41.000       -3886.951
 16  6 23  4  5  0.0000000  0  9G07G28G20S20G13G30G27G02G09
  -3925512.365 7  21982346.596          47.000       -3111.576
 -11242468.897 6  22751559.802          40.000        1997.434
  -1784786.402 7  22732541.839          45.000        2144.356
  50100273.146 6  38686582.848          38.000        -684.927
 -12087495.368 8  21588238.820          48.000        1637.904
  -6656259.015 7  20553324.219          44.000       -1683.262
     23105.33214  25491111.575          25.000        -180.539
   9010272.035 7  24296740.705          42.000       -3773.727
  19053888.252 6  25022452.770          41.000       -3890.679
 16  6 23  4  6  0.0000000  0 10G07G05G28G20S20G13G30G27G02G09
  -3738267.343 7  22017974.287          45.000       -3130.152
     35400.59818  20665602.549          48.000        -609.395
 -11361676.464 6  22728874.344          41.000        1976.750
  -1912772.138 7  22708189.956          46.000        2121.748
  50141339.692 6  38694396.637          38.000        -683.503
 -12185305.789 8  21569624.830          48.000        1622.523
  -6554331.428 7  20572717.989          43.000       -1714.307
     34963.18113  25493369.790          22.000        -217.221
   9236784.969 7  24339844.209          42.000       -3777.559
  19287424.244 7  25066894.740          42.000       -3892.916
 16  6 23  4  7  0.0000000  0 12G07G05G28G20S20G13G15G30G27G02G09G21
  -3549918.850 7  22053818.220          46.000       -3148.478
     73105.281 8  20672778.585          48.000        -647.629
 -11479587.729 6  22706436.645          40.000        1954.018
  -2039348.505 7  22684103.001          45.000        2097.459
  50182361.872 6  38702203.498          38.000        -683.294
 -12282160.914 8  21551195.550          48.000        1605.700
    -69943.20815  24267487.055          33.000        2600.088
  -6450541.852 7  20592469.245          44.000       -1745.677
     48979.80913  25496042.972          22.000        -250.492
   9463552.893 7  24382994.915          42.000       -3781.645
  19521152.060 6  25111374.350          41.000       -3898.432
    -60269.70714  25811725.490          27.000        1009.617
 16  6 23  4  8  0.0000000  0 12G07G05G28G20S20G13G15G30G27G02G09G21
  -3360420.795 7  22089876.076          45.000       -3167.671
    113130.062 8  20680393.755          48.000        -685.921
 -11596120.464 7  22684261.414          42.000        1931.091
  -2164433.941 7  22660297.571          45.000        2072.548
  50223407.291 6  38710014.146          38.000        -683.619
 -12377991.078 8  21532958.991          48.000        1588.910
   -225694.81615  24237849.484          34.000        2594.488
  -6344840.793 7  20612585.490          44.000       -1776.935
     65247.00012  25499123.476          15.000        -297.463
   9690613.688 6  24426201.916          41.000       -3785.629
  19755127.782 6  25155897.673          39.000       -3901.526
   -120016.11114  25800362.833          29.000         982.740
 16  6 23  4  9  0.0000000  0 12G07G05G28G20S20G13G15G30G27G02G09G21
  -3169839.730 7  22126144.749          46.000       -3184.635
    155426.868 8  20688443.157          48.000        -723.664
 -11711304.951 7  22662342.248          43.000        1909.160
  -2288059.800 7  22636775.742          47.000        2048.298
  50264419.174 6  38717818.127          38.000        -682.866
 -12472839.319 8  21514908.521          48.000        1573.054
   -381138.595 6  24208279.496          37.000        2590.217
  -6237290.786 7  20633049.046          43.000       -1807.532
     83679.45013  25502621.512          22.000        -328.498
   9917893.038 6  24469450.553          39.000       -3788.984
  19989295.394 6  25200458.427          37.000       -3903.342
   -178207.54314  25789282.887          27.000         957.340
 16  6 23  4 10  0.0000000  0 12G07G05G28G20S20G13G15G30G27G02G09G21
  -2978195.653 7  22162614.430          46.000       -3203.661
    199995.011 8  20696924.102          48.000        -762.658
 -11825125.643 7  22640685.167          43.000        1884.665
  -2410211.071 7  22613530.569          47.000        2022.753
  50305404.101 6  38725619.003          38.000        -683.906
 -12566702.521 8  21497047.123          48.000        1555.056
   -536270.549 5  24178749.959          32.000        2581.829
  -6127908.869 7  20653866.126          44.000       -1839.129
    104192.89913  25506521.025          20.000        -361.814
  10145363.219 6  24512736.639          38.000       -3793.951
  20223644.802 6  25245054.972          36.000       -3907.865
   -234837.03314  25778524.496          25.000         930.820
 16  6 23  4 11  0.0000000  0 11G07G05G28G20S20G13G15G30G27G02G09
  -2785430.831 7  22199296.585          47.000       -3221.629
    246909.646 8  20705851.494          48.000        -801.614
 -11937488.845 7  22619302.996          43.000        1861.047
  -2530795.149 7  22590581.002          47.000        1996.476
  50346437.682 6  38733426.352          38.000        -683.271
 -12659499.564 8  21479389.265          48.000        1537.882
   -691010.16715  24149310.412          30.000        2576.142
  -6016634.529 7  20675039.138          42.000       -1870.116
    126995.87713  25510861.016          23.000        -404.570
  10373073.374 6  24556070.241          36.000       -3796.178
  20458243.689 5  25289701.581          34.000       -3912.435
 16  6 23  4 12  0.0000000  0 10G07G05G28G20S20G13G15G30G02G09
  -2591621.083 7  22236177.690          47.000       -3238.048
    296111.678 7  20715213.989          47.000        -838.665
 -12048434.868 7  22598190.135          43.000        1837.931
  -2649852.412 7  22567925.664          47.000        1972.042
  50387455.380 6  38741231.800          38.000        -683.108
 -12751283.316 8  21461924.320          48.000        1521.865
   -845409.97814  24119938.275          26.000        2569.808
  -5903540.828 7  20696561.591          43.000       -1899.639
  10600939.582 5  24599432.304          35.000       -3798.546
  20693025.93715  25334375.639          32.000       -3913.630
 16  6 23  4 13  0.0000000  0 10G07G05G28G20S20G13G30G02G09G21
  -2396809.181 7  22273250.136          47.000       -3256.130
    347576.369 7  20725007.837          47.000        -877.698
 -12157971.372 7  22577344.960          42.000        1813.127
  -2767390.962 8  22545561.203          48.000        1945.324
  50428434.147 6  38749030.110          38.000        -683.322
 -12842072.451 7  21444646.737          47.000        1503.986
  -5788667.485 7  20718420.031          44.000       -1929.860
  10828912.12215  24642809.794          31.000       -3800.538
  20927959.17215  25379081.840          32.000       -3918.993
    -75927.34515  25748039.105          32.000         849.293
 16  6 23  4 14  0.0000000  0 10G07G05G28G20S20G13G15G30G02G21
  -2200918.449 7  22310524.203          46.000       -3273.263
    401396.974 7  20735249.370          47.000        -916.407
 -12265986.619 7  22556788.080          44.000        1787.673
  -2883299.678 8  22523502.243          48.000        1918.693
  50469456.159 6  38756837.582          38.000        -683.344
 -12931767.199 8  21427578.627          48.000        1485.952
  -1153549.42214  24061389.252          29.000        2557.417
  -5671935.560 7  20740636.723          45.000       -1960.626
  11057058.26315  24686226.424          30.000       -3803.539
   -126052.88914  25738493.679          26.000         821.542
 16  6 23  4 15  0.0000000  0 11G07G05G28G20S20G13G15G30G02G09G21
  -2004023.780 7  22347993.258          46.000       -3289.586
    457515.176 7  20745927.123          47.000        -954.134
 -12372520.548 7  22536516.563          44.000        1763.094
  -2997618.650 8  22501748.261          48.000        1892.291
  50510456.871 6  38764638.021          38.000        -682.928
 -13020419.239 8  21410710.077          49.000        1469.252
  -1306865.13314  24032206.747          25.000        2553.518
  -5553417.423 7  20763189.472          44.000       -1989.436
  11285296.78214  24729660.854          29.000       -3804.292
  21398471.39214  25468621.455          29.000       -3923.594
   -174545.78014  25729264.713          27.000         795.097
 16  6 23  4 16  0.0000000  0 12G07G05G28G20S20G13G15G30G27G02G09G21
  -1806137.050 7  22385651.788          47.000       -3307.141
    515935.305 8  20757046.175          48.000        -993.898
 -12477551.089 7  22516531.981          45.000        1736.688
  -3110325.408 8  22480301.873          48.000        1863.705
  50551445.567 6  38772438.181          38.000        -684.298
 -13108017.330 7  21394039.570          47.000        1449.977
  -1459767.60115  24003108.596          33.000        2544.637
  -5433122.976 7  20786078.416          43.000       -2021.014
    269421.49113  25538750.076          23.000        -581.263
  11513607.16114  24773103.467          26.000       -3807.467
  21633985.79714  25513435.481          26.000       -3927.907
   -221395.38813  25720338.333          22.000         773.384
 16  6 23  4 17  0.0000000  0  9G07G05G28G20S20G13G15G30G09
  -1607203.723 7  22423506.720          46.000       -3323.865
    576727.737 7  20768613.436          47.000       -1032.521
 -12580988.458 7  22496849.112          45.000        1710.551
  -3221330.659 8  22459178.123          48.000        1836.270
  50592485.080 6  38780248.114          38.000        -685.158
 -13194483.178 7  21377586.039          47.000        1432.112
  -1612207.84114  23974079.129          27.000        2537.321
  -5310995.552 7  20809319.192          44.000       -2050.452
  21869735.97413  25558294.913          23.000       -3931.281
 16  6 23  4 18  0.0000000  0 11G07G05G28G20S20G13G15G30G27G02G09
  -1407276.889 7  22461550.812          45.000       -3339.541
    639853.376 8  20780627.021          48.000       -1070.604
 -12682852.223 7  22477463.247          44.000        1684.961
  -3330654.194 8  22438375.527          48.000        1808.488
  50633548.931 6  38788062.478          38.000        -684.012
 -13279847.464 7  21361340.654          47.000        1414.150
  -1764216.02815  23945164.485          30.000        2530.156
  -5187087.075 7  20832898.520          43.000       -2078.890
    342113.91214  25552886.061          27.000        -654.735
  11970455.60314  24860056.402          29.000       -3807.315
  22105684.79213  25603199.611          21.000       -3936.511
 16  6 23  4 19  0.0000000  0 11G07G05G28G20S20G13G15G30G27G02G09
  -1206376.231 7  22499779.807          44.000       -3356.356
    705308.651 7  20793081.084          47.000       -1111.105
 -12783127.342 7  22458380.456          44.000        1657.619
  -3438280.713 7  22417894.642          47.000        1779.031
  50674636.205 6  38795881.170          38.000        -686.323
 -13364106.155 8  21345308.423          48.000        1394.695
  -1915788.39215  23916314.598          32.000        2520.363
  -5061414.849 7  20856812.438          42.000       -2110.059
    382592.47214  25560588.465          29.000        -693.804
  12198972.44913  24903547.353          23.000       -3808.267
  22341798.57613  25648130.309          18.000       -3918.205
 16  6 23  4 20  0.0000000  0 12G07G05G28G20S20G13G15G30G27G02G09G21
  -1004434.618 7  22538208.205          44.000       -3374.772
    773174.833 7  20805996.217          47.000       -1151.131
 -12881712.675 7  22439619.989          45.000        1628.876
  -3544108.467 7  22397757.754          47.000        1748.791
  50715818.386 6  38803717.679          38.000        -687.601
 -13447167.782 7  21329500.847          46.000        1373.919
  -2066832.75615  23887578.103          35.000        2510.795
  -4933910.086 7  20881077.140          43.000       -2140.298
    425393.69613  25568728.433          22.000        -731.732
  12427624.75413  24947040.171          22.000       -3803.538
  22578169.38413  25693109.345          22.000       -3940.891
   -123236.47814  25687964.811          27.000         651.219
 16  6 23  4 21  0.0010000  0 12G07G05G28G20S20G13G15G30G27G02G09G21
   -801485.706 7  22576827.492          43.000       -3390.783
    843430.411 8  20819365.614          48.000       -1190.497
 -12978615.102 7  22421183.084          46.000        1601.124
  -3648144.707 7  22377956.905          45.000        1719.198
  50757070.026 6  38811567.346          38.000        -688.128
 -13529049.191 7  21313918.693          46.000        1355.360
  -2217365.83715  23858929.104          32.000        2504.380
  -4804607.418 7  20905683.570          42.000       -2169.394
    470490.18614  25577308.566          26.000        -771.783
  12656281.28514  24990559.164          25.000       -3812.250
  22814778.48713  25738133.507          20.000       -3940.003
   -161391.87314  25680694.004          28.000         621.384
 16  6 23  4 22  0.0010000  0 10G07G05G28G20S20G13G15G30G27G02
   -597530.384 7  22615638.137          42.000       -3408.542
    916092.739 8  20833194.336          48.000       -1232.102
 -13073790.820 7  22403072.271          46.000        1570.382
  -3750344.938 7  22358508.638          46.000        1686.893
  50798415.241 6  38819434.323          38.000        -690.731
 -13609717.796 7  21298568.487          47.000        1332.939
  -2367352.017 6  23830389.570          36.000        2493.759
  -4673503.131 6  20930630.401          41.000       -2200.524
    517904.40814  25586330.573          26.000        -809.864
  12884955.67613  25034091.524          19.000       -3819.284
 16  6 23  4 23  0.0010000  0 11G07G05G28G20S20G13G15G30G27G02G21
   -392486.046 7  22654658.743          42.000       -3426.319
    991254.543 8  20847496.238          48.000       -1272.935
 -13167130.254 7  22385308.909          44.000        1540.602
  -3850598.504 7  22339432.880          47.000        1655.111
  50839943.429 6  38827336.689          38.000        -693.645
 -13689072.830 7  21283466.807          47.000        1311.986
  -2516691.674 5  23801967.929          35.000        2484.660
  -4540515.487 6  20955936.620          41.000       -2230.795
    567731.12314  25595824.661          26.000        -850.448
  13113731.64513  25077614.409          21.000       -3805.440
   -233083.58615  25667224.844          33.000         558.042
 16  6 23  4 24  0.0010000  0 11G07G05G28G20S20G13G15G30G27G02G21
   -186429.198 6  22693868.074          39.000       -3442.546
   1068853.379 8  20862262.891          48.000       -1313.568
 -13258676.588 7  22367884.954          44.000        1511.097
  -3948948.831 7  22320717.329          47.000        1623.340
  50881602.838 6  38835265.370          38.000        -696.304
 -13767167.561 8  21268607.772          48.000        1291.347
  -2665436.12215  23773656.469          33.000        2473.781
  -4405719.768 6  20981589.819          41.000       -2261.167
    619909.53214  25605748.041          26.000        -889.201
  13342588.21612  25121164.795          17.000       -3813.574
   -265663.18915  25661020.768          31.000         527.018
 16  6 23  4 25  0.0010000  0 10G07G05G28G20S20G13G15G30G27G02
     20620.629 6  22733262.952          36.000       -3458.992
   1148881.616 8  20877491.243          48.000       -1354.432
 -13348417.239 7  22350810.422          44.000        1480.346
  -4045382.738 8  22302366.261          48.000        1590.707
  50923393.395 6  38843217.347          38.000        -697.817
 -13843998.716 8  21253987.909          48.000        1269.461
  -2813581.369 5  23745468.975          35.000        2464.758
  -4269135.300 6  21007577.939          40.000       -2292.608
    674433.99613  25616121.375          23.000        -928.543
  13571457.60012  25164726.245          13.000       -3809.074
 16  6 23  4 26  0.0010000  0  9G07G05G28G20S20G13G15G30G27
    228690.047 6  22772862.592          38.000       -3476.460
   1231377.565 8  20893190.366          48.000       -1394.860
 -13436293.626 7  22334088.524          45.000        1449.555
  -4139840.472 8  22284392.624          49.000        1558.590
  50965350.979 6  38851203.579          38.000        -699.724
 -13919516.384 8  21239617.149          48.000        1248.220
  -2961076.752 6  23717403.668          38.000        2453.393
  -4130734.635 6  21033914.471          39.000       -2320.688
    731363.04812  25626945.100          17.000        -963.259
 16  6 23  4 27  0.0010000  0 10G07G05G28G20S20G13G15G30G27G21
    437690.975 6  22812635.844          40.000       -3491.729
   1316265.538 8  20909344.382          48.000       -1434.750
 -13522361.888 7  22317710.604          45.000        1419.370
  -4232377.307 8  22266783.994          49.000        1526.128
  51007407.345 6  38859204.730          38.000        -702.416
 -13993786.022 8  21225483.712          48.000        1227.337
  -3107986.709 6  23689455.416          40.000        2443.598
  -3990605.560 6  21060580.166          39.000       -2348.773
    790587.63014  25638223.821          24.000       -1005.793
   -353419.33715  25644563.119          33.000         433.776
 16  6 23  4 28  0.0010000  0  9G07G05G28G20S20G13G15G30G27
    647606.020 7  22852583.266          42.000       -3505.896
   1403539.604 7  20925950.009          46.000       -1474.082
 -13606607.177 7  22301678.950          45.000        1389.877
  -4322977.952 8  22249542.097          48.000        1495.111
  51049549.511 6  38867224.309          38.000        -702.286
 -14066801.250 8  21211589.953          48.000        1207.309
  -3254303.770 7  23661612.599          42.000        2433.992
  -3848764.583 6  21087569.319          37.000       -2377.816
    852103.69514  25649935.256          28.000       -1044.792
 16  6 23  4 29  0.0010000  0 10G07G05G28G20S20G13G15G30G27G21
    858326.474 7  22892680.987          43.000       -3518.597
   1493101.066 7  20942994.666          47.000       -1511.298
 -13689108.519 7  22285980.088          47.000        1360.797
  -4411720.270 7  22232653.532          47.000        1463.697
  51091676.767 6  38875239.735          38.000        -700.318
 -14138649.060 8  21197917.044          48.000        1188.239
  -3400113.733 7  23633863.106          43.000        2426.064
  -3705321.713 6  21114864.984          38.000       -2402.258
    915841.84613  25662062.110          23.000       -1077.873
   -402847.28415  25635343.261          32.000         374.798
 16  6 23  4 30  0.0000000  0  9G07G05G28G20S20G13G15G30G27
   1069791.803 7  22633129.380          44.000       -3530.791
   1584900.310 7  20660671.030          46.000       -1548.702
 -13769894.280 7  21970813.450          46.000        1331.426
  -4498631.477 7  21916322.493          45.000        1432.487
  51133754.656 6  38583455.744          38.000        -701.435
 -14209366.491 8  20884666.737          48.000        1168.580
  -3545452.353 7  23306411.567          43.000        2418.633
  -3560336.653 6  20842666.262          41.000       -2429.676
    981757.74114  25374807.863          26.000       -1116.635
 16  6 23  4 31  0.0000000  0  9G07G05G28G20S20G13G15G30G27
   1282049.906 7  22673522.795          46.000       -3544.003
   1678994.787 7  20678575.983          46.000       -1586.927
 -13848886.510 7  21955781.135          45.000        1302.053
  -4583633.359 7  21900147.345          45.000        1400.471
  51175849.128 6  38591466.964          38.000        -701.562
 -14278883.259 8  20871440.275          49.000        1148.698
  -3690247.844 7  23278858.197          44.000        2409.427
  -3413762.032 6  20870554.641          38.000       -2455.086
   1049889.40414  25387772.781          24.000       -1155.289
 16  6 23  4 32  0.0000000  0 10G07G05G28G20S20G13G15G30G27G21
   1495015.512 7  22714048.064          45.000       -3555.511
   1775309.484 7  20696904.697          47.000       -1624.078
 -13926140.325 7  21941080.949          45.000        1272.907
  -4666778.741 7  21884325.093          45.000        1370.320
  51217884.132 6  38599465.708          38.000        -700.707
 -14347261.641 8  20858427.717          49.000        1130.106
  -3834561.547 7  23251396.789          44.000        2401.211
  -3265683.456 6  20898730.757          36.000       -2480.682
   1120154.44213  25401146.716          22.000       -1187.740
   -463837.22315  25324200.993          32.000         289.819
 16  6 23  4 33  0.0000000  0 10G07G05G28G20S20G13G15G30G27G21
   1708705.184 7  22754708.327          43.000       -3567.982
   1873869.974 7  20715659.755          46.000       -1661.062
 -14001608.614 7  21926720.240          46.000        1242.883
  -4748020.011 7  21868864.898          45.000        1338.058
  51259895.383 6  38607461.485          38.000        -700.141
 -14414462.163 8  20845639.377          49.000        1110.263
  -3978352.419 7  23224033.207          44.000        2391.775
  -3116084.286 6  20927201.957          41.000       -2506.070
   1192606.63213  25414944.568          20.000       -1225.944
   -480208.11815  25321081.958          33.000         257.066
 16  6 23  4 34  0.0000000  0 10G07G05G28G20S20G13G15G30G27G21
   1923059.038 7  22795501.230          43.000       -3577.786
   1974624.636 7  20734834.316          46.000       -1697.194
 -14075322.384 7  21912692.150          46.000        1213.989
  -4827386.185 7  21853761.403          46.000        1307.462
  51301825.860 6  38615438.468          38.000        -697.248
 -14480522.592 8  20833068.136          48.000        1091.657
  -4121657.091 7  23196763.717          46.000        2384.710
  -2965025.817 6  20955948.922          41.000       -2529.509
   1267135.45314  25429135.329          24.000       -1263.797
   -494859.71915  25318298.474          32.000         228.338
 16  6 23  4 35  0.0000000  0 10G07G05G28G20S20G13G15G30G27G21
   2138049.208 7  22836411.730          42.000       -3589.987
   2077554.047 7  20754419.690          46.000       -1735.197
 -14147280.062 7  21898999.225          46.000        1183.691
  -4904874.830 7  21839016.667          46.000        1274.918
  51343657.811 6  38623399.484          38.000        -698.256
 -14545448.482 8  20820712.003          48.000        1071.190
  -4264478.864 7  23169586.347          47.000        2374.923
  -2812536.384 6  20984963.015          40.000       -2554.303
   1343827.87414  25443725.439          27.000       -1297.295
   -507800.16914  25315834.782          29.000         195.673
 16  6 23  4 36  0.0000000  0 10G07G05G28G20S20G13G15G30G27G21
   2353765.341 6  22877462.320          41.000       -3600.919
   2182757.132 7  20774439.191          46.000       -1771.652
 -14217362.296 7  21885665.043          47.000        1152.844
  -4980365.490 7  21824651.491          46.000        1241.893
  51385506.026 6  38631364.426          38.000        -697.895
 -14609126.756 8  20808595.566          48.000        1051.386
  -4406704.084 8  23142521.548          48.000        2365.977
  -2658526.841 6  21014273.221          41.000       -2578.957
   1422728.09214  25458742.468          28.000       -1332.654
   -519015.32315  25313722.957          32.000         167.743
 16  6 23  4 37  0.0000000  0 10G07G05G28G20S20G13G15G30G27G21
   2570110.303 6  22918631.223          41.000       -3609.805
   2290142.715 7  20794874.216          46.000       -1807.693
 -14285638.341 7  21872672.309          47.000        1123.067
  -5053925.342 7  21810651.391          45.000        1210.015
  51427289.408 6  38639314.850          38.000        -695.538
 -14671633.236 8  20796700.852          48.000        1032.077
  -4548406.095 8  23115557.419          48.000        2357.482
  -2503095.798 6  21043849.630          41.000       -2601.507
   1503747.65614  25474162.876          28.000       -1367.312
   -528394.81015  25311933.943          33.000         139.982
 16  6 23  4 38  0.0000000  0 10G07G05G28G20S20G13G15G30G27G21
   2787071.033 6  22959915.210          40.000       -3620.195
   2399704.215 7  20815725.987          47.000       -1844.509
 -14352093.111 7  21860023.972          46.000        1091.992
  -5125537.806 7  21797025.912          45.000        1176.108
  51469003.274 6  38647252.867          38.000        -696.528
 -14732958.433 8  20785029.972          48.000        1011.602
  -4689574.186 8  23088693.646          49.000        2347.398
  -2346257.730 6  21073694.633          41.000       -2626.375
   1586881.61614  25489977.032          25.000       -1403.473
   -536028.75815  25310479.520          30.000         108.094
 16  6 23  4 39  0.0000000  0 10G07G05G28G20S20G13G15G30G27G21
   3004727.417 6  23001335.884          40.000       -3633.901
   2511530.282 7  20837002.026          45.000       -1882.027
 -14416618.029 7  21847744.568          46.000        1059.944
  -5195092.887 7  21783789.695          45.000        1142.608
  51510748.105 6  38655195.979          38.000        -694.834
 -14792999.560 8  20773606.187          48.000         990.385
  -4830103.647 8  23061950.332          48.000        2337.282
  -2187933.246 7  21103824.632          42.000       -2650.996
   1672219.58114  25506219.572          26.000       -1439.670
   -541819.87015  25309382.268          32.000          79.604
 16  6 23  4 40  0.0000000  0  9G07G05G28G20S20G13G15G30G27
   3223022.896 6  23042876.965          40.000       -3643.487
   2625569.804 7  20858702.924          46.000       -1918.546
 -14479242.612 7  21835828.128          46.000        1028.005
  -5262618.150 7  21770940.157          45.000        1108.653
  51552469.271 6  38663136.125          38.000        -695.230
 -14851791.651 8  20762418.521          49.000         969.554
  -4970027.843 8  23035323.481          48.000        2327.476
  -2028180.575 7  21134225.634          42.000       -2674.249
   1759720.26613  25522872.507          23.000       -1471.311
 16  6 23  4 41  0.0000000  0  9G07G05G28G20S20G13G15G30G27
   3441987.002 6  23084542.292          40.000       -3654.692
   2741857.831 7  20880832.750          46.000       -1956.351
 -14539910.731 7  21824284.722          46.000         995.459
  -5328055.552 7  21758488.537          46.000        1073.491
  51594205.327 6  38671077.422          38.000        -693.677
 -14909283.120 8  20751478.194          48.000         948.174
  -5109293.101 8  23008822.255          49.000        2316.408
  -1866971.713 7  21164901.668          42.000       -2699.150
   1849442.80711  25539942.414           8.000       -1520.156
 16  6 23  4 42  0.0000000  0  9G07G05G28G20S20G13G15G30G21
   3661551.778 6  23126325.774          41.000       -3664.681
   2860332.286 7  20903378.431          46.000       -1992.031
 -14598662.643 7  21813102.989          45.000         963.512
  -5391444.320 7  21746424.433          45.000        1039.255
  51635911.804 6  38679014.288          38.000        -694.340
 -14965519.526 8  20740775.993          48.000         927.155
  -5247942.980 8  22982439.916          50.000        2305.933
  -1704376.101 7  21195842.196          42.000       -2721.401
   -549433.96814  25308155.884          27.000         -10.496
 16  6 23  4 43  0.0000000  0  8G07G05G28G20S20G13G15G30
   3881687.425 7  23168215.510          42.000       -3673.926
   2980967.524 7  20926333.023          46.000       -2029.332
 -14655502.111 7  21802287.048          45.000         931.099
  -5452785.869 7  21734752.262          46.000        1004.756
  51677576.352 6  38686943.143          38.000        -695.211
 -15020509.116 8  20730310.976          48.000         905.150
  -5385983.829 8  22956171.283          50.000        2295.248
  -1540425.647 7  21227039.834          42.000       -2744.160
 16  6 23  4 44  0.0000000  0  9G07G05G28G20S20G13G15G30G27
   4102461.987 7  23210227.433          43.000       -3684.518
   3103837.097 7  20949716.001          46.000       -2065.859
 -14710335.204 7  21791854.923          46.000         897.180
  -5511984.013 8  21723489.490          48.000         969.073
  51719275.272 6  38694877.914          38.000        -695.500
 -15074162.175 7  20720099.858          47.000         883.617
  -5523323.743 8  22930035.481          49.000        2283.413
  -1375053.766 7  21258510.622          43.000       -2767.538
     90149.64813  25593561.210          20.000       -1623.433
 16  6 23  4 45  0.0000000  0  8G07G05G28G20S20G13G15G30
   4323839.562 7  23252355.172          44.000       -3694.845
   3228908.608 7  20973515.445          45.000       -2103.332
 -14763172.216 7  21781799.410          45.000         863.434
  -5569047.523 7  21712630.551          47.000         932.851
  51760989.869 6  38702816.524          38.000        -696.023
 -15126492.927 7  20710144.143          47.000         860.362
  -5659974.832 8  22904031.359          49.000        2271.337
  -1208298.751 7  21290244.279          44.000       -2791.632
 16  6 23  4 46  0.0000000  0  9G07G05G28G20S20G13G15G30G21
   4545837.881 7  23294600.370          44.000       -3704.649
   3356204.174 7  20997737.953          45.000       -2140.071
 -14813969.612 7  21772131.483          45.000         829.751
  -5623930.777 7  21702185.235          46.000         896.715
  51802741.568 6  38710761.835          38.000        -695.683
 -15177461.078 7  20700445.190          47.000         838.478
  -5795894.544 8  22878167.833          49.000        2259.747
  -1040143.889 7  21322243.493          45.000       -2813.810
   -535775.38114  25311396.215          28.000        -132.510
 16  6 23  4 47  0.0000000  0  9G07G05G28G20S20G13G15G30G21
   4768414.458 7  23336956.812          44.000       -3714.470
   3485684.824 7  21022378.428          46.000       -2177.096
 -14862745.129 7  21762850.533          45.000         795.946
  -5676649.673 7  21692150.958          45.000         860.194
  51844496.121 6  38718707.076          38.000        -695.794
 -15227088.287 7  20691000.730          47.000         815.736
  -5931102.009 8  22852440.907          50.000        2246.908
   -870634.587 7  21354500.640          45.000       -2836.432
   -527539.92314  25313090.840          29.000        -163.926
 16  6 23  4 48  0.0000000  0  8G07G05G28G20S20G13G15G30
   4991635.785 7  23379430.049          43.000       -3725.862
   3617419.788 7  21047448.266          46.000       -2213.555
 -14909407.735 7  21753968.564          44.000         760.438
  -5727111.167 7  21682550.756          46.000         822.497
  51886337.315 6  38726667.953          38.000        -697.392
 -15275286.256 8  20681830.205          48.000         791.325
  -6065506.718 8  22826860.807          48.000        2233.683
   -699706.202 7  21387024.582          43.000       -2859.769
 16  6 23  4 49  0.0000000  0  8G07G05G28G20S20G13G15G30
   5215429.059 7  23422018.963          44.000       -3734.211
   3751338.523 7  21072929.877          45.000       -2250.094
 -14954006.286 7  21745483.692          45.000         726.405
  -5775361.332 7  21673370.877          47.000         785.755
  51928200.783 6  38734634.797          38.000        -697.664
 -15322106.532 7  20672919.408          47.000         769.225
  -6199157.911 8  22801429.174          48.000        2221.230
   -527433.732 7  21419807.364          44.000       -2882.294
 16  6 23  4 50  0.0000000  0  8G07G05G28G20S20G13G15G30
   5439765.264 7  23464709.280          43.000       -3744.018
   3887414.464 7  21098825.232          45.000       -2286.917
 -14996546.228 7  21737390.560          46.000         690.218
  -5821404.320 7  21664608.197          46.000         747.808
  51970078.889 6  38742604.469          38.000        -698.623
 -15367557.461 7  20664270.086          46.000         745.217
  -6332061.128 7  22776138.469          47.000        2207.843
   -353849.325 7  21452839.056          44.000       -2904.608
 16  6 23  4 51  0.0000000  0  8G07G05G28G20S20G13G15G30
   5664712.263 6  23507511.506          41.000       -3753.954
   4025716.769 7  21125145.239          46.000       -2322.647
 -15036937.183 7  21729703.984          47.000         655.657
  -5865146.509 7  21656283.571          46.000         710.010
  52012056.109 6  38750593.510          38.000        -699.922
 -15411550.081 7  20655898.256          46.000         721.554
  -6464124.872 7  22751004.501          45.000        2194.429
   -178887.640 7  21486134.211          45.000       -2926.635
 16  6 23  4 52  0.0000000  0  8G07G05G28G20S20G13G15G30
   5890246.932 7  23550433.475          42.000       -3763.961
   4166225.288 7  21151881.345          45.000       -2360.240
 -15075177.896 7  21722427.295          47.000         619.378
  -5906585.362 7  21648397.451          46.000         671.546
  52054118.759 6  38758596.477          38.000        -702.293
 -15454085.415 7  20647802.873          45.000         696.740
  -6595347.468 7  22726037.079          45.000        2180.074
     -2573.357 7  21519687.402          47.000       -2949.630
 16  6 23  4 53  0.0000000  0  8G07G05G28G20S20G13G15G30
   6116391.590 6  23593464.996          41.000       -3774.273
   4308961.647 7  21179041.074          43.000       -2397.097
 -15111224.686 7  21715566.794          47.000         582.938
  -5945674.206 7  21640960.413          46.000         632.123
  52096304.057 6  38766625.235          38.000        -704.040
 -15495121.013 7  20639995.594          46.000         671.470
  -6725683.861 7  22701232.851          45.000        2165.168
    175112.250 7  21553500.724          47.000       -2971.936
 16  6 23  4 54  0.0000000  0  8G07G05G28G20S20G13G15G30
   6343062.922 7  23636604.290          42.000       -3782.393
   4453843.542 7  21206614.075          45.000       -2433.029
 -15145138.266 7  21709112.151          46.000         547.392
  -5982471.950 7  21633957.099          46.000         593.925
  52138531.179 6  38774659.856          38.000        -704.109
 -15534719.044 7  20632461.061          46.000         647.372
  -6855192.798 7  22676589.252          46.000        2151.132
    354083.711 7  21587556.482          47.000       -2993.827
 16  6 23  4 55  0.0000000  0  8G07G05G28G20S20G13G15G30
   6570294.290 6  23679842.963          41.000       -3791.370
   4600905.398 7  21234596.843          45.000       -2468.654
 -15176862.968 7  21703075.457          46.000         510.911
  -6016920.743 7  21627401.698          47.000         554.966
  52180841.905 6  38782711.282          38.000        -705.635
 -15572824.779 7  20625210.164          46.000         623.214
  -6983816.890 7  22652112.774          47.000        2136.217
    534371.875 7  21621864.133          47.000       -3015.015
 16  6 23  4 56  0.0000000  0 10G07G05G28G20S20G13G15G30G08G21
   6798034.373 6  23723180.824          40.000       -3800.689
   4750094.739 7  21262988.871          46.000       -2504.624
 -15206430.486 7  21697450.676          46.000         474.532
  -6049049.384 7  21621287.282          47.000         515.341
  52223206.908 6  38790773.265          38.000        -707.245
 -15609470.638 7  20618236.778          47.000         598.361
  -7111585.429 7  22627797.535          47.000        2121.950
    715921.435 7  21656411.534          47.000       -3036.626
    112354.50914  25224644.272          29.000        -478.665
   -368545.87614  25344771.676          29.000        -452.327
 16  6 23  4 57  0.0000000  0  8G07G05G28G20S20G13G15G30
   7026362.244 6  23766628.603          39.000       -3809.726
   4901490.081 7  21291798.762          46.000       -2541.814
 -15233740.766 7  21692254.857          46.000         436.917
  -6078755.621 7  21615634.266          46.000         475.806
  52265720.803 6  38798864.058          38.000        -708.947
 -15644555.789 7  20611559.417          46.000         571.849
  -7238394.815 7  22603667.549          47.000        2105.820
    898808.844 7  21691213.550          46.000       -3058.587
 16  6 23  4 58  0.0000000  0  9G07G05G28G20S20G13G15G30G21
   7255249.997 6  23810185.079          39.000       -3819.850
   5055063.021 7  21321022.083          46.000       -2578.119
 -15258800.696 7  21687482.135          44.000         398.327
  -6106044.225 7  21610440.034          44.000         434.442
  52308362.982 6  38806977.083          38.000        -711.385
 -15678088.340 7  20605177.855          46.000         545.785
  -7364249.603 7  22579717.544          47.000        2088.924
   1083003.294 7  21726265.558          47.000       -3080.992
   -312031.02114  25355871.969          29.000        -519.515
 16  6 23  5  1  0.0010000  0  9G07G05G28G20S20G13G15G30G21
   7945498.526 6  23941536.952          36.000       -3849.144
   5529056.978 7  21411220.374          45.000       -2688.716
 -15320060.068 7  21675827.152          45.000         281.737
  -6172961.081 7  21597709.508          47.000         308.869
  52437387.156 6  38831531.233          38.000        -722.141
 -15768945.340 7  20587889.907          46.000         463.332
  -7735629.804 7  22509049.153          46.000        2036.233
   1643622.944 8  21832947.412          48.000       -3147.870
   -211495.40014  25375403.893          27.000        -620.872
 16  6 23  5  2  0.0010000  0  9G07G05G28G20S20G13G15G30G21
   8176788.590 6  23985551.182          36.000       -3859.220
   5691486.149 7  21442129.282          46.000       -2724.958
 -15335761.764 7  21672840.931          46.000         242.141
  -6190197.751 7  21594429.983          47.000         266.137
  52480808.386 6  38839793.789          38.000        -726.153
 -15795902.915 7  20582758.653          46.000         435.340
  -7857268.171 7  22485900.165          44.000        2018.076
   1833176.190 7  21869018.373          47.000       -3169.944
   -173142.27114  25382699.026          26.000        -656.655
 16  6 23  5  3  0.0010000  0  8G07G05G28G20S20G13G15G30
   8408577.335 5  24029657.218          34.000       -3866.931
   5856021.137 7  21473440.242          46.000       -2759.301
 -15349179.009 7  21670286.342          45.000         205.603
  -6204970.551 7  21591618.509          47.000         226.421
  52524359.352 6  38848080.670          38.000        -726.950
 -15821268.588 7  20577932.778          46.000         409.676
  -7977894.894 7  22462947.772          46.000        2002.396
   2023959.307 7  21905323.656          47.000       -3189.433
 16  6 23  5  4  0.0010000  0  9G07G05G28G20S20G13G15G30G21
   8640802.44315  24073844.747          32.000       -3874.083
   6022596.445 7  21505138.231          46.000       -2793.329
 -15360356.718 7  21668155.216          43.000         166.436
  -6217321.718 7  21589267.354          47.000         184.668
  52567982.189 6  38856381.582          38.000        -728.934
 -15845085.503 7  20573399.333          45.000         383.400
  -8097549.981 7  22440175.692          47.000        1985.570
   2215906.127 7  21941850.888          47.000       -3209.278
    -90802.12414  25398411.656          25.000        -716.881
 16  6 23  5  5  0.0010000  0  9G07G05G28G20S20G13G15G30G21
   8873507.99315  24118136.244          32.000       -3881.022
   6191253.822 7  21537234.015          47.000       -2827.746
 -15369233.770 7  21666467.833          43.000         129.208
  -6227187.609 8  21587390.443          48.000         143.617
  52611737.152 6  38864708.965          38.000        -729.339
 -15867289.929 7  20569173.554          45.000         356.730
  -8216166.352 7  22417603.817          47.000        1968.622
   2409057.203 7  21978605.636          47.000       -3228.915
    -46635.68915  25406825.156          30.000        -751.810
 16  6 23  5  6  0.0010000  0  8G07G05G28G20S20G13G15G30
   9106636.07315  24162502.637          34.000       -3892.218
   6361930.001 7  21569713.495          47.000       -2862.126
 -15375850.664 7  21665211.051          44.000          90.615
  -6234606.609 8  21585979.576          48.000         102.594
  52655567.354 6  38873048.302          38.000        -731.973
 -15887921.155 7  20565248.564          45.000         330.088
  -8333777.471 8  22395224.611          48.000        1950.983
   2603351.244 7  22015578.738          46.000       -3248.263
 16  6 23  5  7  0.0010000  0 10G07G05G28G20S20G13G15G30G18G21
   9340225.76615  24206953.804          32.000       -3895.585
   6534660.605 7  21602580.840          46.000       -2896.052
 -15380152.426 7  21664390.960          43.000          53.317
  -6239521.467 8  21585044.506          48.000          60.745
  52699518.465 6  38881412.471          38.000        -733.476
 -15906919.930 7  20561633.542          46.000         302.883
  -8450321.790 7  22373045.751          47.000        1933.183
   2798823.430 7  22052776.547          46.000       -3267.816
   -906959.46613  25955674.692          20.000        2489.624
     46871.54815  25424729.446          31.000        -816.027
 16  6 23  5  8  0.0000000  0 10G05G28G20S20G13G15G30G18G21G24
   6709380.869 7  21336036.739          46.000       -2928.790
 -15382182.685 7  21364210.447          42.000          14.661
  -6241973.257 8  21284785.205          49.000          19.925
  52743551.650 6  38589999.872          38.000        -735.669
 -15924327.766 7  20258526.714          45.000         276.270
  -8565836.231 7  22051269.581          45.000        1916.394
   2995410.366 7  21790391.635          45.000       -3286.027
  -1055910.37813  25627538.162          19.000        2482.887
     96811.00115  25134443.608          32.000        -847.769
   -163765.49315  24703030.984          30.000        2729.958
 16  6 23  5  9  0.0000000  0 11G07G05G28G20S20G13G15G30G18G21G24
   9808061.22514  23996312.330          27.000       -3910.030
   6886135.258 7  21369673.482          46.000       -2962.278
 -15381876.941 7  21364269.115          42.000         -24.225
  -6241895.197 8  21284799.095          48.000         -22.139
  52787730.322 6  38598405.991          38.000        -737.136
 -15940076.336 7  20255532.309          46.000         249.322
  -8680248.215 7  22029499.353          44.000        1898.132
   3193157.392 7  21828021.582          45.000       -3305.117
  -1204177.78813  25599310.114          19.000        2464.510
    148710.43615  25144324.113          30.000        -880.497
   -327276.95815  24671917.507          30.000        2724.446
 16  6 23  5 10  0.0000000  0 11G07G05G28G20S20G13G15G30G18G21G24
  10042873.70515  24040989.529          33.000       -3915.286
   7064838.256 7  21403676.575          44.000       -2993.408
 -15379300.766 7  21364760.234          43.000         -61.600
  -6239349.886 8  21285283.444          48.000         -62.690
  52831974.983 6  38606824.918          38.000        -737.713
 -15954227.381 7  20252840.264          46.000         223.005
  -8793615.169 7  22007928.283          46.000        1881.578
   3391980.269 7  21865856.707          46.000       -3321.424
  -1351829.61113  25571208.668          19.000        2447.303
    202496.44315  25154551.843          31.000        -910.520
   -490291.54914  24640894.353          29.000        2713.773
 16  6 23  5 11  0.0000000  0 11G07G05G28G20S20G13G15G30G18G21G24
  10277979.68015  24085727.664          34.000       -3921.005
   7245407.075 7  21438037.519          44.000       -3025.283
 -15374516.552 7  21365671.484          43.000         -99.106
  -6234397.686 7  21286225.075          47.000        -103.131
  52876213.195 6  38615244.456          38.000        -737.693
 -15966839.361 7  20250439.132          46.000         197.057
  -8905991.217 7  21986541.680          47.000        1863.758
   3591798.295 7  21903880.331          46.000       -3338.916
  -1498927.04712  25543214.208          16.000        2439.351
    257841.41414  25165140.914          27.000        -942.576
   -652866.87115  24609956.880          30.000        2703.028
 16  6 23  5 12  0.0000000  0 11G07G05G28G20S20G13G15G30G08G21G24
  10513433.45815  24130533.210          30.000       -3926.445
   7427890.112 7  21472763.261          45.000       -3056.562
 -15367456.132 7  21367015.203          43.000        -136.620
  -6226967.658 7  21287637.269          46.000        -144.190
  52920515.285 6  38623674.517          38.000        -738.208
 -15977839.988 7  20248344.355          45.000         170.726
  -9017299.667 7  21965361.234          47.000        1846.806
   3792661.490 7  21942104.177          47.000       -3355.709
    554592.42614  25069157.422          27.000       -1095.113
    315311.52014  25176066.670          24.000        -972.682
   -814930.31015  24579119.309          30.000        2697.601
 16  6 23  5 13  0.0000000  0 11G07G05G28G20S20G13G15G30G18G21G24
  10749108.09411  24175356.223           9.000       -3937.302
   7612178.596 7  21507831.149          44.000       -3086.713
 -15358207.911 7  21368773.469          42.000        -172.147
  -6217146.355 8  21289509.590          48.000        -183.584
  52964783.548 6  38632099.656          38.000        -737.597
 -15987313.278 7  20246542.132          45.000         145.120
  -9127619.074 7  21944367.802          47.000        1829.947
   3994463.733 7  21980507.064          47.000       -3371.439
  -1791479.34513  25487559.583          23.000        2422.374
    374569.14415  25187340.628          31.000       -1003.413
   -976565.23615  24548365.219          30.000        2687.507
 16  6 23  5 14  0.0000000  0 12G07G05G28G20S20G13G15G30G08G18G21G24
  10985027.99616  24220285.368          36.000       -3936.243
   7798285.468 7  21543249.280          46.000       -3118.323
 -15346739.385 6  21370953.874          41.000        -210.611
  -6204899.415 7  21291839.054          47.000        -225.239
  53009054.094 6  38640521.725          38.000        -739.765
 -15995221.475 7  20245038.272          45.000         117.884
  -9236907.488 7  21923568.661          45.000        1811.821
   4197220.536 7  22019087.680          45.000       -3388.344
    689149.50914  25094987.060          29.000       -1169.153
  -1936805.84912  25459890.500          14.000        2408.790
    435614.45615  25198968.510          34.000       -1033.000
  -1137734.22715  24517689.604          33.000        2681.504
 16  6 23  5 15  0.0000000  0 12G07G05G28G20S20G13G15G30G08G18G21G24
  11221362.826 6  24265252.468          38.000       -3941.594
   7986311.276 7  21579030.358          46.000       -3149.509
 -15332930.369 7  21373584.023          42.000        -249.344
  -6190103.443 7  21294653.111          46.000        -267.692
  53053438.207 6  38648968.154          38.000        -739.933
 -16001439.314 7  20243855.217          45.000          89.845
  -9345034.909 7  21902993.947          44.000        1792.354
   4401035.491 7  22057874.436          46.000       -3405.673
    759973.74015  25108544.710          31.000       -1207.502
  -2081404.95512  25432361.874          15.000        2402.522
    498570.60815  25210964.820          30.000       -1068.210
  -1298310.748 5  24487140.642          34.000        2670.916
 16  6 23  5 16  0.0000000  0 12G07G05G28G20S20G13G15G30G08G18G21G24
  11457999.387 5  24310281.655          33.000       -3945.309
   8176179.031 7  21615159.341          45.000       -3179.586
 -15316838.623 7  21376646.641          42.000        -286.916
  -6172814.420 8  21297946.299          48.000        -308.713
  53097885.941 6  38657424.686          38.000        -740.596
 -16006019.009 7  20242982.758          45.000          62.632
  -9452048.782 7  21882632.108          46.000        1774.726
   4605834.081 7  22096845.554          45.000       -3421.141
    833483.46314  25122535.353          29.000       -1243.303
  -2225292.47813  25404996.844          20.000        2390.669
    563370.89214  25223292.264          28.000       -1094.073
  -1458347.39915  24456683.957          34.000        2661.408
 16  6 23  5 17  0.0000000  0 11G07G05G28G20S20G13G15G30G18G21G24
  11694882.70515  24355349.705          31.000       -3949.409
   8367825.459 7  21651626.858          45.000       -3208.162
 -15298507.604 7  21380138.779          43.000        -323.763
  -6153073.224 7  21301701.097          47.000        -349.093
  53142355.687 6  38665887.780          38.000        -740.492
 -16008998.617 7  20242417.511          45.000          36.664
  -9557981.916 7  21862472.011          46.000        1756.424
   4811557.034 7  22135994.507          46.000       -3436.036
  -2368521.35214  25377752.186          25.000        2381.798
    629963.62114  25235965.345          29.000       -1122.603
  -1617881.54415  24426328.064          34.000        2655.492
 16  6 23  5 18  0.0000000  0 12G07G05G28G20S20G13G15G30G08G18G21G24
  11931996.84915  24400484.187          32.000       -3954.671
   8561228.511 7  21688433.590          46.000       -3238.627
 -15277941.269 7  21384049.041          42.000        -361.852
  -6130881.811 8  21305925.254          48.000        -390.780
  53186831.950 6  38674351.607          38.000        -741.292
 -16010374.914 7  20242154.204          45.000           8.887
  -9662826.310 7  21842522.015          47.000        1737.982
   5018185.506 7  22175312.377          45.000       -3452.049
    985974.62915  25151766.003          32.000       -1319.890
  -2511088.43113  25350622.838          19.000        2370.156
    698336.47514  25248949.721          26.000       -1154.565
  -1776909.65115  24396067.694          31.000        2644.382
 16  6 23  5 19  0.0000000  0 12G07G05G28G20S20G13G15G30G08G18G21G24
  12169376.35615  24445658.595          32.000       -3958.219
   8756413.132 7  21725575.751          47.000       -3267.643
 -15255093.898 6  21388393.046          40.000        -399.022
  -6106192.614 7  21310621.945          47.000        -431.790
  53231354.500 6  38682824.543          38.000        -741.687
 -16010096.979 7  20242207.305          45.000         -17.994
  -9766525.737 7  21822789.099          46.000        1719.146
   5225749.089 7  22214810.788          45.000       -3467.247
   1066119.96615  25167015.992          32.000       -1354.493
  -2652903.25913  25323635.030          21.000        2372.914
    768531.00415  25262323.620          30.000       -1183.302
  -1935379.74715  24365905.463          31.000        2636.106
 16  6 23  5 20  0.0000000  0 12G07G05G28G20S20G13G15G30G08G18G21G24
  12406948.91114  24490869.806          29.000       -3960.692
   8953298.915 7  21763041.089          46.000       -3295.212
 -15230028.715 7  21393165.489          42.000        -436.604
  -6079066.334 7  21315783.632          47.000        -471.840
  53275863.796 6  38691293.081          38.000        -741.064
 -16008221.135 7  20242565.681          46.000         -44.062
  -9869130.821 7  21803263.719          45.000        1701.315
   5434170.648 7  22254473.074          46.000       -3480.966
   1148434.54415  25182674.352          31.000       -1390.312
  -2794043.88713  25296793.750          20.000        2343.781
    840462.72915  25276009.250          32.000       -1212.900
  -2093347.597 5  24335849.505          35.000        2628.276
 16  6 23  5 21  0.0000000  0 12G07G05G28G20S20G13G15G30G08G18G21G24
  12644688.74114  24536101.259          27.000       -3964.010
   9151852.202 7  21800823.271          45.000       -3323.561
 -15202759.775 7  21398355.899          43.000        -473.736
  -6049515.617 7  21321406.284          46.000        -513.120
  53320340.544 6  38699756.070          38.000        -741.683
 -16004754.565 7  20243224.531          45.000         -71.728
  -9970643.504 7  21783945.647          45.000        1681.982
   5643421.661 7  22294292.691          46.000       -3494.566
   1232898.74215  25198752.581          35.000       -1426.608
  -2934443.67214  25270065.444          25.000        2334.388
    914120.56415  25290025.195          35.000       -1242.847
  -2250820.294 5  24305878.215          34.000        2620.795
 16  6 23  5 22  0.0000000  0 12G07G05G28G20S20G13G15G30G08G18G21G24
  12882612.11914  24581369.287          29.000       -3966.367
   9352080.627 7  21838929.015          47.000       -3350.773
 -15173261.250 7  21403969.023          43.000        -509.806
  -6017511.703 7  21327496.986          47.000        -553.185
  53364819.944 6  38708220.630          38.000        -740.490
 -15999664.184 7  20244193.838          46.000         -98.390
 -10071024.846 7  21764845.494          47.000        1664.163
   5853514.079 7  22334271.279          44.000       -3507.873
   1319534.52015  25215239.983          35.000       -1461.304
  -3074126.62515  25243489.827          30.000        2323.035
    989519.39515  25304381.506          32.000       -1270.346
  -2407763.040 5  24276012.656          34.000        2610.657
 16  6 23  5 23  0.0000000  0 12G07G05G28G20S20G13G15G30G08G18G21G24
  13120642.54515  24626676.649          34.000       -3967.556
   9553898.218 7  21877332.302          46.000       -3376.708
 -15141600.946 7  21409992.734          43.000        -545.173
  -5983120.292 7  21334042.039          47.000        -592.705
  53409239.458 6  38716674.789          38.000        -739.598
 -15993009.589 7  20245457.897          45.000        -123.737
 -10170329.598 7  21745947.850          47.000        1646.264
   6064367.167 7  22374396.991          44.000       -3520.421
   1408270.40315  25232121.237          33.000       -1496.643
  -3213119.19515  25217038.403          32.000        2311.258
   1066582.89814  25319043.284          24.000       -1299.098
  -2564236.47115  24246237.210          35.000        2603.595
 16  6 23  5 24  0.0000000  0 12G07G05G28G20S20G13G15G30G08G18G21G24
  13358753.113 5  24671989.402          34.000       -3968.124
   9757267.632 7  21916031.825          45.000       -3402.298
 -15107797.140 7  21416426.699          43.000        -581.030
  -5946358.517 8  21341038.495          48.000        -632.662
  53453568.496 6  38725109.404          38.000        -736.568
 -15984802.663 7  20247021.594          46.000        -149.729
 -10268563.381 7  21727253.432          46.000        1627.585
   6275948.659 7  22414658.116          44.000       -3532.237
   1499081.50815  25249405.067          30.000       -1531.670
  -3351422.29615  25190713.737          30.000        2299.139
   1145287.21615  25334024.279          31.000       -1324.100
  -2720250.22215  24216543.274          33.000        2595.031
 16  6 23  5 25  0.0000000  0 12G07G05G28G20S20G13G15G30G08G18G21G24
  13596933.52315  24717312.696          31.000       -3970.137
   9962168.759 7  21955021.300          44.000       -3427.994
 -15071852.198 7  21423269.644          45.000        -617.181
  -5907226.816 8  21348485.218          48.000        -671.759
  53497802.591 6  38733526.447          38.000        -736.546
 -15975037.765 7  20248880.199          46.000        -175.628
 -10365714.343 7  21708768.190          47.000        1609.971
   6488244.106 7  22455059.121          45.000       -3544.152
   1591963.37114  25267070.428          27.000       -1564.218
  -3489019.57315  25164526.160          30.000        2288.127
   1225616.13715  25349290.165          34.000       -1353.175
  -2875798.228 5  24186946.483          35.000        2588.365
 16  6 23  5 26  0.0000000  0 12G07G05G28G20S20G13G15G30G08G18G21G24
  13835237.39414  24762654.958          29.000       -3972.465
  10168646.086 7  21994315.386          45.000       -3454.353
 -15033703.825 7  21430528.603          44.000        -653.433
  -5865660.234 8  21356395.716          48.000        -712.731
  53542009.757 6  38741939.511          38.000        -737.327
 -15963643.299 7  20251047.935          45.000        -203.043
 -10461705.802 7  21690500.028          45.000        1590.527
   6701303.969 7  22495599.572          43.000       -3557.136
   1686970.24014  25285154.263          29.000       -1601.439
  -3625830.35515  25138492.076          31.000        2273.815
   1307626.78515  25364908.948          32.000       -1378.420
  -3030808.851 6  24157449.350          36.000        2578.874
 16  6 23  5 27  0.0000000  0 11G07G05G28G20S20G13G15G30G08G18G24
  14073645.97915  24808022.906          32.000       -3973.484
  10376670.811 7  22033901.013          44.000       -3479.634
 -14993364.050 6  21438196.421          39.000        -689.395
  -5821669.870 7  21364765.538          47.000        -753.259
  53586175.484 6  38750342.541          38.000        -734.443
 -15950623.468 7  20253523.824          44.000        -230.749
 -10556535.018 7  21672454.391          45.000        1570.695
   6915104.462 7  22536286.377          43.000       -3569.559
   1784087.43715  25303637.150          32.000       -1633.626
  -3761847.31215  25112612.112          33.000        2258.820
  -3185284.778 6  24128053.063          36.000        2570.417
 16  6 23  5 28  0.0000000  0 12G07G05G28G20S20G13G15G30G08G18G21G24
  14312175.03214  24853413.366          29.000       -3977.666
  10586248.139 7  22073779.734          43.000       -3506.720
 -14950809.997 7  21446299.587          42.000        -728.211
  -5775230.511 8  21373603.498          48.000        -795.085
  53630333.128 6  38758745.728          38.000        -736.931
 -15935945.977 7  20256316.225          44.000        -258.784
 -10650164.393 7  21654636.462          44.000        1549.731
   7129657.367 7  22577114.600          44.000       -3582.680
   1883332.23115  25322522.055          33.000       -1672.830
  -3897027.59415  25086890.351          34.000        2246.642
   1476250.64715  25397074.672          30.000       -1438.571
  -3339192.789 6  24098771.039          39.000        2560.133
 16  6 23  5 29  0.0000000  0 12G07G05G28G20S20G13G15G30G08G18G21G24
  14550886.43213  24898847.887          22.000       -3979.695
  10797437.486 7  22113971.512          45.000       -3533.303
 -14905964.649 7  21454837.717          44.000        -767.551
  -5726263.207 8  21382921.443          48.000        -837.699
  53674566.965 6  38767164.185          38.000        -737.296
 -15919525.424 7  20259443.584          45.000        -288.615
 -10742501.021 7  21637064.913          45.000        1527.529
   7345028.815 7  22618099.682          43.000       -3596.760
   1984778.63414  25341828.941          29.000       -1708.688
  -4031274.58515  25061343.389          33.000        2227.823
   1563348.74214  25413641.159          27.000       -1466.754
  -3492446.336 6  24069603.994          39.000        2547.770
 16  6 23  5 30  0.0000000  0 11G07G05G28G20S20G13G15G30G08G18G24
  14789823.03413  24944347.270          22.000       -3985.642
  11010240.917 7  22154464.445          44.000       -3559.917
 -14858808.387 7  21463811.090          43.000        -805.344
  -5674747.488 7  21392723.998          47.000        -879.628
  53718887.332 6  38775597.456          38.000        -738.800
 -15901333.051 7  20262905.811          45.000        -317.664
 -10833510.652 7  21619748.068          46.000        1505.714
   7561227.576 6  22659239.809          40.000       -3609.332
   2088440.52514  25361558.785          28.000       -1745.368
  -4164549.57115  25035977.910          32.000        2215.665
  -3645016.043 6  24040575.121          40.000        2537.820
 16  6 23  5 31  0.0000000  0 10G05G28G20S20G13G15G30G08G18G24
  11224628.606 7  22195260.053          43.000       -3586.684
 -14809354.516 6  21473219.287          40.000        -844.314
  -5620694.981 7  21403009.750          47.000        -922.953
  53763280.678 6  38784044.478          38.000        -741.470
 -15881372.024 7  20266704.706          46.000        -348.290
 -10923190.395 7  21602682.837          46.000        1482.712
   7778230.400 6  22700530.950          38.000       -3622.677
   2194299.69814  25381696.947          25.000       -1783.742
  -4296844.87614  25010801.957          29.000        2196.296
  -3796905.059 6  24011670.528          40.000        2525.507
 16  6 23  5 32  0.0000000  0 10G05G28G20S20G13G15G30G08G18G24
  11440664.563 7  22236370.253          43.000       -3614.308
 -14757522.395 6  21483073.181          36.000        -884.288
  -5564023.173 7  21413794.141          47.000        -966.226
  53807835.322 6  38792522.632          38.000        -743.459
 -15859552.443 7  20270854.874          45.000        -378.824
 -11011442.816 7  21585888.852          46.000        1459.263
   7996108.800 6  22741987.660          37.000       -3639.257
   2302424.03714  25402276.251          26.000       -1820.274
  -4428058.81314  24985837.187          28.000        2178.545
  -3948020.375 6  23982911.191          39.000        2513.122
 16  6 23  5 33  0.0000000  0 10G05G28G20S20G13G15G30G08G18G24
  11658297.656 7  22277783.825          43.000       -3640.693
 -14703346.657 6  21493391.320          41.000        -922.212
  -5504765.861 8  21425071.571          48.000       -1009.486
  53852515.784 6  38801026.262          38.000        -746.375
 -15835899.207 7  20275356.315          45.000        -409.848
 -11098286.555 7  21569362.937          46.000        1435.508
   8214818.586 6  22783612.711          41.000       -3652.386
   2412792.08815  25423278.041          31.000       -1856.944
  -4558204.75915  24961073.548          31.000        2160.023
  -4098386.376 6  23954299.691          40.000        2499.734
 16  6 23  5 34  0.0000000  0 12G07G05G28G20S20G13G15G30G08G18G21G24
  15746944.93314  25126617.814          26.000       -4003.840
  11877606.924 7  22319517.155          43.000       -3670.135
 -14646731.987 6  21504163.636          40.000        -965.137
  -5442826.024 8  21436858.426          48.000       -1056.001
  53897429.410 6  38809570.517          38.000        -752.413
 -15810306.282 7  20280226.915          45.000        -444.013
 -11183608.738 7  21553127.063          46.000        1407.840
   8434446.409 7  22825408.129          42.000       -3669.546
   2525484.95015  25444725.825          30.000       -1899.267
  -4687165.43814  24936520.952          25.000        2139.776
    189061.70014  25501550.557          28.000       -1617.910
  -4247896.140 6  23925847.024          40.000        2483.217
 16  6 23  5 35  0.0000000  0 10G05G28G20S20G13G15G30G08G18G24
  12098769.150 7  22361602.823          43.000       -3701.648
 -14587485.960 6  21515435.098          39.000       -1008.911
  -5378009.469 8  21449192.013          48.000       -1104.179
  53942778.422 6  38818201.849          38.000        -759.488
 -15782570.885 7  20285504.437          44.000        -480.410
 -11267199.444 7  21537218.135          44.000        1378.143
   8655176.751 7  22867410.070          43.000       -3688.063
   2640691.48214  25466641.885          28.000       -1940.742
  -4814725.66615  24912252.114          30.000        2114.280
  -4396345.227 7  23897599.798          42.000        2465.016
 16  6 23  5 36  0.0010000  0 11G07G05G28G20S20G13G15G30G08G18G24
  16228264.89712  25218186.261          12.000       -4030.044
  12321850.712 6  22404050.111          41.000       -3732.707
 -14525528.565 6  21527225.024          39.000       -1053.372
  -5310235.821 8  21462088.125          48.000       -1153.953
  53988641.060 6  38826929.732          38.000        -767.796
 -15752602.786 7  20291207.221          44.000        -517.642
 -11348963.390 7  21521659.504          45.000        1347.967
   8877083.988 7  22909639.911          44.000       -3707.678
   2758486.80615  25489060.896          34.000       -1983.996
  -4940789.09915  24888267.768          33.000        2088.326
  -4543645.785 6  23869568.031          40.000        2445.478
 16  6 23  5 37  0.0010000  0 11G05G28G20S20G13G15G30G08G18G21G24
  12546751.503 7  22446850.121          42.000       -3763.519
 -14460938.376 6  21539517.254          39.000       -1098.275
  -5239581.844 8  21475533.605          48.000       -1201.908
  54034949.741 6  38835743.628          38.000        -774.595
 -15720469.203 7  20297321.358          44.000        -553.097
 -11428957.164 7  21506438.761          46.000        1318.505
   9100076.858 7  22952073.938          44.000       -3725.414
   2878786.205 6  25511954.272          37.000       -2025.191
  -5065404.74715  24864548.577          31.000        2059.207
    486764.55114  25558742.198          28.000       -1720.280
  -4689856.824 6  23841744.461          40.000        2428.244
 16  6 23  5 38  0.0010000  0 11G07G05G28G20S20G13G15G30G08G18G24
  16711773.37512  25310212.113          17.000       -4026.226
  12773498.824 7  22489998.995          43.000       -3794.606
 -14393675.732 6  21552317.914          40.000       -1143.367
  -5166007.516 8  21489534.997          49.000       -1250.899
  54081737.845 6  38844646.310          38.000        -783.883
 -15686119.470 7  20303859.100          44.000        -590.751
 -11507124.452 7  21491566.429          47.000        1287.386
   9324190.527 7  22994720.333          44.000       -3744.664
   3001625.603 5  25535326.658          32.000       -2068.887
  -5188512.62315  24841121.555          34.000        2039.265
  -4834929.340 6  23814137.920          41.000        2408.443
 16  6 23  5 39  0.0010000  0 11G07G05G28G20S20G13G15G30G08G18G24
  16954275.35313  25356357.068          19.000       -4050.505
  13001984.272 7  22533481.971          44.000       -3822.276
 -14323834.336 6  21565609.832          40.000       -1184.872
  -5089605.180 8  21504075.147          49.000       -1296.701
  54128913.677 6  38853622.196          38.000        -789.836
 -15649635.585 7  20310801.686          44.000        -625.331
 -11583540.147 7  21477023.069          46.000        1259.394
   9549325.116 7  23037563.374          44.000       -3760.265
   3126907.39915  25559170.757          33.000       -2107.184
  -5310183.450 5  24817967.855          32.000        2016.732
  -4978943.644 7  23786732.493          42.000        2391.650
 16  6 23  5 40  0.0010000  0 12G07G05G28G20S20G13G15G30G08G18G21G24
  17197047.71012  25402560.236          16.000       -4045.512
  13232195.106 7  22577291.283          44.000       -3851.480
 -14251411.050 6  21579386.569          38.000       -1228.804
  -5010370.866 8  21519152.903          49.000       -1344.636
  54176489.192 6  38862676.032          38.000        -796.487
 -15611004.037 7  20318154.161          45.000        -662.636
 -11658182.946 7  21462817.143          45.000        1228.495
   9775476.807 7  23080596.048          42.000       -3777.664
   3254628.914 5  25583474.775          35.000       -2148.518
  -5430390.97715  24795090.952          34.000        1990.972
    803177.11614  25619411.370          29.000       -1819.959
  -5121884.366 7  23759532.751          43.000        2372.713
 16  6 23  5 41  0.0010000  0 11G05G28G20S20G13G15G30G08G18G21G24
  13464104.805 6  22621414.299          40.000       -3879.208
 -14176417.624 6  21593655.996          38.000       -1272.081
  -4928315.820 8  21534766.258          48.000       -1391.130
  54224454.269 6  38871802.304          38.000        -802.813
 -15570224.465 7  20325914.779          45.000        -697.667
 -11731045.148 7  21448955.214          47.000        1198.937
  10002628.046 7  23123823.657          43.000       -3793.926
   3384774.278 5  25608239.356          34.000       -2188.787
  -5549123.344 6  24772501.383          38.000        1965.735
    913319.14915  25640360.129          31.000       -1853.062
  -5263749.869 7  23732537.020          44.000        2355.823
 16  6 23  5 42  0.0010000  0 10G05G28G20S20G13G15G30G08G18G24
  13697591.763 6  22665846.567          41.000       -3903.128
 -14098961.989 6  21608400.820          41.000       -1309.738
  -4843546.929 8  21550897.396          48.000       -1434.125
  54272718.445 6  38880988.465          38.000        -805.739
 -15527392.689 7  20334063.298          45.000        -729.634
 -11802215.241 7  21435410.041          46.000        1173.391
  10230665.841 7  23167217.777          42.000       -3806.753
   3517230.631 5  25633444.590          34.000       -2226.550
  -5666464.030 6  24750170.147          36.000        1945.824
  -5404633.486 7  23705728.111          45.000        2341.424
 16  6 23  5 43  0.0010000  0 10G05G28G20S20G13G15G30G08G18G24
  13932488.013 7  22710548.597          42.000       -3926.129
 -14019196.875 6  21623578.356          39.000       -1347.757
  -4756216.178 8  21567517.211          49.000       -1476.859
  54321139.102 6  38890203.158          38.000        -808.909
 -15482649.591 7  20342578.271          45.000        -761.720
 -11871825.591 7  21422163.266          46.000        1146.775
  10459432.399 7  23210750.748          42.000       -3818.145
   3651841.15215  25659059.608          30.000       -2258.312
  -5782541.578 6  24728082.447          37.000        1924.278
  -5544674.910 7  23679079.098          46.000        2326.947
 16  6 23  5 44  0.0000000  0 12G07G05G28G20S20G13G15G30G08G18G21G24
  18171255.89212  25288275.758          13.000       -4076.720
  14168730.016 7  22455713.749          43.000       -3948.584
 -13937171.764 6  21339391.229          37.000       -1385.523
  -4666372.637 8  21284821.170          48.000       -1518.492
  54369664.008 6  38599643.490          38.000        -809.706
 -15436032.346 7  20051656.739          44.000        -792.798
 -11939906.118 7  21109416.206          46.000        1121.821
  10688873.491 7  22954620.884          43.000       -3829.438
   3788551.53914  25385281.920          28.000       -2297.490
  -5897381.340 5  24406434.310          34.000        1903.070
    257476.10715  25405440.551          32.000       -1933.423
  -5683908.234 7  23352792.099          47.000        2313.786
 16  6 23  5 45  0.0000000  0 11G07G05G28G20S20G13G15G30G08G18G24
  18415341.90713  25334706.896          22.000       -4071.495
  14406398.630 7  22500940.508          43.000       -3973.051
 -13852791.917 6  21355449.827          38.000       -1427.576
  -4573921.590 8  21302413.956          48.000       -1563.180
  54418389.651 6  38608916.519          38.000        -814.303
 -15387434.015 7  20060905.982          45.000        -827.001
 -12006342.042 7  21096770.993          45.000        1092.750
  10919079.546 7  22998426.218          42.000       -3843.215
   3927451.65415  25411717.325          31.000       -2334.516
  -6010863.41915  24384835.233          32.000        1879.213
  -5822225.210 7  23326471.674          47.000        2296.918
 16  6 23  5 46  0.0000000  0 12G07G05G28G20S20G13G15G30G08G18G21G24
  18659756.68712  25381205.689          16.000       -4084.517
  14645534.399 7  22546444.882          42.000       -3997.622
 -13766003.409 6  21371961.014          37.000       -1466.992
  -4478807.748 8  21320512.606          48.000       -1607.117
  54467382.905 6  38618237.169          38.000        -818.478
 -15336787.766 7  20070540.998          43.000        -860.863
 -12071057.832 7  21084458.293          46.000        1064.301
  11150100.886 6  23042386.684          41.000       -3856.013
   4068591.45514  25438566.805          24.000       -2370.749
  -6122908.84115  24363516.721          34.000        1855.682
    492681.26115  25450296.755          30.000       -1992.308
  -5959556.215 7  23300338.542          46.000        2280.975
 16  6 23  5 47  0.0000000  0 10G05G28G20S20G13G15G30G08G18G24
  14886144.082 6  22592228.512          40.000       -4022.354
 -13676785.496 6  21388943.548          40.000       -1506.330
  -4381010.782 7  21339122.758          47.000       -1651.439
  54516667.126 6  38627616.346          38.000        -823.658
 -15284060.277 7  20080574.960          44.000        -895.284
 -12134012.727 7  21072478.056          47.000        1035.390
  11381954.487 6  23086506.820          40.000       -3870.115
   4211985.93214  25465859.627          25.000       -2407.645
  -6233471.701 5  24342475.562          33.000        1831.167
  -6095866.087 7  23274398.375          44.000        2264.497
 16  6 23  5 48  0.0000000  0 11G05G28G20S20G13G15G30G08G18G21G24
  15128164.098 6  22638285.448          40.000       -4045.138
 -13585189.015 6  21406375.757          41.000       -1546.555
  -4280581.072 7  21358234.986          47.000       -1695.511
  54566210.454 6  38637043.163          38.000        -827.913
 -15229289.569 7  20090997.696          44.000        -929.905
 -12195235.795 8  21060829.303          48.000        1006.177
  11614586.893 6  23130777.656          41.000       -3883.807
   4357574.93014  25493571.933          26.000       -2444.873
  -6342577.260 6  24321716.120          36.000        1805.949
    734770.96114  25496471.863          28.000       -2050.056
  -6231189.729 7  23248648.624          44.000        2247.339
 16  6 23  5 49  0.0000000  0 11G05G28G20S20G13G15G30G08G18G21G24
  15371575.461 7  22684607.731          42.000       -4068.977
 -13491219.250 7  21424259.770          42.000       -1586.156
  -4177523.891 7  21377844.669          46.000       -1739.686
  54616020.175 6  38646523.012          38.000        -832.870
 -15172467.796 7  20101811.788          44.000        -964.163
 -12254711.619 7  21049510.114          47.000         976.056
  11847989.834 7  23175191.322          42.000       -3896.699
   4505361.53113  25521683.815          19.000       -2482.566
  -6450205.345 5  24301231.606          33.000        1781.221
    858615.87014  25520034.613          26.000       -2078.685
  -6365517.498 7  23223084.962          43.000        2230.548
 16  6 23  5 50  0.0000000  0 11G05G28G20S20G13G15G30G08G18G21G24
  15616396.664 7  22731195.869          42.000       -4092.638
 -13394844.766 6  21442598.413          41.000       -1626.700
  -4071808.213 7  21397963.199          46.000       -1784.251
  54666130.373 6  38656058.805          38.000        -837.977
 -15113550.275 7  20113020.639          43.000        -999.753
 -12312386.772 8  21038535.567          48.000         945.798
  12082192.153 7  23219759.317          42.000       -3910.684
   4655362.08914  25550238.252          29.000       -2518.686
  -6556297.82115  24281040.273          32.000        1754.513
    984177.64214  25543926.997          29.000       -2107.605
  -6498801.670 7  23197723.723          45.000        2212.477
 16  6 23  5 51  0.0000000  0 10G05G28G20S20G13G15G30G08G18G24
  15862692.954 6  22778064.222          41.000       -4116.664
 -13295987.610 6  21461412.051          41.000       -1668.302
  -3963355.633 7  21418599.530          45.000       -1830.445
  54716633.963 6  38665670.368          38.000        -845.400
 -15052446.701 7  20124649.830          43.000       -1036.875
 -12368161.269 8  21027923.008          49.000         913.897
  12317270.305 6  23264492.340          41.000       -3925.003
   4807670.72313  25579210.011          19.000       -2553.793
  -6660750.87315  24261168.803          35.000        1726.279
  -6630949.329 7  23172576.825          46.000        2193.278
 16  6 23  5 52  0.0000000  0 10G05G28G20S20G13G15G30G08G18G24
  16110457.747 6  22825207.556          39.000       -4141.443
 -13194642.306 6  21480695.885          40.000       -1710.181
  -3852161.113 7  21439760.083          46.000       -1875.821
  54767534.577 6  38675356.827          38.000        -851.667
 -14989136.613 7  20136697.042          43.000       -1073.434
 -12422007.431 8  21017675.944          49.000         881.685
  12553228.026 6  23309392.012          39.000       -3939.913
   4962245.77213  25608628.007          21.000       -2606.945
  -6763532.779 5  24241606.672          33.000        1698.689
  -6761937.373 7  23147648.177          46.000        2173.718
 16  6 23  5 53  0.0000000  0 10G05G28G20S20G13G15G30G08G18G24
  16359689.774 6  22872636.986          39.000       -4165.699
 -13090798.061 6  21500451.591          38.000       -1751.191
  -3738214.366 7  21461443.043          45.000       -1921.328
  54818847.937 6  38685120.503          38.000        -858.501
 -14923596.836 7  20149170.405          44.000       -1110.772
 -12473892.965 8  21007802.122          49.000         848.687
  12790074.892 6  23354465.069          39.000       -3953.692
   5119124.09914  25638488.034          26.000       -2633.021
  -6864606.18615  24222371.681          33.000        1669.727
  -6891738.917 7  23122948.511          47.000        2153.847
 16  6 23  5 54  0.0000000  0 10G05G28G20S20G13G15G30G08G18G24
  16610291.753 6  22920326.040          38.000       -4187.701
 -12984540.129 6  21520675.364          41.000       -1790.659
  -3621600.141 7  21483632.949          45.000       -1965.461
  54870509.732 6  38694952.235          38.000        -864.332
 -14855898.080 7  20162052.575          44.000       -1145.866
 -12523879.730 8  20998289.746          48.000         817.404
  13027725.045 6  23399685.040          39.000       -3966.877
   5278201.03513  25668755.996          19.000       -2671.150
  -6964028.696 5  24203453.656          34.000        1642.933
  -7020422.843 7  23098457.724          44.000        2134.797
 16  6 23  5 55  0.0000000  0 10G05G28G20S20G13G15G30G08G18G24
  16862193.531 6  22968262.609          40.000       -4209.050
 -12875926.015 6  21541343.890          41.000       -1829.458
  -3502378.125 7  21506321.914          45.000       -2008.697
  54922474.892 6  38704841.360          38.000        -868.736
 -14786085.556 7  20175339.310          45.000       -1180.747
 -12572003.311 8  20989131.785          48.000         786.452
  13266119.608 7  23445056.985          42.000       -3978.254
   5439438.39813  25699443.355          23.000       -2703.846
  -7061831.920 5  24184842.161          34.000        1617.730
  -7148029.861 7  23074174.768          43.000        2118.042
 16  6 23  5 56  0.0000000  0 11G05G28G20S20G13G15G30G08G18G21G24
  17115326.348 6  23016432.731          40.000       -4228.755
 -12765014.480 7  21562450.993          42.000       -1866.345
  -3380606.100 7  21529493.203          45.000       -2049.973
  54974691.919 6  38714778.003          38.000        -871.918
 -14714202.508 7  20189015.674          43.000       -1214.290
 -12618298.476 8  20980322.409          48.000         757.409
  13505201.010 7  23490550.261          42.000       -3988.610
   5602715.77213  25730514.410          19.000       -2730.483
  -7158046.355 6  24166539.849          37.000        1590.122
   1769357.94015  25694290.376          30.000       -2276.330
  -7274599.818 7  23050092.787          45.000        2102.080
 16  6 23  5 57  0.0000000  0  9G05G28G20S20G13G15G30G18G24
  17369347.440 6  23064769.782          39.000       -4240.792
 -12652136.054 7  21583931.059          42.000       -1897.807
  -3256615.425 7  21553087.817          44.000       -2084.753
  55026844.022 6  38724701.470          38.000        -868.462
 -14640565.356 7  20203029.141          44.000       -1242.277
 -12663073.385 7  20971801.677          47.000         733.598
  13744638.647 6  23536111.401          41.000       -3993.146
  -7252974.477 6  24148473.238          36.000        1571.027
  -7400446.948 7  23026144.440          45.000        2091.493
 16  6 23  5 58  0.0000000  0 11G05G28G20S20G13G15G30G08G18G21G24
  17624352.450 6  23113296.481          41.000       -4258.441
 -12537183.515 7  21605807.106          43.000       -1933.460
  -3130300.856 7  21577122.386          42.000       -2125.149
  55079039.515 6  38734634.396          38.000        -871.545
 -14565053.930 7  20217398.977          43.000       -1274.732
 -12706198.094 7  20963594.822          47.000         704.043
  13984539.585 7  23581768.098          43.000       -4003.883
   5934578.32813  25793696.483          22.000       -2794.429
  -7346483.557 6  24130679.565          37.000        1546.863
   2044200.90513  25746694.130          22.000       -2320.675
  -7525447.090 7  23002357.298          47.000        2075.250
 16  6 23  6  1  0.0000000  0  9G05G28G20S20G13G15G30G18G24
  18394795.551 7  23259909.808          43.000       -4299.327
 -12180252.309 7  21673727.332          43.000       -2029.976
  -2737789.129 7  21651816.106          42.000       -2233.872
  55235638.886 6  38764434.482          38.000        -868.041
 -14327499.214 7  20262603.347          44.000       -1363.359
 -12825800.822 7  20940834.433          47.000         625.554
  14706665.466 6  23719181.740          41.000       -4018.725
  -7618581.780 6  24078900.040          38.000        1478.526
  -7895549.616 7  22931931.186          47.000        2037.945
 16  6 23  6  2  0.0000000  0 10G05G28G20S20G13G15G30G08G18G24
  18653060.567 7  23309056.619          43.000       -4309.710
 -12057574.464 7  21697073.036          44.000       -2059.466
  -2602757.109 7  21677511.377          43.000       -2267.068
  55287567.149 6  38774316.156          38.000        -864.159
 -14244916.657 7  20278318.542          44.000       -1389.998
 -12862656.510 8  20933822.849          48.000         602.093
  14947863.147 7  23765082.025          43.000       -4021.384
   6619394.65114  25924081.997          24.000       -2904.176
  -7706702.713 6  24062131.549          37.000        1458.484
  -8017548.152 7  22908714.491          46.000        2028.236
 16  6 23  6  3  0.0000000  0  9G05G28G20S20G13G15G30G18G24
  18911980.424 7  23358327.361          43.000       -4320.538
 -11933099.754 7  21720759.421          43.000       -2089.966
  -2465683.241 7  21703597.097          44.000       -2301.595
  55339329.679 6  38784165.478          37.000        -861.171
 -14160665.230 7  20294352.151          44.000       -1417.913
 -12898019.378 8  20927093.853          48.000         576.387
  15189255.431 6  23811013.528          41.000       -4024.351
  -7793540.551 6  24045607.921          38.000        1437.159
  -8138884.467 7  22885623.595          46.000        2016.570
 16  6 23  6  4  0.0000000  0  9G05G28G20S20G13G15G30G18G24
  19171556.604 6  23407721.459          41.000       -4331.792
 -11806816.196 7  21744790.151          43.000       -2120.064
  -2326557.026 7  21730073.911          46.000       -2336.398
  55390939.402 6  38793985.571          38.000        -859.606
 -14074717.906 7  20310707.420          45.000       -1447.243
 -12931853.459 7  20920653.571          47.000         550.601
  15430856.860 6  23856990.943          41.000       -4028.741
  -7879054.401 6  24029334.598          39.000        1413.233
  -8259527.627 7  22862665.635          47.000        2004.525
 16  6 23  6  5  0.0000000  0  9G05G28G20S20G13G15G30G18G24
  19431937.716 6  23457268.315          39.000       -4345.898
 -11678566.217 7  21769194.385          43.000       -2153.903
  -2185222.238 7  21756968.396          45.000       -2374.455
  55442562.494 6  38803810.061          37.000        -861.077
 -13986902.509 7  20327414.782          43.000       -1479.369
 -12963976.929 8  20914540.986          48.000         520.988
  15672827.818 7  23903037.199          42.000       -4036.269
  -7963059.624 6  24013345.592          38.000        1386.999
  -8379301.039 7  22839874.743          47.000        1988.549
 16  6 23  6  6  0.0000000  0  9G05G28G20S20G13G15G30G18G24
  19693092.909 6  23506966.989          41.000       -4358.851
 -11548371.437 6  21793968.302          41.000       -2185.638
  -2041702.330 7  21784279.575          44.000       -2410.059
  55494200.298 6  38813637.290          38.000        -860.260
 -13897226.361 7  20344483.625          46.000       -1509.725
 -12994386.852 8  20908754.215          48.000         493.091
  15915149.934 6  23949144.356          39.000       -4041.614
  -8045547.848 6  23997651.930          39.000        1363.116
  -8498207.658 7  22817246.697          45.000        1974.634
 16  6 23  6  7  0.0010000  0  9G05G28G20S20G13G15G30G18G24
  19955013.771 7  23556811.303          42.000       -4370.537
 -11416232.719 6  21819113.996          41.000       -2217.174
  -1896000.114 7  21812005.563          44.000       -2445.953
  55545867.040 6  38823469.860          38.000        -861.167
 -13805676.121 7  20361903.009          44.000       -1541.441
 -13023062.200 8  20903298.230          48.000         463.823
  16157827.529 6  23995329.272          41.000       -4047.421
  -8126495.188 6  23982248.554          38.000        1336.773
  -8616232.470 7  22794786.749          45.000        1960.523
 16  6 23  6  8  0.0010000  0  9G05G28G20S20G13G15G30G18G24
  20217592.385 7  23606778.204          42.000       -4381.307
 -11282245.247 7  21844612.638          42.000       -2248.253
  -1748212.191 7  21840128.246          44.000       -2479.877
  55597478.161 6  38833291.907          38.000        -860.389
 -13712330.374 7  20379666.737          44.000       -1570.131
 -13050067.940 7  20898158.373          47.000         436.371
  16400766.014 6  24041562.629          41.000       -4051.089
  -8205961.325 6  23967123.560          39.000        1311.596
  -8733442.398 7  22772483.120          46.000        1946.944
 16  6 23  6  9  0.0010000  0  9G05G28G20S20G13G15G30G18G24
  20480750.378 7  23656856.298          42.000       -4390.538
 -11146479.329 7  21870448.174          42.000       -2277.130
  -1598410.899 7  21868633.369          44.000       -2513.255
  55648981.835 6  38843092.403          38.000        -857.534
 -13617246.140 7  20397760.658          45.000       -1598.818
 -13075452.539 8  20893328.380          48.000         409.451
  16643900.694 6  24087828.531          40.000       -4053.997
  -8283991.001 6  23952269.813          37.000        1287.769
  -8849892.331 7  22750323.280          46.000        1934.508
 16  6 23  6 10  0.0010000  0  9G05G28G20S20G13G15G30G18G24
  20744447.938 6  23707035.184          41.000       -4399.190
 -11008967.643 7  21896615.805          43.000       -2305.218
  -1446631.524 7  21897518.104          45.000       -2545.194
  55700346.589 6  38852865.398          38.000        -854.018
 -13520441.170 7  20416181.422          44.000       -1626.865
 -13099223.670 7  20888804.638          47.000         383.447
  16887203.097 6  24134121.568          38.000       -4055.451
  -8360587.967 6  23937696.769          39.000        1265.197
  -8965595.311 7  22728306.428          45.000        1923.149
 16  6 23  6 11  0.0010000  0  9G05G28G20S20G13G15G30G18G24
  21008515.126 6  23757279.666          38.000       -4403.784
 -10869871.277 7  21923086.931          44.000       -2331.583
  -1293036.421 7  21926742.873          42.000       -2575.525
  55751421.402 6  38862584.331          38.000        -849.217
 -13422061.166 7  20434901.789          44.000       -1653.156
 -13121517.442 7  20884561.896          46.000         358.613
  17130517.334 6  24180431.933          39.000       -4055.548
  -8435884.391 6  23923366.947          37.000        1243.538
  -9080691.477 7  22706405.253          46.000        1913.034
 16  6 23  6 12  0.0010000  0  9G17G05G28G20S20G13G15G18G24
   -111122.00017  24686298.808          44.000        1850.880
  21272997.527 6  23807607.996          37.000       -4411.993
 -10729136.485 7  21949867.256          43.000       -2359.309
  -1137574.630 7  21956328.060          43.000       -2606.802
  55802278.834 6  38872262.798          38.000        -846.599
 -13322038.180 7  20453936.085          44.000       -1680.763
 -13142254.950 7  20880616.018          47.000         332.333
  -8509797.344 6  23909304.375          40.000        1220.128
  -9195107.642 7  22684631.674          47.000        1901.420
 16  6 23  6 13  0.0010000  0 10G17G05G28G20S20G13G15G30G18G24
   -221872.772 7  24665225.384          42.000        1840.439
  21537849.217 6  23858007.837          36.000       -4417.335
 -10586800.440 6  21976950.465          41.000       -2386.105
   -980285.969 7  21986261.343          43.000       -2636.869
  55852891.338 6  38881894.009          38.000        -842.605
 -13220394.941 7  20473277.366          43.000       -1707.279
 -13161448.950 7  20876964.141          47.000         306.884
  17617325.22814  24273076.884          27.000       -4058.359
  -8582335.330 6  23895499.665          38.000        1197.492
  -9308860.331 7  22662985.202          46.000        1890.003
 16  6 23  6 14  0.0000000  0 11G17G05G28G20S20G13G15G30G18G21G24
   -331901.350 6  24344500.049          39.000        1826.498
  21803164.625 6  23608707.168          37.000       -4426.215
 -10442761.805 6  21704565.392          41.000       -2415.616
   -821071.192 7  21716764.071          42.000       -2671.281
  55903383.540 6  38591710.395          38.000        -840.995
 -13117014.433 7  20193157.815          44.000       -1738.229
 -13178972.438 7  20573836.478          47.000         276.692
  17860908.42714  24019627.600          26.000       -4062.487
  -8653367.499 6  23582193.133          41.000        1169.753
   4403309.08013  25897273.996          18.000       -2587.920
  -9421827.203 7  22341695.946          45.000        1874.908
 16  6 23  6 15  0.0000000  0 11G17G05G28G20S20G13G15G30G18G21G24
   -441059.583 6  24323731.149          36.000        1814.850
  22069046.353 6  23659307.530          38.000       -4435.502
 -10296910.392 7  21732323.645          44.000       -2444.143
   -659823.003 7  21747448.779          42.000       -2702.349
  55953884.546 6  38601320.247          38.000        -839.687
 -13011772.189 7  20213185.307          44.000       -1767.971
 -13194690.173 7  20570846.453          47.000         248.490
  18104739.61114  24066003.997          24.000       -4063.474
  -8722754.240 7  23568992.846          42.000        1144.159
   4559563.94411  25926989.570          11.000       -2608.536
  -9533877.095 7  22320371.797          45.000        1861.068
 16  6 23  6 16  0.0000000  0 10G17G05G28G20S20G13G15G30G18G24
   -549376.210 6  24303115.933          37.000        1796.399
  22335419.796 6  23709996.224          40.000       -4445.232
 -10149312.167 7  21760409.823          44.000       -2477.032
   -496610.038 7  21778507.775          42.000       -2739.132
  56004337.466 6  38610921.374          38.000        -841.848
 -12904719.477 7  20233556.761          43.000       -1801.356
 -13208643.425 8  20568192.729          48.000         215.769
  18348780.96314  24112456.529          28.000       -4069.816
  -8790533.476 6  23556094.064          41.000        1113.911
  -9645055.951 7  22299215.938          46.000        1843.668
 16  6 23  6 17  0.0000000  0 11G17G05G28G20S20G13G15G30G19G18G24
   -656467.228 6  24282735.719          38.000        1773.361
  22602623.585 6  23760841.273          41.000       -4461.184
  -9999621.858 7  21788896.710          45.000       -2512.905
   -331089.507 7  21810004.511          42.000       -2778.920
  56055107.336 6  38620584.432          38.000        -849.189
 -12795496.181 7  20254340.529          43.000       -1839.808
 -13220460.853 7  20565940.552          47.000         178.700
  18593364.18614  24159006.119          29.000       -4081.416
   -637833.74313  25426678.670          19.000        2655.207
  -8856330.478 7  23543575.330          43.000        1079.275
  -9754997.059 7  22278293.825          45.000        1821.020
 16  6 23  6 18  0.0000000  0 12G17G05G28G20S20G13G15G30G19G18G21G24
   -762133.726 6  24262621.917          37.000        1750.805
  22870813.006 6  23811878.099          41.000       -4475.935
  -9847677.633 7  21817807.533          44.000       -2549.029
   -163102.442 7  21841973.188          43.000       -2819.494
  56106361.741 6  38630337.411          38.000        -856.678
 -12683925.724 7  20275571.947          42.000       -1877.195
 -13229955.730 7  20564133.407          47.000         141.067
  18838668.97815  24205686.342          30.000       -4092.609
   -797086.33612  25396378.339          17.000        2655.675
  -8919953.962 7  23531468.561          42.000        1043.799
   5033238.93513  26017437.277          22.000       -2682.256
  -9863516.532 7  22257642.121          44.000        1798.609
 16  6 23  6 19  0.0000000  0 11G17G05G28G20S20G13G15G30G19G18G24
   -866705.170 6  24242718.757          38.000        1735.174
  23139612.845 5  23863020.360          35.000       -4483.506
  -9693847.449 7  21847082.629          45.000       -2577.487
      6979.926 7  21874338.351          42.000       -2850.387
  56157741.422 6  38640113.808          38.000        -855.445
 -12570361.104 6  20297179.051          41.000       -1908.078
 -13237470.983 7  20562705.508          47.000         110.277
  19084333.57314  24252415.250          25.000       -4095.913
   -956348.27314  25366065.461          24.000        2652.684
  -8981742.288 6  23519706.922          41.000        1016.495
  -9970962.168 7  22237199.557          47.000        1783.524
 16  6 23  6 20  0.0000000  0 11G17G05G28G20S20G13G15G30G19G18G24
   -970647.047 6  24222935.917          38.000        1729.002
  23408512.214 6  23914189.982          36.000       -4479.836
  -9538635.231 7  21876619.321          46.000       -2596.481
    178650.602 7  21907007.549          43.000       -2872.730
  56208769.400 6  38649824.541          38.000        -846.566
 -12455292.130 7  20319079.650          43.000       -1928.398
 -13243485.256 8  20561560.791          48.000          89.140
  19329861.17415  24299151.802          31.000       -4090.242
  -1116063.58714  25335674.371          25.000        2665.341
  -9042171.341 6  23508205.885          41.000         996.880
 -10077815.903 7  22216864.557          47.000        1777.013
 16  6 23  6 21  0.0000000  0 11G17G05G28G20S20G13G15G30G19G18G24
  -1074120.984 6  24203242.020          38.000        1721.871
  23677304.547 6  23965342.835          37.000       -4478.632
  -9382240.761 7  21906381.034          47.000       -2615.517
    351706.388 7  21939938.763          43.000       -2895.092
  56259264.711 6  38659432.613          38.000        -836.280
 -12338903.963 7  20341228.932          43.000       -1950.338
 -13248173.155 8  20560669.015          48.000          68.093
  19575059.59315  24345812.183          33.000       -4081.116
  -1276370.41114  25305170.867          26.000        2678.689
  -9101411.540 6  23496929.868          40.000         977.892
 -10184255.892 7  22196608.257          45.000        1771.712
 16  6 23  6 22  0.0000000  0 11G17G05G28G20S20G13G15G30G19G18G24
  -1177098.237 6  24183649.927          39.000        1710.258
  23945974.101 6  24016467.436          36.000       -4477.587
  -9224673.994 7  21936365.638          47.000       -2636.884
    526134.500 7  21973128.937          42.000       -2919.455
  56309228.358 6  38668941.394          38.000        -828.663
 -12221191.648 6  20363623.722          41.000       -1973.946
 -13251518.601 8  20560032.658          48.000          43.935
  19819926.04015  24392400.757          30.000       -4079.965
  -1437254.84115  25274553.884          32.000        2686.255
  -9159444.044 6  23485888.819          40.000         955.808
 -10290270.424 7  22176435.124          47.000        1762.549
 16  6 23  6 23  0.0000000  0 11G17G05G28G20S20G13G15G30G19G18G24
  -1279619.792 6  24164141.491          39.000        1704.656
  24214435.305 6  24067555.147          36.000       -4473.691
  -9066014.195 7  21966555.423          46.000       -2653.900
    701852.489 7  22006570.203          43.000       -2939.291
  56358600.941 6  38678337.359          38.000        -817.639
 -12102219.807 7  20386270.213          43.000       -1993.895
 -13253576.490 8  20559641.145          48.000          23.458
  20064388.69815  24438926.231          33.000       -4069.857
  -1598755.50715  25243824.103          32.000        2697.231
  -9216318.679 7  23475068.934          42.000         937.931
 -10395917.635 8  22156334.585          49.000        1757.454
 16  6 23  6 24  0.0000000  0 10G17G05G28G20S20G13G15G30G18G24
  -1381536.296 6  24144745.574          36.000        1692.615
  24482792.854 6  24118627.467          39.000       -4470.887
  -8906150.094 7  21996975.515          45.000       -2673.970
    878967.392 7  22040271.512          42.000       -2963.488
  56407498.921 6  38687640.105          38.000        -810.312
 -11981863.191 7  20409172.263          43.000       -2016.987
 -13254210.301 7  20559518.470          47.000          -1.465
  20308567.419 5  24485387.645          33.000       -4067.497
  -9271896.015 7  23464493.840          44.000         915.308
 -10501064.572 7  22136322.623          47.000        1748.681
 16  6 23  6 25  0.0000000  0 10G17G05G28G20S20G13G15G30G18G24
  -1482775.00313  24125434.081          21.000        1677.188
  24751066.766 6  24169680.348          40.000       -4471.203
  -8745056.313 7  22027633.575          46.000       -2695.907
   1057501.004 7  22074246.143          44.000       -2988.324
  56455958.926 6  38696862.440          38.000        -805.097
 -11860082.345 7  20432344.232          42.000       -2043.044
 -13253369.669 7  20559677.127          46.000         -26.870
  20552495.086 6  24531812.763          37.000       -4064.855
  -9326121.025 7  23454175.718          46.000         891.403
 -10605663.052 7  22116418.433          47.000        1737.597
 16  6 23  6 26  0.0000000  0  9G17G05G28G20S20G13G30G18G24
  -1583227.74416  24106336.738          37.000        1670.442
  25019216.231 6  24220707.035          41.000       -4468.438
  -8582768.184 7  22058514.004          46.000       -2715.124
   1237414.638 7  22108484.814          46.000       -3010.579
  56503973.116 6  38706001.154          38.000        -797.148
 -11736897.271 7  20455785.441          42.000       -2064.802
  20796145.520 6  24578180.452          38.000       -4058.463
  -9379000.657 7  23444110.590          45.000         869.270
 -10709725.676 7  22096614.216          46.000        1729.666
 16  6 23  6 27  0.0000000  0 11G17G05G28G20S20G13G15G30G19G18G24
  -1682901.479 6  24087374.738          41.000        1653.909
  25287423.737 6  24271743.216          39.000       -4470.388
  -8419096.528 7  22089660.828          46.000       -2738.864
   1418893.153 7  22143018.516          45.000       -3037.226
  56551750.183 6  38715091.932          38.000        -794.268
 -11612105.602 7  20479531.418          42.000       -2092.744
      3982.81418  20560875.853          48.000         -80.400
  21039716.19315  24624524.758          33.000       -4056.094
    -68734.45315  25120130.329          33.000        2716.876
  -9430317.702 7  23434343.249          44.000         842.559
 -10813042.546 7  22076956.668          47.000        1715.994
 16  6 23  6 28  0.0000000  0 11G17G05G28G20S20G13G15G30G19G18G24
  -1781730.697 7  24068567.748          42.000        1639.134
  25555590.126 6  24322773.446          39.000       -4470.699
  -8254136.658 7  22121052.653          47.000       -2761.180
   1601838.261 7  22177830.147          43.000       -3062.441
  56599205.640 6  38724122.961          37.000        -789.675
 -11485787.496 7  20503574.904          45.000       -2118.917
      9575.169 8  20561942.340          49.000        -107.754
  21283221.06514  24670834.093          28.000       -4056.777
   -231867.75614  25089094.052          29.000        2719.601
  -9480138.309 7  23424865.111          45.000         816.474
 -10915685.475 7  22057423.191          47.000        1704.145
 16  6 23  6 29  0.0000000  0  9G17G05G28G20S20G13G30G18G24
  -1879467.033 7  24049967.125          42.000        1619.205
  25823919.804 6  24373832.696          38.000       -4474.509
  -8087677.781 7  22152726.508          47.000       -2787.545
   1786455.559 7  22212960.280          43.000       -3091.375
  56646572.217 6  38733135.440          37.000        -788.542
 -11357719.486 7  20527943.191          44.000       -2149.589
  21526677.38316  24717182.011          39.000       -4058.133
  -9528223.377 7  23415716.328          46.000         786.287
 -11017421.852 7  22038063.710          47.000        1687.102
 16  6 23  6 30  0.0000000  0  9G17G05G28G20S20G13G15G18G24
  -1975882.489 6  24031612.113          37.000        1595.518
  26092596.126 6  24424959.304          38.000       -4480.312
  -7919531.351 7  22184725.862          47.000       -2816.292
   1972930.150 7  22248446.938          44.000       -3123.136
  56694043.066 6  38742169.836          38.000        -791.368
 -11227698.119 7  20552683.883          43.000       -2183.482
      9470.45517  20565161.277          47.000        -174.720
  -9574356.041 7  23406937.926          46.000         752.865
 -11118041.227 7  22018915.220          47.000        1667.761
 16  6 23  6 31  0.0000000  0 11G17G05G28G20S20G13G15G30G19G18G24
  -2071017.17614  24013484.879          29.000        1575.279
  26361535.892 6  24476136.011          38.000       -4486.039
  -7749776.092 7  22217027.524          46.000       -2844.054
   2161178.932 7  22284269.495          45.000       -3153.097
  56741553.348 6  38751209.416          38.000        -794.130
 -11095788.998 7  20577785.742          44.000       -2216.167
     20966.453 7  20567348.906          47.000        -209.341
    243827.69315  24809958.170          32.000       -4067.734
   -167669.76315  24996119.344          33.000        2707.006
  -9618587.447 7  23398520.692          46.000         719.614
 -11217599.399 8  21999970.827          48.000        1648.947
 16  6 23  6 32  0.0000000  0 11G17G05G28G20S20G13G15G30G19G18G24
  -2164645.54616  23995697.192          40.000        1547.340
  26630922.528 6  24527398.015          37.000       -4494.018
  -7578224.826 7  22249672.362          46.000       -2874.547
   2351384.995 7  22320463.009          43.000       -3186.832
  56789316.165 6  38760299.758          37.000        -798.675
 -10961789.790 7  20603286.705          45.000       -2252.298
     34678.214 8  20569959.249          48.000        -247.506
    488094.97615  24856436.703          32.000       -4073.608
   -329804.95315  24965271.652          33.000        2697.110
  -9660701.611 7  23390507.063          46.000         683.467
 -11315885.949 7  21981267.928          47.000        1626.671
 16  6 23  6 33  0.0000000  0 11G17G05G28G20S20G13G15G30G19G18G24
  -2256635.245 7  23978191.605          43.000        1518.244
  26900843.572 6  24578758.455          36.000       -4504.163
  -7404783.564 7  22282678.873          47.000       -2906.721
   2543637.414 7  22357050.794          44.000       -3222.071
  56837446.394 6  38769458.504          37.000        -804.975
 -10825594.160 7  20629203.315          45.000       -2288.975
     50722.980 8  20573012.863          49.000        -287.064
    732843.475 5  24903017.599          35.000       -4084.455
   -491343.32114  24934545.326          29.000        2687.208
  -9700576.957 7  23382916.794          46.000         645.245
 -11412785.187 7  21962827.463          47.000        1602.896
 16  6 23  6 34  0.0000000  0 11G17G05G28G20S20G13G15G30G19G18G24
  -2346823.362 7  23961025.442          42.000        1487.098
  27171418.044 5  24630251.553          35.000       -4516.004
  -7229329.071 7  22316066.776          47.000       -2941.720
   2738055.398 7  22394044.976          43.000       -3259.210
  56886073.017 6  38778711.919          37.000        -815.298
 -10687065.120 7  20655562.217          43.000       -2329.094
     69249.000 8  20576538.365          49.000        -330.324
    978206.69114  24949698.781          27.000       -4095.378
   -652116.73615  24903928.640          34.000        2671.351
  -9738062.632 7  23375784.436          46.000         603.695
 -11508151.430 7  21944680.685          47.000        1575.909
 16  6 23  6 35  0.0000000  0 11G17G05G28G20S20G13G15G30G19G18G24
  -2435089.501 6  23944213.012          36.000        1455.591
  27442725.717 6  24681883.728          36.000       -4527.633
  -7051778.636 7  22349852.492          47.000       -2975.249
   2934716.975 7  22431465.851          42.000       -3294.891
  56935292.670 6  38788077.642          37.000        -823.152
 -10546106.466 7  20682389.222          45.000       -2368.180
     90363.454 8  20580555.667          48.000        -372.056
   1224276.59915  24996552.895          31.000       -4106.273
   -811999.96616  24873504.046          36.000        2657.387
  -9773048.259 7  23369127.475          47.000         563.410
 -11601878.373 7  21926845.725          47.000        1549.779
 16  6 23  6 36  0.0000000  0 11G17G05G28G20S20G13G15G30G19G18G24
  -2521656.054 6  23927751.750          41.000        1430.171
  27714500.128 6  24733601.776          37.000       -4530.349
  -6872393.513 7  22383988.660          47.000       -3002.985
   3133356.134 7  22469266.827          43.000       -3325.026
  56984866.332 6  38797510.846          38.000        -826.401
 -10402965.659 7  20709627.075          44.000       -2401.219
    113828.857 8  20585020.672          48.000        -408.881
   1470803.224 6  25043458.417          37.000       -4110.296
   -971211.778 6  24843213.329          37.000        2650.091
  -9805767.591 7  23362899.946          46.000         528.323
 -11694204.681 8  21909276.967          48.000        1529.362
 16  6 23  6 37  0.0000000  0 11G17G05G28G20S20G13G15G30G19G18G24
  -2606787.213 7  23911556.343          44.000        1408.621
  27986434.663 6  24785349.646          37.000       -4531.865
  -6691475.792 7  22418416.160          46.000       -3026.140
   3333665.556 7  22507383.634          42.000       -3350.244
  57034501.019 6  38806956.789          37.000        -826.044
 -10257932.714 7  20737224.211          43.000       -2432.007
    139366.795 8  20589882.250          49.000        -441.250
   1717494.194 6  25090401.178          37.000       -4110.700
  -1130010.702 5  24813009.236          32.000        2646.077
  -9836495.837 7  23357052.308          46.000         497.214
 -11785410.073 7  21891919.916          47.000        1512.498
 16  6 23  6 38  0.0010000  0 11G17G05G28G20S20G13G15G30G19G18G24
  -2690630.301 7  23895598.887          42.000        1386.983
  28258345.960 6  24837093.992          38.000       -4531.214
  -6509207.436 7  22453102.464          47.000       -3048.076
   3535459.809 7  22545786.032          43.000       -3375.003
  57084036.816 6  38816381.704          37.000        -824.058
 -10111175.953 7  20765151.383          43.000       -2459.399
    166816.981 8  20595104.769          49.000        -473.009
   1964179.342 5  25137339.908          33.000       -4111.001
  -1288539.47316  24782833.343          36.000        2640.639
  -9865390.689 7  23351553.972          47.000         466.991
 -11875657.260 7  21874746.878          47.000        1497.062
 16  6 23  6 39  0.0010000  0 11G17G05G28G20S20G13G15G30G19G18G24
  -2773322.322 6  23879852.020          38.000        1366.765
  28530042.835 6  24888795.916          39.000       -4527.572
  -6325772.792 7  22488007.401          47.000       -3068.237
   3738548.670 7  22584435.507          45.000       -3396.142
  57133305.990 6  38825758.038          37.000        -820.158
  -9962865.636 7  20793374.440          44.000       -2486.038
    196024.249 8  20600661.931          48.000        -502.821
   2210683.16014  25184229.952          29.000       -4107.316
  -1446928.471 6  24752679.977          40.000        2637.686
  -9892602.894 7  23346374.730          46.000         438.388
 -11965098.739 8  21857725.866          48.000        1483.018
 16  6 23  6 40  0.0010000  0 11G17G05G28G20S20G13G15G30G19G18G24
  -2854683.508 7  23864382.978          43.000        1344.392
  28801669.177 6  24940485.974          39.000       -4527.536
  -6141024.839 7  22523163.884          46.000       -3090.752
   3943073.458 7  22623351.744          43.000       -3421.512
  57182479.221 6  38835115.717          37.000        -820.104
  -9812843.429 7  20821925.212          44.000       -2515.019
    227155.930 8  20606588.042          49.000        -535.279
   2457162.58815  25231145.054          33.000       -4108.514
  -1604992.380 7  24722601.264          43.000        2631.350
  -9917962.488 7  23341549.937          47.000         406.475
 -12053569.271 7  21840891.903          47.000        1465.914
 16  6 23  6 41  0.0010000  0 11G17G05G28G20S20G13G15G30G19G18G24
  -2934569.617 7  23849180.418          43.000        1318.333
  29073327.819 6  24992182.017          40.000       -4529.308
  -5954858.090 7  22558590.618          46.000       -3115.484
   4149135.988 7  22662564.495          43.000       -3447.696
  57231685.358 6  38844478.875          37.000        -821.516
  -9660990.289 7  20850818.690          43.000       -2547.453
    260341.169 8  20612902.787          48.000        -571.053
   2703736.47415  25278068.306          31.000       -4108.478
  -1762581.321 6  24692610.377          39.000        2621.296
  -9941337.905 7  23337102.976          47.000         372.131
 -12140939.801 8  21824264.899          48.000        1446.349
 16  6 23  6 42  0.0010000  0 10G17G05G28G20S20G13G15G19G18G24
  -3012871.349 6  23834271.580          40.000        1291.016
  29345085.813 6  25043896.226          40.000       -4530.048
  -5767200.917 7  22594301.180          47.000       -3140.198
   4356800.864 7  22702082.293          43.000       -3474.445
  57281000.442 6  38853863.114          38.000        -823.395
  -9507223.873 7  20880079.634          43.000       -2579.007
    295674.883 7  20619624.315          47.000        -606.800
  -1919579.59014  24662698.261          29.000        2610.894
  -9962630.667 7  23333048.627          47.000         337.288
 -12227116.861 7  21807865.534          46.000        1426.263
 16  6 23  6 43  0.0010000  0 11G17G05G28G20S20G13G15G30G19G18G24
  -3089422.961 6  23819706.668          40.000        1259.966
  29617068.528 6  25095651.303          38.000       -4536.056
  -5577925.882 7  22630316.702          46.000       -3168.679
   4566192.143 7  22741927.928          43.000       -3505.145
  57330567.333 6  38863295.829          38.000        -828.164
  -9351402.857 7  20909731.392          44.000       -2614.985
    333307.305 7  20626785.151          47.000        -647.695
   3197523.92114  25372040.747          29.000       -4121.607
  -2075816.52916  24633006.279          39.000        2596.733
  -9981687.652 7  23329423.606          47.000         298.234
 -12311949.530 7  21791719.824          46.000        1401.634
 16  6 23  6 44  0.0010000  0 11G17G05G28G20S20G13G15G30G19G18G24
  -3164134.815 7  23805494.042          43.000        1229.681
  29889324.209 6  25147458.190          37.000       -4540.024
  -5386980.857 7  22666654.983          46.000       -3196.370
   4777355.511 7  22782108.991          42.000       -3534.126
  57380458.503 6  38872788.573          38.000        -835.236
  -9193463.316 7  20939789.253          45.000       -2649.762
    373313.673 8  20634400.182          48.000        -686.731
   3444964.24414  25419134.907          29.000       -4127.403
  -2231194.152 6  24603432.436          40.000        2582.065
  -9998430.638 8  23326238.959          48.000         259.256
 -12395362.405 7  21775848.293          46.000        1378.132
 16  6 23  6 45  0.0010000  0 11G17G05G28G20S20G13G15G30G19G18G24
  -3236821.851 7  23791661.272          43.000        1193.221
  30161997.647 6  25199347.198          38.000       -4549.790
  -5194218.043 7  22703335.166          45.000       -3229.145
   4990433.537 7  22822658.132          43.000       -3568.429
  57430834.942 6  38882373.995          38.000        -844.491
  -9033245.514 7  20970275.377          43.000       -2690.719
    415864.243 7  20642497.641          47.000        -731.642
   3692941.45914  25466327.188          29.000       -4138.822
  -2385520.511 6  24574068.239          41.000        2561.164
 -10012686.445 7  23323524.420          47.000         215.508
 -12477183.963 7  21760279.488          47.000        1348.724
 16  6 23  6 46  0.0000000  0 11G17G05G28G20S20G13G15G30G19G18G24
  -3307329.655 6  23478445.498          41.000        1159.627
  30435202.124 6  24951543.635          38.000       -4555.097
  -4999521.233 7  22440591.251          45.000       -3258.426
   5205536.671 7  22563798.495          43.000       -3599.521
  57481840.512 6  38592288.171          38.000        -853.337
  -8870621.258 7  20701428.178          43.000       -2727.489
    461097.743 7  20351310.709          46.000        -773.801
   3941582.41513  25213845.344          23.000       -4148.459
  -2538635.143 7  24245137.009          42.000        2544.061
 -10024313.434 7  23021519.644          47.000         174.099
 -12557275.468 7  21445245.175          46.000        1322.828
 16  6 23  6 47  0.0000000  0 11G17G05G28G20S20G13G15G30G19G18G24
  -3375946.238 7  23465391.566          43.000        1129.837
  30708610.051 5  25003567.237          35.000       -4557.464
  -4803215.300 7  22477949.968          47.000       -3283.016
   5422334.689 7  22605052.590          43.000       -3625.837
  57533173.081 6  38602056.384          38.000        -856.516
  -8705903.751 7  20732773.952          43.000       -2761.096
    508711.821 7  20360370.862          46.000        -811.910
   4190582.04413  25261227.729          19.000       -4152.167
  -2690817.960 6  24216166.227          39.000        2530.400
 -10033611.613 7  23019748.883          46.000         137.459
 -12635937.712 7  21430276.046          47.000        1300.291
 16  6 23  6 48  0.0000000  0 11G17G05G28G20S20G13G15G30G19G18G24
  -3442959.087 7  23452645.578          46.000        1104.623
  30981893.747 6  25055574.976          37.000       -4552.627
  -4605624.963 7  22515547.858          46.000       -3302.315
   5640496.807 7  22646570.410          44.000       -3646.152
  57584512.532 6  38611827.197          38.000        -854.892
  -8539405.996 6  20764455.084          41.000       -2788.291
    558403.444 8  20369829.298          48.000        -844.745
   4439592.94813  25308631.926          18.000       -4148.484
  -2842349.023 6  24187330.056          41.000        2520.909
 -10040880.757 7  23018366.965          46.000         105.134
 -12713474.053 7  21415522.271          47.000        1283.542
 16  6 23  6 49  0.0000000  0 11G17G05G28G20S20G13G15G30G19G18G24
  -3508601.336 7  23440148.151          43.000        1083.518
  31254780.956 6  25107505.846          38.000       -4544.363
  -4407020.487 7  22553343.058          47.000       -3317.430
   5859747.895 7  22688290.251          44.000       -3662.238
  57635603.617 6  38621546.794          38.000        -849.287
  -8371387.478 6  20796427.826          41.000       -2812.112
    609923.892 7  20379632.394          47.000        -873.199
   4688411.64113  25355978.991          21.000       -4142.971
  -2993453.325 6  24158574.715          41.000        2515.341
 -10046366.617 7  23017322.744          46.000          77.430
 -12790130.348 7  21400933.278          46.000        1271.058
 16  6 23  6 50  0.0000000  0 11G17G05G28G20S20G13G15G30G19G18G24
  -3572977.178 7  23427895.673          42.000        1062.771
  31527127.613 6  25159330.393          36.000       -4535.472
  -4207542.600 7  22591300.754          46.000       -3331.961
   6079940.521 7  22730192.185          44.000       -3677.353
  57686327.300 6  38631200.150          38.000        -843.632
  -8201977.159 7  20828668.465          43.000       -2835.443
    663154.533 8  20389763.398          48.000        -901.340
   4936906.46614  25403250.584          24.000       -4138.802
  -3144227.609 7  24129884.428          42.000        2510.225
 -10050185.687 7  23016595.611          46.000          49.964
 -12866024.346 7  21386493.049          47.000        1258.503
 16  6 23  6 51  0.0000000  0 11G17G05G28G20S20G13G15G30G19G18G24
  -3635800.843 7  23415949.498          46.000        1030.732
  31799180.607 6  25211101.594          37.000       -4534.926
  -4006942.596 7  22629473.908          46.000       -3355.888
   6301317.932 7  22772319.192          43.000       -3702.685
  57736945.185 6  38640832.339          38.000        -846.475
  -8030915.515 6  20861215.058          40.000       -2867.791
    718365.844 7  20400267.870          47.000        -940.212
   5185293.31412  25450506.628          17.000       -4143.224
  -3294377.099 7  24101310.621          42.000        2493.900
 -10052065.597 7  23016236.241          46.000          11.490
 -12940883.945 7  21372247.633          47.000        1235.456
 16  6 23  6 52  0.0000000  0 11G17G05G28G20S20G13G15G30G19G18G24
  -3696623.181 7  23404371.034          44.000         995.874
  32071350.104 6  25262893.998          36.000       -4537.681
  -3804807.629 7  22667938.027          45.000       -3382.601
   6524286.693 7  22814751.560          45.000       -3729.712
  57787897.084 6  38650528.168          38.000        -851.417
  -7857779.085 7  20894165.152          43.000       -2903.432
    775991.007 8  20411234.006          48.000        -981.266
   5433910.20312  25497820.870          16.000       -4148.327
  -3443444.883 7  24072944.088          43.000        2474.728
 -10051569.415 7  23016331.973          46.000         -28.724
 -13014273.607 7  21358280.566          46.000        1210.225
 16  6 23  6 53  0.0000000  0 10G17G05G28G20S20G13G15G19G18G24
  -3755213.548 6  23393214.063          40.000         956.547
  32343828.875 5  25314744.615          35.000       -4543.209
  -3600942.910 7  22706732.915          45.000       -3412.420
   6749035.202 7  22857519.548          45.000       -3760.890
  57839400.687 6  38660328.577          38.000        -862.990
  -7682362.663 7  20927547.907          45.000       -2943.128
    836245.774 8  20422701.294          48.000       -1026.420
  -3591190.874 7  24044827.216          43.000        2450.664
 -10048479.333 7  23016918.772          45.000         -73.924
 -13085975.214 7  21344638.108          47.000        1180.380
 16  6 23  6 54  0.0000000  0 10G17G05G28G20S20G13G15G19G18G24
  -3811528.383 7  23382506.662          43.000         919.592
  32616622.435 5  25366651.178          31.000       -4548.283
  -3395340.536 7  22745858.013          44.000       -3440.507
   6975565.435 7  22900623.855          44.000       -3789.704
  57891470.227 6  38670238.852          38.000        -872.446
  -7504647.447 7  20961364.353          44.000       -2980.658
    899158.630 7  20434670.748          47.000       -1070.358
  -3737561.713 7  24016972.201          42.000        2427.810
 -10042763.972 7  23018010.841          47.000        -117.045
 -13155958.228 7  21331320.346          47.000        1152.053
 16  6 23  6 55  0.0000000  0 10G17G05G28G20S20G13G15G19G18G24
  -3865640.717 7  23372210.405          44.000         885.021
  32889619.08015  25418603.111          31.000       -4546.192
  -3188110.445 7  22785292.260          43.000       -3465.609
   7203761.623 7  22944049.385          44.000       -3815.123
  57944009.086 6  38680234.930          38.000        -878.931
  -7324732.997 7  20995599.656          43.000       -3014.735
    964640.763 7  20447132.192          47.000       -1110.961
  -3882622.129 7  23989369.167          43.000        2408.305
 -10034510.526 7  23019580.523          46.000        -157.200
 -13224308.669 7  21318314.472          47.000        1127.126
 16  6 23  6 56  0.0000000  0 10G17G05G28G20S20G13G15G19G18G24
  -3917811.655 6  23362273.885          39.000         854.158
  33162520.26915  25470538.396          30.000       -4547.600
  -2979549.089 7  22824977.946          42.000       -3486.090
   7433320.821 7  22987733.387          44.000       -3836.622
  57996743.881 6  38690269.800          38.000        -879.894
  -7142906.065 7  21030202.809          44.000       -3045.663
   1032414.809 8  20460030.643          48.000       -1148.266
  -4026623.935 7  23961966.427          43.000        2391.705
 -10023992.739 7  23021580.702          46.000        -193.431
 -13291300.464 7  21305565.657          47.000        1105.790
 16  6 23  6 57  0.0000000  0 10G17G05G28G20S20G13G15G19G18G24
  -3967994.692 6  23352728.406          41.000         819.351
  33435336.85315  25522459.879          30.000       -4547.826
  -2769644.569 7  22864923.920          43.000       -3509.714
   7664248.601 7  23031677.956          44.000       -3861.217
  58049698.446 6  38700345.416          38.000        -885.510
  -6959144.487 7  21065169.451          43.000       -3078.929
   1102513.174 8  20473368.455          48.000       -1188.475
  -4169509.792 7  23934777.592          44.000        2371.184
 -10011176.997 7  23024020.522          47.000        -233.770
 -13356898.039 7  21293082.749          47.000        1081.027
 16  6 23  6 58  0.0000000  0 10G17G05G28G20S20G13G15G19G18G24
  -4016079.139 7  23343583.305          42.000         784.539
  33708141.84514  25574369.827          25.000       -4545.903
  -2558322.191 7  22905137.545          43.000       -3533.724
   7896613.181 7  23075896.913          43.000       -3884.718
  58102974.291 6  38710485.808          38.000        -890.422
  -6773363.919 7  21100524.499          45.000       -3113.109
   1175030.213 8  20487170.827          49.000       -1228.729
  -4311159.839 7  23907820.426          43.000        2350.201
  -9995966.765 7  23026913.855          46.000        -273.251
 -13421004.525 7  21280883.616          47.000        1056.184
 16  6 23  7  1  0.0000000  0 10G17G05G28G20S20G13G15G19G18G24
  -4148258.467 7  23318429.253          44.000         694.764
  34525594.30213  25729925.640          20.000       -4528.808
  -1916707.706 7  23027231.606          42.000       -3584.267
   8601401.545 7  23210012.638          44.000       -3935.453
  58264049.107 6  38741136.626          38.000        -889.022
  -6204677.053 7  21208740.175          44.000       -3195.759
   1406422.882 8  20531202.211          49.000       -1332.053
  -4729104.284 7  23828294.548          44.000        2302.596
  -9936614.870 7  23038206.153          46.000        -375.796
 -13605006.138 8  21245869.021          48.000         998.428
 16  6 23  7  2  0.0000000  0 10G17G05G28G20S20G13G15G19G18G24
  -4189303.432 7  23310619.181          44.000         673.366
  34796625.77113  25781522.234          19.000       -4510.699
  -1701412.303 7  23068203.758          43.000       -3591.862
   8837749.079 7  23254989.143          43.000       -3943.187
  58317078.040 6  38751226.691          38.000        -879.321
  -6012426.805 7  21245326.842          46.000       -3213.586
   1487105.676 8  20546555.820          48.000       -1357.547
  -4867058.400 7  23802042.249          44.000        2295.376
  -9913312.314 7  23042640.288          46.000        -401.082
 -13664615.451 8  21234526.379          48.000         988.382
 16  6 23  7  3  0.0000000  0  9G17G28G20S20G13G15G19G18G24
  -4229022.820 7  23303056.867          42.000         649.380
  -1485642.844 6  23109259.548          41.000       -3600.403
   9074555.649 7  23300049.724          42.000       -3950.887
  58369561.536 6  38761214.533          38.000        -871.040
  -5819056.483 7  21282122.110          46.000       -3232.644
   1569356.331 8  20562207.793          48.000       -1384.678
  -5004495.348 7  23775887.845          44.000        2285.721
  -9888455.638 7  23047371.688          46.000        -428.110
 -13723563.460 7  21223307.181          47.000         976.755
 16  6 23  7  4  0.0000000  0  9G17G28G20S20G13G15G19G18G24
  -4267160.076 6  23295797.961          41.000         619.027
  -1269176.469 7  23150454.486          42.000       -3616.265
   9312038.925 7  23345239.279          42.000       -3965.885
  58421745.277 6  38771144.701          38.000        -869.376
  -5624334.015 7  21319177.333          46.000       -3259.681
   1653416.129 8  20578202.069          48.000       -1419.254
  -5141146.664 7  23749880.965          45.000        2267.772
  -9861800.719 7  23052444.606          45.000        -462.187
 -13781602.583 7  21212263.601          47.000         956.841
 16  6 23  7  5  0.0000000  0  9G17G28G20S20G13G15G19G18G24
  -4303349.017 7  23288918.561          43.000         586.396
  -1051680.371 7  23191841.517          42.000       -3634.200
   9550523.967 7  23390623.386          42.000       -3983.403
  58473974.377 6  38781082.408          38.000        -871.054
  -5427919.078 7  21356553.658          46.000       -3288.188
   1739636.062 8  20594609.340          48.000       -1455.419
  -5276634.278 7  23724095.913          44.000        2248.128
  -9832995.526 7  23057927.185          46.000        -498.612
 -13838378.550 8  21201460.136          48.000         935.568
 16  6 23  7  6  0.0000000  0  9G17G28G20S20G13G15G19G18G24
  -4337649.417 6  23282387.660          41.000         558.247
   -833246.673 7  23233409.157          43.000       -3646.946
   9789912.269 7  23436179.483          42.000       -3995.464
  58526185.204 6  38791018.318          38.000        -867.471
  -5229895.165 7  21394238.694          46.000       -3312.225
   1827940.390 8  20611414.004          48.000       -1487.378
  -5411005.849 7  23698524.242          45.000        2231.499
  -9802113.961 7  23063803.249          45.000        -529.747
 -13893960.505 7  21190881.657          47.000         918.244
 16  6 23  7  7  0.0000000  0  9G17G28G20S20G13G15G19G18G24
  -4370174.028 6  23276197.143          39.000         527.760
   -614021.280 7  23275126.729          44.000       -3659.332
  10030050.277 6  23481873.314          41.000       -4008.148
  58578251.543 6  38800926.918          38.000        -865.160
  -5030400.682 7  21432197.577          46.000       -3336.372
   1918200.370 8  20628589.276          48.000       -1519.897
  -5544362.734 7  23673148.292          45.000        2215.052
  -9769282.664 7  23070051.561          45.000        -562.881
 -13948471.779 7  21180508.113          47.000         900.152
 16  6 23  7  8  0.0010000  0  9G17G28G20S20G13G15G19G18G24
  -4401070.052 6  23270314.344          37.000         502.868
   -394178.603 7  23316959.945          43.000       -3668.469
  10270757.010 7  23527678.374          43.000       -4015.696
  58630003.325 6  38810775.909          38.000        -859.873
  -4829603.050 7  21470410.326          47.000       -3356.703
   2010256.210 8  20646108.318          48.000       -1549.054
  -5676840.455 7  23647941.209          45.000        2200.889
  -9734660.904 7  23076637.256          44.000        -591.437
 -14002069.219 7  21170309.666          47.000         885.813
 16  6 23  7  9  0.0010000  0  9G17G28G20S20G13G15G19G18G24
  -4430411.265 6  23264729.628          37.000         475.845
   -173833.660 7  23358892.434          44.000       -3677.239
  10511910.024 7  23573568.102          43.000       -4023.466
  58681345.441 6  38820544.227          38.000        -853.344
  -4627608.241 7  21508848.200          46.000       -3376.902
   2104013.858 7  20663948.112          47.000       -1577.127
  -5808497.412 7  23622888.734          45.000        2186.737
  -9698338.875 7  23083549.270          44.000        -620.067
 -14054835.551 7  21160268.671          47.000         872.227
 16  6 23  7 10  0.0010000  0  8G17G28G20S20G13G19G18G24
  -4458092.852 6  23259467.323          39.000         446.260
     47091.947 7  23400931.614          44.000       -3687.855
  10753581.081 6  23619555.829          41.000       -4033.537
  58732374.198 6  38830253.981          38.000        -849.203
  -4424330.752 7  21547529.644          44.000       -3399.781
  -5939216.380 7  23598013.152          44.000        2169.289
  -9660224.490 7  23090801.040          44.000        -651.348
 -14106674.421 8  21150404.010          48.000         855.097
 16  6 23  7 11  0.0010000  0  9G17G28G20S20G13G15G19G18G24
  -4483663.461 6  23254602.935          39.000         406.056
    269017.056 7  23443163.340          45.000       -3709.172
  10996181.476 7  23665722.230          42.000       -4052.823
  58783521.180 6  38839987.922          38.000        -854.634
  -4219345.939 7  21586538.471          45.000       -3432.337
     97564.51318  20700738.982          48.000       -1650.203
  -6068533.923 6  23573398.171          39.000        2141.785
  -9619881.594 7  23098479.327          44.000        -692.399
 -14157144.874 7  21140799.027          47.000         827.965
 16  6 23  7 12  0.0010000  0  9G17G28G20S20G13G15G19G18G24
  -4507150.15815  23250119.346          31.000         377.536
    491885.400 7  23485573.232          44.000       -3719.240
  11239647.041 7  23712055.368          45.000       -4061.529
  58834756.265 6  38849736.591          38.000        -851.348
  -4012703.346 7  21625860.077          45.000       -3454.498
    197531.799 8  20719761.953          48.000       -1680.836
  -6196462.326 6  23549054.856          39.000        2123.905
  -9577349.386 7  23106575.112          46.000        -723.805
 -14206280.868 7  21131448.572          47.000         811.231
 16  6 23  7 13  0.0010000  0  9G17G28G20S20G13G15G19G18G24
  -4529070.36815  23245959.912          34.000         352.407
    715147.599 7  23528057.253          43.000       -3722.844
  11483421.734 7  23758443.020          44.000       -4063.646
  58885552.130 6  38859403.994          38.000        -842.667
  -3804945.438 7  21665395.831          47.000       -3470.619
    299152.151 7  20739098.714          47.000       -1705.918
  -6323506.726 6  23524880.947          41.000        2111.777
  -9533160.760 7  23114985.366          46.000        -748.839
 -14254610.517 8  21122252.813          48.000         800.039
 16  6 23  7 14  0.0010000  0  9G17G28G20S20G13G15G19G18G24
  -4549600.75714  23242042.792          27.000         331.495
    938597.784 7  23570579.961          44.000       -3726.390
  11727292.208 7  23804850.879          43.000       -4064.743
  58935715.260 6  38868950.956          38.000        -830.039
  -3596271.461 7  21705104.307          46.000       -3485.079
    402234.268 7  20758715.306          47.000       -1729.399
  -6449828.939 7  23500844.214          42.000        2099.948
  -9487505.972 7  23123671.613          45.000        -772.775
 -14302316.277 8  21113177.147          49.000         790.313
 16  6 23  7 15  0.0000000  0  9G17G28G20S20G13G15G19G18G24
  -4568876.91615  22938645.436          32.000         304.005
   1162247.729 7  23313348.081          44.000       -3731.366
  11971263.969 7  23551484.763          44.000       -4068.882
  58985277.726 6  38578590.239          38.000        -822.234
  -3386663.367 7  21445200.642          46.000       -3503.473
    506804.761 8  20478822.329          48.000       -1757.228
  -6575373.256 7  23177160.352          42.000        2084.512
  -9440357.596 7  22832849.809          45.000        -800.141
 -14349364.112 8  20804430.322          48.000         776.770
 16  6 23  7 16  0.0000000  0 10G17G10G28G20S20G13G15G19G18G24
  -4586762.36415  22935350.050          32.000         270.117
    -55049.57316  23885029.447          38.000         902.339
   1386498.157 7  23356018.941          42.000       -3742.904
  12215729.299 7  23598004.723          44.000       -4080.005
  59034648.577 6  38587983.185          38.000        -822.213
  -3175714.462 7  21485340.680          44.000       -3528.489
    613278.561 8  20499083.794          48.000       -1791.605
  -6699694.845 7  23153500.910          42.000        2060.094
  -9391298.709 7  22842185.920          46.000        -834.413
 -14395331.543 7  20795680.695          47.000         755.556
 16  6 23  7 17  0.0000000  0 10G17G10G28G20S20G13G15G19G18G24
  -4601988.66415  22932453.767          35.000         234.876
   -108187.472 5  23874911.776          34.000         866.904
   1611469.000 7  23398829.892          42.000       -3756.719
  12460800.463 7  23644641.878          44.000       -4091.072
  59083957.887 6  38597368.279          38.000        -822.261
  -2963300.035 7  21525762.277          45.000       -3554.014
    721788.776 8  20519732.602          48.000       -1827.002
  -6822630.529 7  23130108.632          42.000        2035.799
  -9340195.638 7  22851910.228          46.000        -870.537
 -14440077.713 7  20787167.048          47.000         733.878
 16  6 23  7 18  0.0000000  0 11G17G10G28G20S20G13G15G19G12G18G24
  -4614870.60615  22929984.090          31.000         193.538
   -158974.95915  23865242.732          32.000         826.752
   1837464.176 7  23441838.536          42.000       -3777.411
  12706773.574 7  23691447.707          44.000       -4109.437
  59133537.074 6  38606801.343          38.000        -831.045
  -2749110.944 7  21566524.153          47.000       -3586.686
    832652.180 8  20540829.880          48.000       -1869.702
  -6943832.313 6  23107043.684          41.000        2003.310
   -171726.27217  23201801.368          43.000        2856.088
  -9286730.036 7  22862085.433          46.000        -912.883
 -14483276.465 7  20778946.041          47.000         704.643
 16  6 23  7 19  0.0000000  0 11G17G10G28G20S20G13G15G19G12G18G24
  -4624966.85115  22928064.444          31.000         142.087
   -206966.75915  23856111.469          34.000         777.145
   2064897.625 6  23485114.308          41.000       -3803.034
  12954056.189 7  23738503.528          44.000       -4132.643
  59183822.238 6  38616371.950          38.000        -844.449
  -2532726.560 7  21607697.349          45.000       -3625.359
    946297.314 7  20562454.260          47.000       -1917.902
  -7062842.677 7  23084399.130          42.000        1964.556
   -342230.085 7  23169357.941          45.000        2827.615
  -9230472.666 7  22872791.578          47.000        -961.911
 -14524491.699 8  20771102.971          48.000         669.787
 16  6 23  7 20  0.0000000  0 11G17G10G28G20S20G13G15G19G12G18G24
  -4632072.38415  22926716.171          32.000          93.886
   -251956.498 6  23847553.237          36.000         724.827
   2293946.491 7  23528703.469          42.000       -3830.524
  13202817.857 7  23785842.618          42.000       -4158.234
  59235001.811 6  38626111.160          38.000        -860.084
  -2313964.945 7  21649323.831          44.000       -3665.714
   1062913.566 7  20584645.178          47.000       -1968.271
  -7179442.083 7  23062213.621          44.000        1922.941
   -510972.424 7  23137247.760          45.000        2798.157
  -9171233.329 7  22884063.965          47.000       -1011.804
 -14563524.149 8  20763676.560          48.000         632.519
 16  6 23  7 21  0.0000000  0 11G17G10G28G20S20G13G15G19G12G18G24
  -4636183.60015  22925943.702          34.000          40.783
   -293938.486 6  23839563.236          36.000         673.298
   2524587.759 6  23572590.173          41.000       -3857.514
  13453027.250 7  23833456.794          42.000       -4181.908
  59287072.789 6  38636020.057          38.000        -874.294
  -2092845.790 7  21691403.077          44.000       -3705.670
   1182489.680 7  20607401.449          47.000       -2018.391
  -7293610.734 7  23040487.978          45.000        1881.501
   -677943.183 7  23105472.659          45.000        2767.144
  -9109022.417 7  22895901.913          47.000       -1062.880
 -14600376.637 8  20756662.968          48.000         595.097
 16  6 23  7 22  0.0000000  0 11G17G10G28G20S20G13G15G19G12G18G24
  -4637249.67914  22925743.565          26.000          -3.901
   -332862.188 6  23832158.411          38.000         628.443
   2756842.725 7  23616789.446          42.000       -3880.217
  13704697.935 6  23881344.781          41.000       -4202.350
  59340068.950 6  38646104.939          38.000        -887.113
  -1869341.954 7  21733936.010          44.000       -3741.010
   1305059.080 7  20630724.956          47.000       -2063.688
  -7405283.957 7  23019234.573          44.000        1843.975
   -843088.007 7  23074045.654          44.000        2741.245
  -9043804.974 7  22908311.112          46.000       -1107.660
 -14635005.525 8  20750074.115          48.000         562.467
 16  6 23  7 23  0.0000000  0 11G17G10G28G20S20G13G15G19G12G18G24
  -4635839.92516  22926007.762          36.000         -44.387
   -369281.546 5  23825225.805          35.000         587.423
   2990129.079 7  23661180.880          42.000       -3896.259
  13957240.130 7  23929403.274          43.000       -4215.634
  59393428.081 6  38656260.408          39.000        -891.431
  -1644031.475 7  21776810.061          44.000       -3769.813
   1430051.557 7  20654509.934          47.000       -2103.449
  -7515001.658 7  22998356.469          44.000        1813.244
  -1006956.303 7  23042863.494          44.000        2720.859
  -8976151.394 7  22921184.556          46.000       -1147.240
 -14667972.062 8  20743798.999          48.000         536.064
