     2.11           OBSERVATION DATA    M (MIXED)           RINEX VERSION / TYPE
teqc  2015Nov6      anonyme             20160628 13:38:58UTCPGM / RUN BY / DATE
Linux 2.4.21-27.ELsmp|Opteron|gcc|Linux x86_64|=+           COMMENT
-Unknown-                                                   MARKER NAME
-Unknown-           -Unknown-                               OBSERVER / AGENCY
-Unknown-           U-BLOX              -Unknown-           REC # / TYPE / VERS
-Unknown-           UBLOX           NONE                    ANT # / TYPE
        0.0000        0.0000        0.0000                  APPROX POSITION XYZ
        0.0000        0.0000        0.0000                  ANTENNA: DELTA H/E/N
     1     0                                                WAVELENGTH FACT L1/2
     4    L1    C1    S1    D1                              # / TYPES OF OBSERV
 SNR is mapped to RINEX snr flag value [0-9]                COMMENT
  L1 & L2: min(max(int(snr_dBHz/6), 0), 9)                  COMMENT
  2016     6    23     0     0   30.0000000     GPS         TIME OF FIRST OBS
    17                                                      LEAP SECONDS
                                                            END OF HEADER
 16  6 23  0  0 30.0000000  0 13G23G07G22G03S20G06G02G04G01G19G31G09
                                G17
 -23394403.832 8  20644536.182          50.000        -518.375
  -4254137.49016  24902120.036          36.000        3507.728
  -7696806.280 6  23682063.109          38.000       -2992.958
 -17251836.723 8  21842855.756          48.000       -2405.927
   7360851.787 6  38515368.839          40.000        -144.012
 -21005207.498 7  20974269.057          47.000        1343.485
  -4396697.438 6  24393887.609          40.000        3201.643
    -16920.34815  25605004.074          34.000        1841.724
   6004320.095 6  25171958.721          38.000       -3869.900
 -11455299.395 7  23071050.557          45.000       -2477.465
   2066917.301 7  24955881.138          44.000       -2940.471
 -21680324.488 8  20502417.473          50.000        1299.449
  -4860491.147 7  23740174.707          43.000       -3115.712
 16  6 23  0  1  0.0000000  0 13G23G07G22G03S20G06G02G04G01G19G31G09
                                G17
 -23378632.752 8  20647536.101          50.000        -533.209
  -4359393.132 6  24882094.428          39.000        3509.084
  -7606945.811 6  23699163.851          39.000       -2996.252
 -17179535.835 8  21856614.293          48.000       -2413.753
   7365164.050 6  38516188.528          40.000        -143.374
 -21045246.989 7  20966649.419          47.000        1326.336
  -4492684.933 6  24375621.088          39.000        3197.494
    -71956.09315  25594530.244          32.000        1825.688
   6120422.711 6  25194051.359          36.000       -3870.081
 -11380763.927 7  23085233.449          44.000       -2491.276
   2155303.943 7  24972699.727          44.000       -2951.347
 -21719064.135 8  20495044.930          50.000        1283.699
  -4766903.320 7  23757984.992          44.000       -3123.103
 16  6 23  0  1 30.0000000  0 13G23G07G22G03S20G06G02G04G01G19G31G09
                                G17
 -23362419.240 8  20650621.317          49.000        -547.294
  -4464673.298 6  24862060.147          40.000        3510.795
  -7516959.048 6  23716286.877          38.000       -3000.335
 -17106993.462 8  21870419.108          48.000       -2421.436
   7369475.665 6  38517010.050          40.000        -142.709
 -21084775.736 7  20959127.067          47.000        1309.594
  -4588534.341 6  24357380.637          39.000        3193.559
   -126568.05315  25584139.058          30.000        1815.941
   6236564.216 6  25216153.386          38.000       -3871.309
 -11305809.968 7  23099497.623          44.000       -2504.639
   2244035.071 7  24989584.959          44.000       -2963.037
 -21757331.031 8  20487762.605          50.000        1268.380
  -4673102.932 7  23775834.436          44.000       -3129.740
 16  6 23  0  2  0.0000000  0 13G23G07G22G03S20G06G02G04G01G19G31G09
                                G17
 -23345776.980 8  20653788.427          49.000        -561.698
  -4569989.089 6  24842021.207          40.000        3510.795
  -7426859.322 6  23733431.541          38.000       -3004.640
 -17034223.095 7  21884264.931          47.000       -2429.562
   7373776.431 6  38517829.739          40.000        -143.425
 -21123804.705 8  20951701.074          48.000        1292.588
  -4684256.195 6  24339168.892          39.000        3188.888
   -180767.16516  25573825.404          36.000        1799.832
   6352729.985 6  25238260.177          36.000       -3872.042
 -11230453.247 7  23113836.869          43.000       -2518.541
   2333095.208 7  25006532.192          43.000       -2974.116
 -21795137.555 8  20480568.578          50.000        1252.573
  -4579106.064 7  23793722.288          44.000       -3136.101
 16  6 23  0  2 30.0000000  0 13G23G07G22G03S20G06G02G04G01G19G31G09
                                G17
 -23328706.227 8  20657037.291          50.000        -576.734
  -4675337.223 6  24821971.622          39.000        3510.697
  -7336646.252 6  23750598.682          37.000       -3010.033
 -16961224.684 7  21898155.182          46.000       -2437.448
   7378066.921 6  38518645.938          40.000        -142.944
 -21162331.369 8  20944369.644          48.000        1275.183
  -4779847.701 6  24320975.260          39.000        3183.576
   -234550.318 5  25563590.991          35.000        1784.547
   6468919.071 6  25260370.353          38.000       -3873.526
 -11154695.949 7  23128253.471          44.000       -2532.624
   2422482.298 7  25023542.455          44.000       -2985.586
 -21832482.505 8  20473462.623          50.000        1236.470
  -4484915.004 7  23811644.778          43.000       -3143.339
 16  6 23  0  3  0.0000000  0 13G23G07G22G03S20G06G02G04G01G19G31G09
                                G17
 -23311198.059 8  20660368.659          50.000        -591.110
  -4780705.494 6  24801921.165          40.000        3512.339
  -7246311.270 6  23767788.176          37.000       -3012.555
 -16887989.397 7  21912091.624          46.000       -2445.254
   7382354.461 6  38519462.433          40.000        -142.838
 -21200344.445 7  20937135.604          47.000        1258.208
  -4875297.087 6  24302810.648          39.000        3179.601
   -287904.470 6  25553437.355          38.000        1770.943
   6585138.988 6  25282484.753          37.000       -3874.913
 -11078531.310 7  23142745.126          43.000       -2545.438
   2512203.239 7  25040616.620          44.000       -2996.406
 -21869355.950 8  20466446.257          51.000        1221.030
  -4390523.076 7  23829609.778          44.000       -3149.785
 16  6 23  0  3 30.0000000  0 13G23G07G22G03S20G06G02G04G01G19G31G09
                                G17
 -23293247.729 8  20663784.400          49.000        -605.518
  -4886085.503 6  24781868.387          40.000        3513.408
  -7155849.210 5  23785001.193          35.000       -3017.361
 -16814512.133 7  21926073.925          46.000       -2452.980
   7386644.413 6  38520277.638          40.000        -142.136
 -21237836.363 7  20930000.402          47.000        1241.359
  -4970595.994 6  24284678.214          41.000        3174.463
   -340821.382 7  25543367.637          42.000        1756.768
   6701393.713 6  25304608.400          36.000       -3876.073
 -11001956.538 7  23157318.483          44.000       -2558.803
   2602261.535 7  25057753.293          43.000       -3007.690
 -21905751.731 8  20459520.388          51.000        1205.226
  -4295927.778 7  23847608.246          44.000       -3156.161
 16  6 23  0  4  0.0000000  0 13G23G07G22G03S20G06G02G04G01G19G31G09
                                G17
 -23274872.900 8  20667280.952          49.000        -619.720
  -4991491.297 6  24761810.653          40.000        3513.846
  -7065277.234 5  23802235.987          35.000       -3020.973
 -16740810.244 7  21940100.829          46.000       -2460.320
   7390922.703 6  38521092.039          40.000        -142.137
 -21274822.089 7  20922962.014          47.000        1224.118
  -5065759.552 6  24266567.313          40.000        3169.996
   -393315.673 6  25533377.300          38.000        1742.915
   6817664.761 6  25326735.207          38.000       -3875.961
 -10924991.380 7  23171965.847          46.000       -2572.166
   2692637.768 7  25074951.494          42.000       -3018.396
 -21941686.131 8  20452682.258          51.000        1189.955
  -4201148.892 7  23865643.256          43.000       -3162.611
 16  6 23  0  4 30.0000000  0 13G23G07G22G03S20G06G02G04G01G19G31G09
                                G17
 -23256074.564 8  20670858.195          50.000        -633.469
  -5096920.563 6  24741748.539          40.000        3514.545
  -6974596.158 5  23819491.949          33.000       -3023.880
 -16666884.658 7  21954167.938          46.000       -2467.941
   7395189.137 6  38521905.132          40.000        -141.708
 -21311300.046 7  20916020.701          47.000        1207.491
  -5160785.507 6  24248484.560          40.000        3165.315
   -445385.037 6  25523469.677          37.000        1729.351
   6933950.235 6  25348863.392          37.000       -3876.479
 -10847638.635 7  23186684.827          45.000       -2584.722
   2783329.050 6  25092208.538          41.000       -3028.431
 -21977158.981 8  20445931.362          51.000        1174.922
  -4106189.428 7  23883714.980          43.000       -3167.906
 16  6 23  0  5  0.0000000  0 13G23G07G22G03S20G06G02G04G01G19G31G09
                                G17
 -23236854.698 8  20674516.214          50.000        -647.810
  -5202371.915 6  24721680.841          40.000        3515.158
  -6883807.63615  23836764.315          32.000       -3028.744
 -16592736.852 7  21968277.870          46.000       -2475.263
   7399441.018 6  38522713.898          40.000        -141.625
 -21347269.356 7  20909176.028          47.000        1189.944
  -5255672.329 6  24230428.174          38.000        3160.865
   -497027.218 6  25513642.343          38.000        1714.546
   7050247.318 6  25370992.658          37.000       -3876.398
 -10769901.927 7  23201477.376          44.000       -2597.775
   2874331.779 6  25109526.501          41.000       -3038.147
 -22012170.710 8  20439269.323          51.000        1159.036
  -4011053.529 7  23901819.232          44.000       -3174.166
 16  6 23  0  5 30.0000000  0 13G23G07G22G03S20G06G02G04G01G19G31G09
                                G17
 -23217193.213 8  20678257.314          50.000        -663.031
  -5307822.207 6  24701613.055          39.000        3514.860
  -6792891.23615  23854066.275          31.000       -3031.730
 -16518346.510 7  21982433.853          45.000       -2483.975
   7403698.954 6  38523523.937          40.000        -142.140
 -21382707.274 7  20902432.129          47.000        1171.966
  -5350396.910 6  24212402.221          39.000        3153.959
   -548218.791 6  25503902.085          40.000        1698.139
   7166575.28116  25393129.638          36.000       -3878.312
 -10691763.462 7  23216344.717          43.000       -2611.881
   2965664.483 6  25126906.726          40.000       -3049.929
 -22046699.969 8  20432698.199          51.000        1142.707
  -3915722.628 7  23919959.083          43.000       -3181.119
 16  6 23  0  6  0.0000000  0 13G23G07G22G03S20G06G02G04G01G19G31G09
                                G17
 -23197100.083 8  20682080.517          49.000        -676.417
  -5413277.005 6  24681543.403          37.000        3515.370
  -6701856.60015  23871388.094          32.000       -3035.155
 -16443723.357 7  21996633.043          45.000       -2490.638
   7407956.325 6  38524335.808          41.000        -141.902
 -21417621.109 7  20895787.872          47.000        1155.625
  -5444965.981 6  24194406.859          40.000        3150.275
   -598966.652 6  25494244.558          36.000        1685.452
   7282923.31116  25415272.464          36.000       -3878.447
 -10613235.194 7  23231289.607          43.000       -2623.149
   3057315.670 6  25144347.922          41.000       -3059.951
 -22080755.420 8  20426217.467          51.000        1127.996
  -3820209.632 7  23938135.212          43.000       -3186.515
 16  6 23  0  6 30.0000000  0 13G23G07G22G03S20G06G02G04G01G19G31G09
                                G17
 -23176580.851 8  20685985.876          50.000        -690.982
  -5518738.892 6  24661473.977          37.000        3517.246
  -6610709.401 5  23888736.141          33.000       -3039.856
 -16368872.849 7  22010875.858          45.000       -2498.710
   7412208.321 6  38525145.516          41.000        -141.194
 -21452013.981 7  20889244.494          47.000        1138.097
  -5539382.014 6  24176440.900          41.000        3144.970
   -649272.970 6  25484671.229          40.000        1669.395
   7399284.796 6  25437413.335          37.000       -3878.607
 -10534324.519 7  23246303.373          42.000       -2635.646
   3149277.842 6  25161846.860          40.000       -3071.202
 -22114341.554 8  20419826.185          51.000        1111.782
  -3724522.133 7  23956346.155          45.000       -3192.193
 16  6 23  0  7  0.0000000  0 13G23G07G22G03S20G06G02G04G01G19G31G09
                                G17
 -23155636.127 8  20689971.593          50.000        -705.542
  -5624204.602 6  24641403.731          38.000        3515.181
  -6519449.16815  23906102.720          33.000       -3044.596
 -16293794.976 7  22025163.957          45.000       -2506.748
   7416453.898 6  38525954.473          41.000        -142.080
 -21485883.557 7  20882798.907          47.000        1120.112
  -5633642.240 7  24158504.310          42.000        3139.330
   -699134.662 6  25475181.958          38.000        1653.575
   7515658.64715  25459557.626          34.000       -3879.237
 -10455033.896 7  23261392.891          42.000       -2649.608
   3241548.921 6  25179405.601          40.000       -3081.240
 -22147457.383 8  20413525.016          51.000        1095.761
  -3628662.486 7  23974586.274          44.000       -3198.257
 16  6 23  0  7 30.0000000  0 13G23G07G22G03S20G06G02G04G01G19G31G09
                                G17
 -23134253.022 8  20694040.338          50.000        -719.433
  -5729658.022 6  24621334.672          38.000        3515.270
  -6428063.17915  23923496.835          34.000       -3048.075
 -16218476.918 7  22039497.252          45.000       -2514.221
   7420704.981 6  38526764.617          41.000        -142.152
 -21519214.594 8  20876456.608          48.000        1101.988
  -5727730.572 6  24140598.449          41.000        3133.377
   -748535.392 6  25465782.067          38.000        1639.291
   7632056.68115  25481708.165          35.000       -3879.352
 -10375352.867 7  23276557.165          44.000       -2662.125
   3334139.761 6  25197024.423          38.000       -3091.557
 -22180089.008 8  20407315.566          51.000        1080.043
  -3532620.128 7  23992859.217          42.000       -3204.445
 16  6 23  0  8  0.0000000  0 13G23G07G22G03S20G06G02G04G01G19G31G09
                                G17
 -23112442.333 8  20698190.209          49.000        -734.262
  -5835105.982 6  24601270.272          39.000        3514.859
  -6336561.69515  23940907.057          32.000       -3052.551
 -16142928.762 7  22053873.526          45.000       -2522.136
   7424956.102 6  38527573.591          41.000        -141.856
 -21552014.906 8  20870214.543          48.000        1084.417
  -5821654.603 7  24122727.332          42.000        3127.955
   -797482.290 6  25456467.681          37.000        1624.601
   7748467.344 5  25503861.565          35.000       -3882.381
 -10295293.614 7  23291792.968          45.000       -2674.845
   3427038.290 6  25214702.034          38.000       -3101.104
 -22212245.669 8  20401195.687          51.000        1063.949
  -3436407.790 7  24011170.079          43.000       -3209.815
 16  6 23  0  8 30.0000000  0 13G23G07G22G03S20G06G02G04G01G19G31G09
                                G17
 -23090209.481 8  20702421.398          50.000        -747.767
  -5940550.864 6  24581202.801          37.000        3514.560
  -6244949.79015  23958340.173          33.000       -3054.656
 -16067155.871 7  22068291.839          45.000       -2529.439
   7429201.957 6  38528381.187          41.000        -141.386
 -21584287.512 8  20864073.637          48.000        1067.282
  -5915416.621 6  24104883.507          41.000        3123.224
   -845977.292 6  25447238.872          39.000        1608.852
   7864884.64115  25526011.092          33.000       -3879.646
 -10214863.887 7  23307098.239          45.000       -2686.976
   3520237.159 6  25232437.738          38.000       -3112.224
 -22243931.683 8  20395165.904          51.000        1048.661
  -3340032.835 7  24029509.944          43.000       -3214.923
 16  6 23  0  9  0.0000000  0 13G23G07G22G03S20G06G02G04G01G19G31G09
                                G17
 -23067560.374 8  20706731.462          50.000        -762.484
  -6045994.642 6  24561140.704          38.000        3514.594
  -6153232.65615  23975792.189          31.000       -3062.150
 -15991163.548 7  22082751.281          45.000       -2537.496
   7433435.880 6  38529186.358          41.000        -141.386
 -21616035.444 8  20858032.668          49.000        1049.019
  -6009018.955 6  24087073.152          41.000        3116.768
   -894023.228 6  25438096.022          37.000        1592.797
   7981301.87115  25548164.510          33.000       -3882.076
 -10134071.157 7  23322469.840          43.000       -2699.891
   3613729.374 6  25250227.868          38.000       -3122.131
 -22275151.454 8  20389225.030          51.000        1032.256
  -3243503.405 7  24047880.085          44.000       -3221.482
 16  6 23  0  9 30.0000000  0 13G23G07G22G03S20G06G02G04G01G19G31G09
                                G17
 -23044479.716 8  20711123.089          50.000        -776.425
  -6151418.521 6  24541077.491          38.000        3513.898
  -6061395.09515  23993270.798          33.000       -3062.916
 -15914936.494 7  22097257.438          46.000       -2544.392
   7437673.274 6  38529991.528          40.000        -141.052
 -21647241.103 8  20852094.603          49.000        1031.290
  -6102443.281 7  24069294.399          42.000        3111.104
   -941601.453 6  25429042.675          38.000        1578.471
   8097733.19715  25570322.430          34.000       -3880.995
 -10052902.467 7  23337915.673          43.000       -2711.978
   3707528.026 6  25268077.033          38.000       -3132.180
 -22305888.732 8  20383376.450          51.000        1016.584
  -3146805.846 6  24066278.268          41.000       -3225.741
 16  6 23  0 10  0.0000000  0 13G23G07G22G03S20G06G02G04G01G19G31G09
                                G17
 -23020972.168 8  20715596.679          50.000        -790.945
  -6256823.107 6  24521021.589          39.000        3512.593
  -5969441.00715  24010769.963          32.000       -3065.924
 -15838478.681 7  22111808.005          46.000       -2552.468
   7441914.154 6  38530798.653          40.000        -141.983
 -21677906.182 8  20846258.901          49.000        1012.962
  -6195690.447 7  24051551.087          43.000        3105.079
   -988712.818 6  25420076.038          36.000        1561.697
   8214173.69015  25592478.448          31.000       -3880.600
  -9971363.846 7  23353432.337          43.000       -2724.316
   3801627.249 6  25285983.905          37.000       -3142.005
 -22336146.573 8  20377618.279          51.000        1000.519
  -3049947.178 7  24084712.870          43.000       -3231.622
 16  6 23  0 10 30.0000000  0 13G23G07G22G03S20G06G02G04G01G19G31G09
                                G17
 -22997049.186 8  20720149.266          50.000        -804.038
  -6362216.695 6  24500967.747          41.000        3513.598
  -5877381.80515  24028287.714          32.000       -3071.107
 -15761801.666 7  22126399.092          46.000       -2559.022
   7446146.292 6  38531604.330          40.000        -140.825
 -21708040.025 8  20840524.097          48.000         995.497
  -6288769.418 7  24033838.698          44.000        3100.184
  -1035365.760 5  25411200.333          33.000        1547.533
   8330610.83015  25614636.961          30.000       -3885.093
  -9889469.876 7  23369015.992          43.000       -2735.346
   3896013.610 6  25303945.414          38.000       -3150.140
 -22365935.637 8  20371949.716          50.000         985.172
  -2952941.004 7  24103171.728          42.000       -3235.331
 16  6 23  0 11  0.0000000  0 13G23G07G22G03S20G06G02G04G01G19G31G09
                                G17
 -22972713.144 8  20724780.031          50.000        -818.026
  -6467598.542 6  24480914.236          41.000        3513.511
  -5785219.46215  24045828.550          32.000       -3074.892
 -15684907.428 7  22141032.879          47.000       -2566.666
   7450368.593 6  38532409.221          40.000        -140.604
 -21737642.328 8  20834891.254          48.000         978.011
  -6381678.985 7  24016158.643          44.000        3094.262
  -1081559.179 5  25402407.465          34.000        1531.656
   8447041.50515  25636790.239          30.000       -3880.318
  -9807224.226 7  23384667.494          43.000       -2746.856
   3990682.992 6  25321960.862          38.000       -3160.318
 -22395256.990 8  20366368.996          50.000         969.596
  -2855792.014 7  24121658.663          42.000       -3240.960
 16  6 23  0 11 30.0000000  0 13G23G07G22G03S20G06G02G04G01G19G31G09
                                G17
 -22947960.598 8  20729490.682          50.000        -832.000
  -6572960.856 6  24460866.152          41.000        3511.448
  -5692949.81615  24063387.169          33.000       -3078.566
 -15607791.806 7  22155707.378          47.000       -2573.928
   7454583.204 6  38533210.134          40.000        -140.525
 -21766706.774 8  20829359.849          48.000         959.891
  -6474411.893 7  23998512.163          44.000        3088.207
  -1127286.21215  25393707.886          34.000        1516.602
   8563468.59715  25658949.677          33.000       -3879.832
  -9724625.289 7  23400384.643          43.000       -2759.124
   4085637.786 6  25340029.620          38.000       -3169.634
 -22424105.635 8  20360880.711          51.000         953.647
  -2758497.898 7  24140170.500          42.000       -3245.520
 16  6 23  0 12  0.0000000  0 13G23G07G22G03S20G06G02G04G01G19G31G09
                                G17
 -22922784.865 8  20734281.500          50.000        -846.184
  -6678293.042 6  24440820.336          41.000        3510.355
  -5600567.41115  24080970.287          33.000       -3081.716
 -15530447.836 8  22170425.677          48.000       -2581.890
   7458801.110 6  38534012.093          40.000        -140.258
 -21795224.116 8  20823933.407          48.000         941.719
  -6566958.337 7  23980900.618          43.000        3082.199
  -1172536.526 5  25385097.425          33.000        1500.737
   8679898.38015  25681107.248          33.000       -3881.524
  -9641668.358 7  23416172.239          44.000       -2771.071
   4180882.854 6  25358155.284          39.000       -3179.670
 -22452473.685 8  20355482.207          51.000         937.684
  -2661054.450 7  24158714.480          42.000       -3250.427
 16  6 23  0 12 30.0000000  0 11G23G07G03S20G06G02G04G19G31G09G17
 -22897190.134 8  20739151.367          50.000        -859.449
  -6783595.997 6  24420783.019          41.000        3510.070
 -15452879.462 7  22185185.734          47.000       -2589.072
   7463019.833 6  38534813.704          40.000        -140.033
 -21823196.165 8  20818610.951          49.000         923.715
  -6659319.434 7  23963325.352          43.000        3075.738
  -1217311.234 5  25376576.658          34.000        1483.445
  -9558359.645 7  23432024.941          44.000       -2782.542
   4276412.343 6  25376332.826          40.000       -3188.622
 -22480364.302 8  20350174.828          50.000         922.017
  -2563467.791 7  24177284.984          42.000       -3255.140
 16  6 23  0 13  0.0000000  0 11G23G07G03S20G06G02G04G19G31G09G17
 -22871182.525 8  20744100.510          50.000        -874.148
  -6888872.256 6  24400749.663          41.000        3508.479
 -15375092.503 7  22199988.335          47.000       -2597.002
   7467231.362 6  38535615.262          40.000        -139.714
 -21850626.514 8  20813391.242          49.000         904.916
  -6751497.736 7  23945784.410          43.000        3069.552
  -1261612.964 5  25368145.917          34.000        1468.411
  -9474707.303 7  23447943.641          44.000       -2794.768
   4372218.296 6  25394563.872          40.000       -3198.611
 -22507782.416 8  20344957.195          51.000         905.665
  -2465746.247 7  24195883.566          43.000       -3259.481
 16  6 23  0 13 30.0000000  0 11G23G07G03S20G06G02G04G19G31G09G17
 -22844753.892 8  20749129.698          50.000        -888.534
  -6994109.794 6  24380724.038          41.000        3506.957
 -15297078.208 7  22214832.276          47.000       -2604.433
   7471444.713 6  38536416.210          40.000        -141.062
 -21877504.317 8  20808276.740          49.000         886.482
  -6843481.665 7  23928279.940          43.000        3062.341
  -1305430.012 6  25359808.814          37.000        1452.802
  -9390704.978 7  23463929.262          44.000       -2805.821
   4468307.635 7  25412849.658          42.000       -3208.181
 -22534718.490 8  20339831.246          51.000         889.591
  -2367883.346 7  24214505.077          43.000       -3264.966
 16  6 23  0 14  0.0000000  0 12G23G07G03S20G06G02G04G01G19G31G09G17
 -22817907.498 8  20754238.720          50.000        -901.936
  -7099308.166 7  24360705.095          42.000        3505.939
 -15218839.497 7  22229721.238          47.000       -2611.783
   7475660.904 6  38537218.344          39.000        -141.477
 -21903830.292 8  20803266.695          49.000         867.842
  -6935271.073 7  23910814.575          44.000        3056.745
  -1348762.424 6  25351561.858          37.000        1436.574
   9145522.13315  25769719.716          31.000       -3880.213
  -9306358.005 7  23479979.972          44.000       -2816.884
   4564675.435 6  25431188.511          41.000       -3217.175
 -22561174.572 8  20334797.748          51.000         873.785
  -2269884.330 7  24233152.868          42.000       -3268.604
 16  6 23  0 14 30.0000000  0 12G23G07G03S20G06G02G04G01G19G31G09G17
 -22790652.306 8  20759425.012          50.000        -914.857
  -7204472.829 7  24340693.692          42.000        3505.266
 -15140384.700 7  22244651.487          47.000       -2618.035
   7479871.345 6  38538018.192          39.000        -139.561
 -21929610.679 8  20798360.619          49.000         850.589
  -7026871.271 7  23893383.029          44.000        3050.277
  -1391615.438 6  25343407.389          36.000        1420.919
   9261917.70115  25791868.859          32.000       -3879.114
  -9221677.036 7  23496093.974          44.000       -2827.510
   4661311.440 7  25449577.812          43.000       -3224.848
 -22587158.280 8  20329852.688          51.000         858.537
  -2171759.978 6  24251824.636          41.000       -3273.174
 16  6 23  0 15  0.0000000  0 13G23G07G22G03S20G06G02G04G01G19G31G09
                                G17
 -22762988.393 8  20764689.691          50.000        -929.351
  -7309599.951 6  24320684.469          40.000        3503.638
  -5068991.03714  24186867.213          24.000       -3103.600
 -15061713.733 7  22259621.784          47.000       -2626.370
   7484074.906 6  38538818.145          39.000        -139.833
 -21954843.280 8  20793558.738          49.000         831.499
  -7118279.181 7  23875987.815          44.000        3043.235
  -1433986.425 6  25335345.336          38.000        1403.311
   9378297.25415  25814015.907          32.000       -3878.860
  -9136664.345 7  23512271.600          44.000       -2839.587
   4758213.882 6  25468016.916          41.000       -3234.806
 -22612668.663 8  20324997.514          51.000         842.092
  -2073512.673 7  24270522.422          42.000       -3277.513
 16  6 23  0 15 30.0000000  0 13G23G07G22G03S20G06G02G04G01G19G31G09
                                G17
 -22734906.971 8  20770033.663          50.000        -942.800
  -7414676.971 6  24300690.638          41.000        3501.446
  -4975845.70714  24204592.132          26.000       -3106.398
 -14982817.537 7  22274635.481          47.000       -2633.529
   7488281.650 6  38539618.395          40.000        -140.990
 -21979516.923 8  20788863.530          49.000         813.395
  -7209482.689 7  23858632.526          44.000        3036.064
  -1475863.190 6  25327376.345          39.000        1387.713
   9494669.12915  25836162.502          32.000       -3874.795
  -9051313.097 7  23528514.908          44.000       -2850.297
   4855389.847 7  25486509.331          42.000       -3243.145
 -22637695.931 8  20320235.873          51.000         826.228
  -1975135.364 7  24289244.028          43.000       -3281.255
 16  6 23  0 16  0.0000000  0 13G23G07G22G03S20G06G02G04G01G19G31G09
                                G17
 -22706416.065 8  20775454.904          50.000        -956.321
  -7519708.395 6  24280702.304          41.000        3499.969
  -4882602.31314  24222338.288          26.000       -3110.776
 -14903703.534 7  22289690.778          47.000       -2640.589
   7492486.279 6  38540421.715          39.000        -140.506
 -22003637.001 8  20784273.477          48.000         794.713
  -7300486.074 7  23841316.256          44.000        3030.467
  -1517250.235 6  25319499.614          37.000        1372.057
   9611025.39115  25858302.658          31.000       -3879.344
  -8965633.369 7  23544819.554          45.000       -2861.310
   4952829.647 7  25505051.705          43.000       -3251.930
 -22662246.762 8  20315563.036          51.000         810.566
  -1876638.044 6  24307983.747          41.000       -3284.683
 16  6 23  0 16 30.0000000  0 13G23G07G22G03S20G06G02G04G01G19G31G09
                                G17
 -22677516.668 8  20780954.463          49.000        -969.998
  -7624691.203 6  24260725.172          41.000        3499.176
  -4789256.00514  24240105.873          27.000       -3112.969
 -14824372.284 7  22304787.101          47.000       -2647.365
   7496690.197 6  38541221.633          39.000        -139.025
 -22027201.979 8  20779790.010          49.000         776.313
  -7391287.012 7  23824036.579          45.000        3023.745
  -1558145.501 6  25311719.225          38.000        1355.798
   9727364.44814  25880443.145          28.000       -3878.265
  -8879628.013 7  23561187.317          45.000       -2871.601
   5050530.876 6  25523642.713          40.000       -3260.585
 -22686320.907 8  20310982.232          51.000         795.012
  -1778023.678 7  24326751.962          42.000       -3288.734
 16  6 23  0 17  0.0000000  0 13G23G07G22G03S20G06G02G04G01G19G31G09
                                G17
 -22648213.727 8  20786530.087          49.000        -983.872
  -7729626.979 7  24240756.975          42.000        3496.300
  -4695810.52714  24257888.325          29.000       -3116.353
 -14744828.262 7  22319922.984          47.000       -2655.654
   7500886.755 6  38542020.138          39.000        -139.948
 -22050214.302 8  20775410.040          48.000         757.695
  -7481887.107 7  23806795.799          45.000        3017.037
  -1598550.207 6  25304031.112          39.000        1338.884
   9843681.87414  25902578.432          29.000       -3875.969
  -8793303.596 7  23577611.445          44.000       -2883.198
   5148486.978 7  25542283.559          42.000       -3269.304
 -22709922.164 8  20306491.279          51.000         778.477
  -1679299.002 7  24345539.652          42.000       -3293.466
 16  6 23  0 17 30.0000000  0 13G23G07G22G03S20G06G02G04G01G19G31G09
                                G17
 -22618497.288 8  20792185.440          49.000        -997.574
  -7834501.559 6  24220798.882          41.000        3494.400
  -4602255.23414  24275690.985          28.000       -3119.126
 -14665061.199 7  22335103.382          47.000       -2662.785
   7505086.820 6  38542819.428          40.000        -140.245
 -22072661.707 8  20771138.768          48.000         738.305
  -7572273.050 7  23789595.189          45.000        3008.675
  -1638451.490 6  25296437.371          40.000        1321.490
   9959986.16115  25924711.206          34.000       -3876.595
  -8706652.656 7  23594100.592          44.000       -2894.109
   5246706.815 7  25560975.046          44.000       -3278.633
 -22733039.539 8  20302091.503          51.000         761.930
  -1580456.112 6  24364346.659          41.000       -3297.083
 16  6 23  0 18  0.0000000  0 13G23G07G22G03S20G06G02G04G01G19G31G09
                                G17
 -22588365.338 8  20797918.936          49.000       -1011.050
  -7939309.376 6  24200855.238          41.000        3492.356
  -4508587.65814  24293516.609          29.000       -3124.642
 -14585068.559 7  22350325.381          46.000       -2670.064
   7509296.121 6  38543620.532          40.000        -140.667
 -22094539.597 8  20766975.268          49.000         719.945
  -7662439.156 7  23772436.949          44.000        3002.479
  -1677843.931 6  25288940.757          39.000        1304.491
  10076283.94613  25946840.456          20.000       -3884.621
  -8619674.720 7  23610651.548          44.000       -2904.446
   5345190.528 7  25579715.428          43.000       -3287.585
 -22755669.728 8  20297786.203          52.000         746.538
  -1481494.808 6  24383179.318          41.000       -3300.608
 16  6 23  0 18 30.0000000  0 13G23G07G22G03S20G06G02G04G01G19G31G09
                                G17
 -22557833.721 8  20803728.829          49.000       -1024.238
  -8044062.486 6  24180921.889          41.000        3491.296
  -4414823.49715  24311359.125          30.000       -3128.325
 -14504865.667 7  22365587.551          46.000       -2676.588
   7513500.103 6  38544420.921          40.000        -140.390
 -22115861.351 8  20762918.127          48.000         701.552
  -7752397.590 7  23755319.402          44.000        2995.227
  -1716740.241 6  25281538.846          39.000        1288.587
  10192569.70415  25968963.353          35.000       -3875.342
  -8532387.643 7  23627260.194          43.000       -2914.352
   5443921.028 6  25598503.606          41.000       -3294.848
 -22777827.461 8  20293569.375          52.000         731.072
  -1382432.572 7  24402030.649          42.000       -3303.679
 16  6 23  0 19  0.0000000  0 13G23G07G22G03S20G06G02G04G01G19G31G09
                                G17
 -22526906.635 8  20809615.119          49.000       -1037.740
  -8148761.694 7  24160999.569          42.000        3488.860
  -4320966.32515  24329221.884          31.000       -3130.721
 -14424456.431 7  22380889.438          46.000       -2683.779
   7517693.016 6  38545217.594          39.000        -139.500
 -22136628.883 8  20758965.810          49.000         683.148
  -7842149.458 7  23738238.378          44.000        2988.197
  -1755141.356 6  25274230.782          38.000        1271.831
  10308808.02616  25991082.638          39.000       -3874.299
  -8444797.710 7  23643931.277          44.000       -2924.931
   5542892.565 7  25617337.853          44.000       -3303.931
 -22799515.871 8  20289442.713          52.000         714.829
  -1283275.799 7  24420901.698          43.000       -3306.894
 16  6 23  0 19 30.0000000  0 13G23G07G22G03S20G06G02G04G01G19G31G09
                                G17
 -22495575.921 8  20815576.323          49.000       -1050.726
  -8253394.298 7  24141088.416          42.000        3486.732
  -4227007.69115  24347100.504          30.000       -3133.890
 -14343832.178 7  22396232.699          46.000       -2690.820
   7521884.408 6  38546015.697          40.000        -139.970
 -22156831.610 8  20755121.632          49.000         664.062
  -7931682.849 7  23721201.487          44.000        2981.402
  -1793035.877 6  25267020.928          38.000        1255.054
  10425016.91114  26013196.671          29.000       -3873.112
  -8356898.821 7  23660657.694          44.000       -2935.167
   5642111.457 7  25636217.942          42.000       -3311.245
 -22820725.700 8  20285405.570          51.000         699.444
  -1184018.386 7  24439787.580          42.000       -3310.169
 16  6 23  0 20  0.0000000  0 13G23G07G22G03S20G06G02G04G01G19G31G09
                                G17
 -22463840.921 8  20821615.337          49.000       -1064.633
  -8357955.782 7  24121190.195          42.000        3484.040
  -4132945.99615  24364998.652          32.000       -3137.835
 -14262991.526 7  22411615.362          46.000       -2698.092
   7526078.638 6  38546813.538          40.000        -140.687
 -22176466.181 8  20751385.575          49.000         645.085
  -8020993.429 7  23704205.812          44.000        2973.508
  -1830419.748 6  25259906.003          39.000        1237.351
  10541204.00214  26035306.411          29.000       -3872.712
  -8268691.594 7  23677442.884          44.000       -2945.105
   5741577.589 7  25655146.315          43.000       -3319.394
 -22841454.823 8  20281460.948          51.000         683.016
  -1084661.189 6  24458692.361          39.000       -3312.901
 16  6 23  0 20 30.0000000  0 13G23G07G22G03S20G06G02G04G01G19G31G09
                                G17
 -22431705.787 8  20827730.574          49.000       -1077.717
  -8462446.746 7  24101306.754          43.000        3481.957
  -4038784.98015  24382917.896          31.000       -3143.108
 -14181938.185 7  22427038.650          45.000       -2705.190
   7530272.939 6  38547613.177          40.000        -138.963
 -22195534.408 8  20747757.378          49.000         626.404
  -8110081.730 7  23687251.425          43.000        2966.084
  -1867293.908 6  25252889.061          40.000        1220.401
  10657369.76714  26057409.956          25.000       -3870.981
  -8180182.326 7  23694285.642          44.000       -2955.263
   5841285.243 7  25674120.042          44.000       -3327.676
 -22861706.352 8  20277607.242          52.000         667.354
   -985210.056 6  24477619.146          41.000       -3316.642
 16  6 23  0 21  0.0000000  0 13G23G07G22G03S20G06G02G04G01G19G31G09
                                G17
 -22399173.681 8  20833921.719          49.000       -1091.136
  -8566866.791 7  24081436.243          43.000        3479.491
  -3944527.37515  24400853.789          31.000       -3143.732
 -14100675.103 7  22442503.295          45.000       -2712.060
   7534462.737 6  38548411.315          40.000        -139.795
 -22214037.320 8  20744237.320          49.000         607.463
  -8198947.677 7  23670340.593          42.000        2958.269
  -1903658.540 6  25245968.305          37.000        1203.010
  10773502.17513  26079510.238          18.000       -3875.684
  -8091376.742 7  23711183.212          44.000       -2964.765
   5941229.225 7  25693139.191          44.000       -3335.216
 -22881482.602 8  20273844.557          52.000         651.163
   -885670.134 6  24496558.949          40.000       -3319.882
 16  6 23  0 21 30.0000000  0 12G23G07G22G03S20G06G02G04G19G31G09G17
 -22366237.518 8  20840188.459          48.000       -1104.952
  -8671204.726 7  24061582.816          44.000        3476.166
  -3850165.57715  24418810.813          32.000       -3147.125
 -14019194.614 7  22458006.155          44.000       -2719.960
   7538655.849 6  38549209.889          40.000        -139.037
 -22231965.358 8  20740824.860          49.000         587.723
  -8287580.714 7  23653474.661          43.000        2950.448
  -1939503.357 6  25239146.997          38.000        1186.168
  -8002269.095 7  23728141.613          44.000       -2975.570
   6041415.202 7  25712203.519          42.000       -3344.451
 -22900775.242 8  20270173.013          51.000         634.784
   -786036.232 6  24515518.995          40.000       -3323.655
 16  6 23  0 22  0.0000000  0 12G23G07G22G03S20G06G02G04G19G31G09G17
 -22332904.632 8  20846531.648          48.000       -1117.269
  -8775464.208 7  24041741.535          43.000        3474.885
  -3755706.40115  24436787.364          31.000       -3149.966
 -13937503.585 7  22473551.752          44.000       -2726.085
   7542849.050 6  38550010.052          40.000        -138.791
 -22249323.570 8  20737521.953          49.000         569.371
  -8375984.528 7  23636650.906          42.000        2943.737
  -1974832.342 6  25232426.290          41.000        1169.654
  -7912868.941 7  23745154.406          44.000       -2984.268
   6141835.026 7  25731312.589          43.000       -3351.136
 -22919590.583 8  20266592.054          51.000         619.476
   -686317.804 6  24534494.484          39.000       -3324.559
 16  6 23  0 22 30.0000000  0 12G23G07G22G03S20G06G02G04G19G31G09G17
 -22299184.463 8  20852948.041          48.000       -1130.276
  -8879650.965 7  24021915.103          44.000        3471.382
  -3661158.60415  24454779.219          31.000       -3153.854
 -13855610.956 7  22489136.175          45.000       -2732.633
   7547034.593 6  38550806.881          40.000        -138.848
 -22266119.044 8  20734325.108          49.000         550.555
  -8464165.044 7  23619872.592          44.000        2935.631
  -2009652.066 6  25225800.216          40.000        1152.111
  -7823187.483 7  23762218.450          43.000       -2993.582
   6242477.493 7  25750464.570          42.000       -3358.061
 -22937936.937 8  20263101.417          51.000         604.136
   -586525.613 6  24553485.852          41.000       -3326.958
 16  6 23  0 23  0.0000000  0 12G23G07G22G03S20G06G02G04G19G31G09G17
 -22265079.128 8  20859437.986          48.000       -1143.668
  -8983762.912 7  24002103.365          43.000        3468.332
  -3566524.33915  24472789.031          33.000       -3159.321
 -13773518.327 7  22504758.185          45.000       -2740.069
   7551208.169 6  38551600.779          40.000        -139.514
 -22282351.529 8  20731235.896          49.000         531.268
  -8552120.472 7  23603135.896          45.000        2927.899
  -2043961.532 6  25219270.938          40.000        1134.114
  -7733228.472 7  23779336.660          43.000       -3003.283
   6343338.843 7  25769658.466          43.000       -3366.048
 -22955815.356 8  20259699.340          51.000         587.720
   -486663.516 7  24572491.199          42.000       -3330.672
 16  6 23  0 23 30.0000000  0 12G23G07G22G03S20G06G02G04G19G31G09G17
 -22230578.725 8  20866002.828          48.000       -1157.168
  -9087786.213 7  23982307.856          43.000        3465.205
  -3471792.32215  24490816.833          34.000       -3160.760
 -13691215.133 7  22520421.030          45.000       -2747.661
   7555381.693 6  38552394.554          40.000        -140.525
 -22298008.673 8  20728256.777          49.000         511.300
  -8639837.416 7  23586440.069          44.000        2919.617
  -2077747.335 6  25212840.654          39.000        1116.680
  -7642984.126 7  23796509.733          43.000       -3013.248
   6444428.204 6  25788895.341          41.000       -3373.649
 -22973214.682 8  20256387.830          51.000         571.410
   -386723.873 6  24591509.563          41.000       -3333.172
 16  6 23  0 24  0.0000000  0 12G23G07G22G03S20G06G02G04G19G31G09G17
 -22195680.692 8  20872644.084          48.000       -1169.328
  -9191714.841 7  23962528.976          42.000        3463.091
  -3376959.59415  24508862.208          34.000       -3165.411
 -13608698.429 7  22536123.032          45.000       -2753.999
   7559561.278 6  38553190.232          40.000        -139.337
 -22313085.749 8  20725387.734          49.000         493.281
  -8727309.823 7  23569797.168          44.000        2912.741
  -2111004.097 6  25206513.816          39.000        1099.880
  -7552454.231 7  23813737.321          43.000       -3022.352
   6545746.673 6  25808175.616          40.000       -3381.199
 -22990131.423 8  20253168.858          51.000         556.186
   -286705.627 7  24610541.852          42.000       -3334.629
 16  6 23  0 24 30.0000000  0 13G23G07G22G03S20G06G02G04G19G31G09G26
                                G17
 -22160390.932 8  20879359.800          48.000       -1183.359
  -9295550.558 7  23942769.868          42.000        3459.683
  -3282031.930 5  24526926.534          34.000       -3167.952
 -13525973.507 7  22551862.413          44.000       -2761.783
   7563741.902 6  38553984.950          40.000        -139.276
 -22327586.300 8  20722628.157          49.000         473.182
  -8814539.953 7  23553197.421          44.000        2903.172
  -2143734.615 6  25200283.792          38.000        1081.352
  -7461646.112 7  23831018.307          44.000       -3031.812
   6647287.201 6  25827497.823          41.000       -3388.191
 -23006570.293 8  20250040.470          51.000         539.528
    -48963.57215  25517255.585          33.000        1632.757
   -186616.290 6  24629586.932          41.000       -3337.926
 16  6 23  0 25  0.0000000  0 13G23G07G22G03S20G06G02G04G19G31G09G26
                                G17
 -22124713.347 8  20886149.244          48.000       -1195.696
  -9399293.133 7  23923028.157          43.000        3456.835
  -3187012.448 5  24545010.002          35.000       -3169.175
 -13443043.974 7  22567643.849          45.000       -2767.846
   7567918.795 6  38554780.994          40.000        -139.240
 -22341512.100 8  20719977.731          49.000         454.613
  -8901528.342 7  23536642.714          44.000        2895.320
  -2175939.627 6  25194156.933          40.000        1064.283
  -7370565.808 7  23848349.776          44.000       -3040.802
   6749044.367 7  25846861.300          42.000       -3396.101
 -23022534.364 8  20247002.876          51.000         524.068
    -97718.93415  25507979.572          35.000        1618.058
    -86461.849 6  24648646.462          41.000       -3339.385
 16  6 23  0 25 30.0000000  0 13G23G07G22G03S20G06G02G04G19G31G09G26
                                G17
 -22088638.003 8  20893014.456          48.000       -1208.707
  -9502929.341 7  23903311.366          44.000        3453.370
  -3091890.352 5  24563111.846          35.000       -3172.261
 -13359899.084 7  22583465.962          45.000       -2774.841
   7572103.259 6  38555576.811          40.000        -138.961
 -22354850.781 8  20717439.684          49.000         435.419
  -8988261.241 7  23520139.816          45.000        2887.254
  -2207606.246 6  25188131.251          40.000        1046.875
  -7279204.896 7  23865734.800          43.000       -3049.481
   6851026.873 6  25866267.757          37.000       -3402.635
 -23038012.415 8  20244056.982          51.000         508.202
   -146061.286 5  25498779.835          34.000        1605.149
     13765.960 6  24667718.136          41.000       -3342.085
 16  6 23  0 26  0.0000000  0 13G23G07G22G03S20G06G02G04G19G31G09G26
                                G17
 -22052176.230 8  20899952.227          48.000       -1221.774
  -9606466.085 7  23883605.829          43.000        3449.994
  -2996676.862 5  24581230.582          35.000       -3174.036
 -13276549.842 7  22599326.430          45.000       -2782.289
   7576287.170 6  38556371.005          40.000        -139.372
 -22367611.568 8  20715011.468          49.000         415.651
  -9074746.456 7  23503682.655          45.000        2878.452
  -2238742.789 6  25182206.884          41.000        1029.055
  -7187576.984 7  23883172.226          44.000       -3059.073
   6953221.744 6  25885714.332          36.000       -3409.529
 -23053014.886 8  20241202.214          51.000         492.158
   -193999.011 5  25489657.297          35.000        1590.626
    114053.975 7  24686804.225          42.000       -3343.789
 16  6 23  0 26 30.0000000  0 13G23G07G22G03S20G06G02G04G19G31G09G26
                                G17
 -22015328.171 8  20906964.143          48.000       -1234.320
  -9709899.861 7  23863922.385          43.000        3446.136
  -2901371.372 6  24599368.617          36.000       -3178.288
 -13192995.753 7  22615226.021          45.000       -2788.167
   7580471.783 6  38557167.538          40.000        -138.735
 -22379792.311 8  20712693.556          49.000         396.573
  -9160980.140 7  23487272.645          45.000        2870.601
  -2269346.006 6  25176381.426          40.000        1011.447
  -7095683.973 7  23900658.915          43.000       -3067.050
   7055628.80614  25905203.730          27.000       -3419.389
 -23067540.831 8  20238438.152          51.000         476.282
   -241528.691 5  25480612.326          35.000        1577.821
    214400.626 6  24705898.933          41.000       -3345.487
 16  6 23  0 27  0.0000000  0 13G23G07G22G03S20G06G02G04G19G31G09G26
                                G17
 -21978096.578 8  20914049.367          48.000       -1247.390
  -9813229.481 7  23844258.468          43.000        3442.184
  -2805976.027 5  24617518.850          35.000       -3183.091
 -13109239.023 7  22631166.394          46.000       -2795.462
   7584653.947 6  38557964.524          40.000        -139.359
 -22391393.516 8  20710486.208          49.000         377.208
  -9246961.648 7  23470910.204          45.000        2861.230
  -2299415.854 6  25170658.191          39.000         993.040
  -7003530.648 7  23918194.883          43.000       -3076.614
   7158243.64314  25924728.395          26.000       -3424.123
 -23081591.921 8  20235764.831          51.000         460.090
   -288649.379 5  25471643.979          33.000        1563.675
    314801.096 6  24725003.676          41.000       -3347.296
 16  6 23  0 27 30.0000000  0 13G23G07G22G03S20G06G02G04G19G31G09G26
                                G17
 -21940469.143 8  20921209.122          48.000       -1260.501
  -9916438.705 7  23824618.963          43.000        3438.327
  -2710478.053 5  24635688.453          35.000       -3186.470
 -13025267.006 7  22647146.326          46.000       -2801.994
   7588845.602 6  38558763.779          41.000        -139.579
 -22402400.930 8  20708391.327          49.000         357.631
  -9332675.112 7  23454599.800          45.000        2853.214
  -2328937.526 6  25165041.472          41.000         975.942
  -6911106.651 7  23935780.951          43.000       -3085.579
   7261076.43213  25944295.219          19.000       -3429.063
 -23095155.065 8  20233183.455          51.000         444.470
   -335345.307 5  25462759.532          34.000        1549.865
    415266.227 7  24744123.461          42.000       -3349.802
 16  6 23  0 28  0.0000000  0 12G23G07G22G03S20G06G02G04G19G09G26G17
 -21902457.678 7  20928441.853          47.000       -1273.512
 -10019535.033 7  23804999.474          42.000        3434.941
  -2614888.553 6  24653882.591          36.000       -3188.165
 -12941090.781 7  22663163.881          46.000       -2809.196
   7593040.087 6  38559563.104          40.000        -139.737
 -22412823.984 8  20706407.970          49.000         337.824
  -9418128.699 7  23438339.547          45.000        2844.039
  -2357919.426 6  25159527.308          41.000         956.297
  -6818425.491 7  23953418.601          43.000       -3094.146
 -23108240.889 8  20230693.257          51.000         428.048
   -381624.638 5  25453954.815          35.000        1534.145
    515782.450 6  24763249.650          41.000       -3351.097
 16  6 23  0 28 30.0000000  0 13G23G07G22G03S20G06G02G04G19G31G09G26
                                G17
 -21864070.751 7  20935746.288          47.000       -1286.423
 -10122523.343 7  23785402.391          42.000        3430.056
  -2519215.186 6  24672088.037          36.000       -3190.607
 -12856718.375 7  22679220.437          47.000       -2816.181
   7597229.834 6  38560359.025          40.000        -139.620
 -22422669.060 8  20704534.899          50.000         318.329
  -9503327.159 7  23422126.305          46.000        2835.067
  -2386367.075 7  25154113.761          42.000         939.296
  -6725497.611 7  23971104.345          44.000       -3102.296
   7467344.66911  25983548.315           8.000       -3444.428
 -23120856.909 8  20228292.578          51.000         412.227
   -427492.243 6  25445226.164          36.000        1521.403
    616339.479 6  24782386.292          41.000       -3352.914
 16  6 23  0 29  0.0000000  0 12G23G07G22G03S20G06G02G04G19G09G26G17
 -21825308.706 7  20943122.879          47.000       -1298.223
 -10225400.254 7  23765825.602          42.000        3427.400
  -2423458.026 6  24690308.595          36.000       -3194.483
 -12772149.477 7  22695313.638          47.000       -2822.573
   7601413.641 6  38561155.593          40.000        -139.240
 -22431934.302 8  20702770.804          50.000         299.132
  -9588267.337 7  23405963.809          46.000        2827.307
  -2414277.960 6  25148802.962          40.000         921.178
  -6632325.197 7  23988831.864          43.000       -3110.105
 -23133002.436 8  20225981.925          51.000         396.929
   -472944.954 6  25436576.475          36.000        1507.331
    716935.299 6  24801529.320          41.000       -3354.243
 16  6 23  0 29 30.0000000  0 13G23G07G22G03S20G06G02G04G19G31G09G26
                                G17
 -21786160.800 7  20950572.499          47.000       -1311.301
 -10328151.418 7  23746272.354          42.000        3422.702
  -2327606.209 6  24708548.958          36.000       -3194.825
 -12687372.975 7  22711445.248          47.000       -2829.246
   7605602.538 6  38561952.213          40.000        -139.235
 -22440606.987 8  20701120.764          50.000         279.273
  -9672934.843 7  23389850.313          45.000        2817.852
  -2441638.283 6  25143596.114          41.000         903.278
  -6538899.588 7  24006612.030          44.000       -3117.822
   7674034.71611  26022949.493           9.000       -3451.046
 -23144665.912 8  20223761.908          51.000         380.692
   -517968.482 6  25428009.605          36.000        1494.119
    817578.981 6  24820681.527          41.000       -3355.530
 16  6 23  0 30  0.0000000  0 12G23G07G22G03S20G06G02G04G19G09G26G17
 -21746628.611 8  20958095.445          48.000       -1323.479
 -10430773.679 7  23726745.927          43.000        3419.320
  -2231659.963 5  24726802.811          34.000       -3200.088
 -12602389.785 7  22727617.254          46.000       -2835.958
   7609800.104 6  38562752.707          40.000        -140.202
 -22448686.478 8  20699584.586          50.000         259.708
  -9757327.185 7  23373790.214          45.000        2808.703
  -2468447.099 6  25138494.944          41.000         884.989
  -6445224.007 7  24024436.817          43.000       -3126.686
 -23155847.794 8  20221633.453          51.000         365.079
   -562560.874 6  25419523.040          36.000        1480.818
    918267.291 6  24839840.209          41.000       -3356.093
 16  6 23  0 30 30.0000000  0 12G23G07G22G03S20G06G02G04G19G09G26G17
 -21706728.179 8  20965687.965          48.000       -1335.664
 -10533279.139 7  23707238.590          43.000        3415.244
  -2135634.780 5  24745074.759          32.000       -3202.965
 -12517215.255 7  22743825.121          47.000       -2842.008
   7613990.360 6  38563550.531          41.000        -140.052
 -22456186.640 8  20698155.570          50.000         240.380
  -9841456.940 7  23357782.728          45.000        2800.250
  -2494717.211 6  25133495.526          41.000         866.664
  -6351316.320 7  24042308.946          44.000       -3134.349
 -23166563.071 8  20219594.360          50.000         349.777
   -606734.537 5  25411116.276          34.000        1466.999
   1018982.470 7  24859007.336          42.000       -3357.683
 16  6 23  0 31  0.0000000  0 12G23G07G22G03S20G06G02G04G19G09G26G17
 -21666452.515 8  20973352.187          48.000       -1348.887
 -10635657.593 7  23687756.103          42.000        3409.983
  -2039523.631 5  24763366.374          34.000       -3205.181
 -12431842.383 7  22760071.833          46.000       -2849.489
   7618179.698 6  38564348.965          41.000        -139.889
 -22463098.881 8  20696840.225          50.000         220.405
  -9925313.985 7  23341826.563          46.000        2790.719
  -2520439.279 6  25128601.822          40.000         847.990
  -6257171.960 7  24060221.786          43.000       -3142.124
 -23176804.313 8  20217645.973          51.000         333.569
   -650479.403 6  25402793.080          36.000        1451.013
   1119729.663 7  24878177.639          42.000       -3357.837
 16  6 23  0 31 30.0000000  0 12G23G07G22G03S20G06G02G04G19G09G26G17
 -21625793.807 8  20981089.597          48.000       -1361.851
 -10737896.826 7  23668302.530          44.000        3405.450
  -1943317.83515  24781671.827          31.000       -3208.078
 -12346262.393 7  22776356.166          45.000       -2855.932
   7622376.962 6  38565147.295          40.000        -139.548
 -22469413.035 8  20695638.603          49.000         200.274
 -10008886.353 7  23325923.325          46.000        2780.771
  -2545602.230 6  25123812.819          40.000         829.559
  -6162784.631 7  24078184.168          44.000       -3150.139
 -23186562.386 8  20215789.741          51.000         317.262
   -693783.802 6  25394551.063          36.000        1436.120
   1220515.190 7  24897357.261          42.000       -3359.960
 16  6 23  0 32  0.0000000  0 12G23G07G22G03S20G06G02G04G19G09G26G17
 -21584756.949 8  20988899.633          48.000       -1373.850
 -10839997.518 7  23648873.807          44.000        3401.316
  -1847021.47015  24799995.551          32.000       -3212.083
 -12260479.462 7  22792679.781          45.000       -2862.767
   7626581.274 6  38565946.481          40.000        -139.767
 -22475131.681 8  20694550.530          50.000         180.792
 -10092174.861 7  23310072.332          45.000        2771.990
  -2570208.002 6  25119129.722          40.000         812.415
  -6068161.083 7  24096190.507          44.000       -3157.794
 -23195841.048 8  20214023.570          51.000         301.639
   -736648.947 6  25386394.831          36.000        1421.327
   1321332.670 6  24916540.983          41.000       -3361.062
 16  6 23  0 32 30.0000000  0 12G23G07G22G03S20G06G02G04G19G09G26G17
 -21543349.147 8  20996778.843          49.000       -1386.288
 -10941963.147 7  23629468.623          44.000        3396.751
  -1750641.08515  24818335.939          31.000       -3211.736
 -12174500.309 7  22809039.796          45.000       -2869.016
   7630785.793 6  38566746.730          40.000        -139.995
 -22480260.184 8  20693575.080          50.000         161.105
 -10175183.461 7  23294276.378          45.000        2762.453
  -2594261.099 6  25114553.298          39.000         792.913
  -5973310.274 7  24114240.227          43.000       -3164.945
 -23204646.721 8  20212347.773          51.000         285.619
   -779078.625 6  25378321.331          36.000        1407.686
   1422173.095 7  24935733.116          43.000       -3361.832
 16  6 23  0 33  0.0000000  0 12G23G07G22G03S20G06G02G04G19G09G26G17
 -21501563.123 8  21004730.070          48.000       -1399.471
 -11043782.418 7  23610092.146          43.000        3391.763
  -1654168.94215  24836696.430          33.000       -3217.619
 -12088317.102 7  22825440.174          45.000       -2876.157
   7634998.950 6  38567546.631          40.000        -140.207
 -22484789.273 8  20692713.092          49.000         140.821
 -10257901.408 7  23278534.310          45.000        2752.115
  -2617751.496 6  25110082.726          39.000         773.828
  -5878226.721 7  24132333.258          43.000       -3172.959
 -23212971.172 8  20210763.974          51.000         269.448
   -821062.230 6  25370333.127          37.000        1390.945
   1523042.180 7  24954925.825          42.000       -3363.355
 16  6 23  0 33 30.0000000  0 12G23G07G22G03S20G06G02G04G19G09G26G17
 -21459406.730 8  21012752.057          48.000       -1411.410
 -11145459.254 7  23590743.013          43.000        3387.195
  -1557612.314 5  24855074.563          33.000       -3219.904
 -12001937.204 7  22841877.808          44.000       -2882.636
   7639212.370 6  38568348.451          40.000        -140.253
 -22488724.854 8  20691964.006          49.000         121.334
 -10340332.009 7  23262848.797          45.000        2742.597
  -2640684.479 6  25105718.532          38.000         755.726
  -5782920.351 7  24150467.175          42.000       -3180.375
 -23220821.417 8  20209269.939          51.000         253.829
   -862604.099 5  25362424.968          35.000        1376.966
   1623930.466 7  24974125.270          43.000       -3363.126
 16  6 23  0 34  0.0000000  0 12G23G07G22G03S20G06G02G04G19G09G26G17
 -21416892.213 8  21020842.152          48.000       -1423.097
 -11247001.737 7  23571421.259          44.000        3382.286
  -1460982.99615  24873463.131          32.000       -3224.132
 -11915372.160 7  22858350.011          44.000       -2888.484
   7643418.507 6  38569148.369          40.000        -140.187
 -22492077.157 8  20691326.602          49.000         101.681
 -10422484.458 7  23247215.967          44.000        2733.347
  -2663069.205 6  25101459.248          38.000         736.738
  -5687405.097 7  24168646.394          44.000       -3187.585
 -23228208.732 8  20207864.672          52.000         238.267
   -903712.927 5  25354604.443          35.000        1361.904
   1724824.202 7  24993324.314          42.000       -3363.178
 16  6 23  0 34 30.0000000  0 12G23G07G22G03S20G06G02G04G19G09G26G17
 -21374011.289 8  21029002.537          48.000       -1435.426
 -11348397.863 7  23552127.042          44.000        3377.549
  -1364271.75315  24891865.974          31.000       -3225.394
 -11828613.277 7  22874860.447          44.000       -2895.458
   7647626.026 6  38569949.909          40.000        -140.871
 -22494836.051 8  20690802.240          50.000          82.463
 -10504346.860 7  23231636.971          44.000        2723.810
  -2684894.795 6  25097303.984          38.000         718.518
  -5591674.723 7  24186862.955          44.000       -3195.052
 -23235124.032 8  20206547.547          51.000         222.780
   -944377.163 6  25346866.109          36.000        1348.437
   1825729.780 7  25012525.766          42.000       -3363.691
 16  6 23  0 35  0.0000000  0 12G23G07G22G03S20G06G02G04G19G09G26G17
 -21330760.154 8  21037232.618          48.000       -1447.842
 -11449639.871 7  23532860.239          44.000        3372.371
  -1267474.03815  24910285.673          32.000       -3229.147
 -11741656.098 7  22891408.541          44.000       -2901.539
   7651838.567 6  38570750.124          40.000        -140.464
 -22496995.766 8  20690390.206          49.000          62.296
 -10585911.309 7  23216118.039          45.000        2713.855
  -2706154.752 6  25093258.989          39.000         699.260
  -5495727.265 7  24205121.257          44.000       -3201.667
 -23241562.580 8  20205322.961          51.000         206.781
   -984589.478 6  25339213.543          36.000        1332.507
   1926649.993 7  25031729.678          42.000       -3364.196
 16  6 23  0 35 30.0000000  0 12G23G07G22G03S20G06G02G04G19G09G26G17
 -21287148.354 8  21045531.506          48.000       -1459.954
 -11550732.891 7  23513622.474          44.000        3367.456
  -1170599.00215  24928720.153          31.000       -3229.578
 -11654509.424 7  22907990.942          43.000       -2907.230
   7656047.076 6  38571551.979          40.000        -141.321
 -22498563.778 8  20690092.558          49.000          42.158
 -10667183.687 7  23200651.353          45.000        2704.149
  -2726855.734 6  25089321.033          39.000         680.389
  -5399573.764 7  24223417.444          42.000       -3208.980
 -23247532.898 8  20204187.336          52.000         191.181
  -1024355.918 6  25331647.391          37.000        1317.422
   2027573.379 7  25050937.290          42.000       -3364.339
 16  6 23  0 36  0.0000000  0 12G23G07G22G03S20G06G02G04G19G09G26G17
 -21243173.471 8  21053899.827          49.000       -1472.185
 -11651671.058 7  23494414.530          44.000        3361.463
  -1073643.845 5  24947172.519          32.000       -3231.994
 -11567170.433 7  22924611.925          44.000       -2914.924
   7660253.388 6  38572352.194          40.000        -139.749
 -22499535.944 8  20689907.236          49.000          22.115
 -10748158.193 7  23185243.317          45.000        2694.113
  -2746992.982 6  25085489.279          40.000         661.502
  -5303213.961 7  24241753.767          42.000       -3215.853
 -23253031.837 8  20203140.933          52.000         175.062
  -1063670.720 6  25324165.924          38.000        1303.463
   2128500.578 7  25070141.691          43.000       -3364.622
 16  6 23  0 36 30.0000000  0 12G23G07G22G03S20G06G02G04G19G09G26G17
 -21198826.248 8  21062338.840          49.000       -1484.047
 -11752440.625 7  23475239.760          45.000        3356.377
   -976598.514 5  24965639.212          31.000       -3236.383
 -11479629.295 7  22941271.229          44.000       -2920.817
   7664467.509 6  38573154.049          39.000        -140.375
 -22499901.216 8  20689837.976          49.000           2.342
 -10828821.662 7  23169892.709          45.000        2683.608
  -2766554.653 6  25081764.827          39.000         643.638
  -5206640.518 7  24260134.308          43.000       -3222.269
 -23258049.330 8  20202186.075          52.000         159.561
  -1102521.366 6  25316772.598          38.000        1287.684
   2229439.458 7  25089350.332          42.000       -3364.583
 16  6 23  0 37  0.0000000  0 12G23G07G22G03S20G06G02G04G19G09G26G17
 -21154115.201 8  21070847.845          49.000       -1496.435
 -11853046.283 7  23456095.894          45.000        3350.663
   -879470.72615  24984121.959          33.000       -3239.386
 -11391893.764 7  22957966.044          44.000       -2927.825
   7668685.380 6  38573956.218          39.000        -141.025
 -22499665.992 8  20689882.439          49.000         -18.072
 -10909178.515 7  23154601.572          45.000        2673.431
  -2785546.253 6  25078150.730          39.000         623.645
  -5109863.592 7  24278548.580          43.000       -3229.297
 -23262592.847 8  20201320.963          52.000         143.615
  -1140912.770 6  25309467.850          38.000        1272.076
   2330380.019 7  25108557.246          42.000       -3364.511
 16  6 23  0 37 30.0000000  0 12G23G07G22G03S20G06G02G04G19G09G26G17
 -21109050.248 8  21079423.336          49.000       -1508.223
 -11953494.376 7  23436981.240          45.000        3345.579
   -782269.771 4  25002619.539          29.000       -3242.879
 -11303973.332 7  22974697.732          44.000       -2933.924
   7672899.021 6  38574756.258          39.000        -140.709
 -22498838.551 8  20690040.800          49.000         -37.828
 -10989235.129 7  23139367.619          44.000        2663.283
  -2803975.381 6  25074645.679          39.000         604.756
  -5012894.920 7  24297001.104          43.000       -3235.505
 -23266671.604 8  20200544.882          52.000         128.026
  -1178851.720 6  25302247.491          38.000        1257.044
   2431310.521 7  25127765.224          42.000       -3363.999
 16  6 23  0 38  0.0000000  0 12G23G07G22G03S20G06G02G04G19G09G26G17
 -21063633.390 8  21088065.539          49.000       -1520.061
 -12053782.123 7  23417897.716          46.000        3340.273
   -684996.90914  25021125.896          27.000       -3244.477
 -11215869.165 7  22991463.395          44.000       -2940.276
   7677109.665 6  38575559.771          39.000        -140.279
 -22497418.863 8  20690310.668          49.000         -57.436
 -11068990.120 7  23124189.088          43.000        2652.728
  -2821841.124 6  25071244.056          39.000         586.025
  -4915738.474 7  24315490.307          44.000       -3241.624
 -23270286.556 8  20199857.082          52.000         112.657
  -1216336.483 6  25295113.685          38.000        1241.546
   2532227.944 6  25146967.007          41.000       -3364.245
 16  6 23  0 38 30.0000000  0 12G23G07G22G03S20G06G02G04G19G09G26G17
 -21017859.324 8  21096775.728          50.000       -1532.012
 -12153900.559 7  23398844.836          46.000        3334.190
   -587646.56514  25039644.539          27.000       -3245.896
 -11127575.558 7  23008264.918          44.000       -2946.635
   7681323.698 6  38576360.264          39.000        -140.516
 -22495400.002 8  20690695.288          49.000         -77.442
 -11148434.447 7  23109072.732          43.000        2642.729
  -2839135.606 6  25067954.585          39.000         566.656
  -4818390.612 7  24334014.848          44.000       -3248.098
 -23273431.696 8  20199258.783          52.000          97.025
  -1253358.663 6  25288069.433          38.000        1225.804
   2633135.893 7  25166171.094          43.000       -3363.477
 16  6 23  0 39  0.0000000  0 12G23G07G22G03S20G06G02G04G19G09G26G17
 -20971729.059 8  21105554.775          50.000       -1543.810
 -12253846.455 7  23379826.018          46.000        3328.779
   -490218.71814  25058189.025          25.000       -3249.827
 -11039092.677 7  23025102.825          44.000       -2952.308
   7685539.696 6  38577163.952          40.000        -140.993
 -22492780.935 8  20691192.462          49.000         -97.421
 -11227564.655 7  23094014.521          43.000        2632.615
  -2855857.702 6  25064773.044          40.000         547.269
  -4720854.014 7  24352576.121          43.000       -3254.296
 -23276107.031 8  20198749.673          52.000          81.280
  -1289915.658 6  25281111.490          37.000        1211.022
   2734031.610 6  25185367.730          41.000       -3363.244
 16  6 23  0 39 30.0000000  0 12G23G07G22G03S20G06G02G04G19G09G26G17
 -20925247.786 8  21114399.924          50.000       -1555.318
 -12353621.238 7  23360839.780          46.000        3322.676
   -392717.71714  25076739.967          25.000       -3251.430
 -10950425.376 7  23041975.336          44.000       -2958.843
   7689752.954 6  38577965.301          39.000        -141.196
 -22489565.398 8  20691804.668          49.000        -117.376
 -11306382.928 7  23079015.168          43.000        2622.357
  -2872009.971 6  25061697.984          39.000         528.845
  -4623135.552 7  24371168.263          42.000       -3260.278
 -23278317.144 8  20198328.460          52.000          65.721
  -1326009.723 6  25274244.707          38.000        1195.317
   2834908.604 7  25204567.768          42.000       -3362.014
 16  6 23  0 40  0.0000000  0 12G23G07G22G03S20G06G02G04G19G09G26G17
 -20878417.334 8  21123311.384          50.000       -1567.062
 -12453222.458 7  23341885.842          46.000        3317.283
   -295145.26314  25095312.426          27.000       -3253.465
 -10861574.761 7  23058882.625          44.000       -2963.863
   7693965.981 6  38578767.749          40.000        -140.713
 -22485753.381 8  20692531.086          49.000        -136.580
 -11384886.925 7  23064075.583          43.000        2611.695
  -2887591.707 6  25058732.913          39.000         510.253
  -4525239.560 7  24389798.535          42.000       -3266.218
 -23280062.995 8  20197995.998          52.000          50.275
  -1361639.200 6  25267465.542          38.000        1179.536
   2935763.435 6  25223757.842          40.000       -3361.260
 16  6 23  0 40 30.0000000  0 11G23G07G03S20G06G02G04G19G09G26G17
 -20831226.994 8  21132291.441          49.000       -1578.437
 -12552635.983 7  23322968.497          46.000        3310.771
 -10772529.718 7  23075827.049          44.000       -2970.743
   7698190.298 6  38579570.703          40.000        -141.453
 -22481332.609 8  20693370.546          49.000        -157.003
 -11463062.427 7  23049200.302          44.000        2600.130
  -2902589.733 6  25055878.860          39.000         491.313
  -4427156.681 7  24408463.986          42.000       -3272.158
 -23281333.211 8  20197755.273          52.000          34.579
  -1396790.284 6  25260775.844          39.000        1165.298
   3036605.203 6  25242946.992          40.000       -3360.709
 16  6 23  0 41  0.0000000  0 12G23G07G22G03S20G06G02G04G19G09G26G17
 -20783685.832 8  21141338.035          49.000       -1591.146
 -12651866.630 7  23304085.599          46.000        3304.543
    -99760.99314  25132489.312          26.000       -3259.493
 -10683298.698 7  23092807.314          44.000       -2978.156
   7702416.571 6  38580377.287          40.000        -141.593
 -22476310.446 8  20694328.266          49.000        -177.947
 -11540914.982 7  23034384.265          43.000        2589.274
  -2917010.324 6  25053135.633          38.000         470.248
  -4328897.885 7  24427163.936          43.000       -3278.836
 -23282136.062 8  20197601.990          52.000          18.267
  -1431468.810 6  25254176.922          39.000        1147.105
   3137422.967 6  25262132.127          39.000       -3361.347
 16  6 23  0 41 30.0000000  0 12G23G07G22G03S20G06G02G04G19G09G26G17
 -20735799.967 8  21150450.573          49.000       -1601.482
 -12750916.268 7  23285236.641          47.000        3298.660
     -1962.38614  25151102.028          26.000       -3261.029
 -10593887.067 7  23109821.696          44.000       -2982.924
   7706638.713 6  38581178.723          40.000        -140.644
 -22470691.230 8  20695396.918          49.000        -197.272
 -11618446.813 7  23019633.613          45.000        2579.026
  -2930857.907 6  25050499.848          38.000         452.719
  -4230471.138 7  24445891.858          42.000       -3283.022
 -23282476.776 8  20197536.918          52.000           3.618
  -1465677.479 6  25247666.944          39.000        1132.171
   3238210.189 6  25281312.255          41.000       -3358.970
 16  6 23  0 42  0.0000000  0 12G23G07G22G03S20G06G02G04G19G09G26G17
 -20687557.357 8  21159630.330          49.000       -1613.992
 -12849768.608 7  23266425.760          47.000        3291.788
     95918.58614  25169730.816          28.000       -3264.372
 -10504281.853 7  23126873.333          44.000       -2989.360
   7710869.137 6  38581985.691          40.000        -141.397
 -22464460.928 8  20696581.910          49.000        -217.673
 -11695641.360 7  23004941.036          44.000        2567.466
  -2944117.260 6  25047977.349          37.000         432.026
  -4131865.850 7  24464655.624          42.000       -3288.357
 -23282342.205 8  20197562.448          51.000         -12.311
  -1499400.671 6  25241250.865          40.000        1115.867
   3338977.449 6  25300486.851          39.000       -3357.930
 16  6 23  0 42 30.0000000  0 12G23G07G22G03S20G06G02G04G19G09G26G17
 -20638968.001 8  21168876.433          48.000       -1625.459
 -12948429.952 7  23247650.879          47.000        3285.082
    193871.58514  25188368.260          28.000       -3265.929
 -10414492.934 7  23143958.754          43.000       -2995.940
   7715099.040 6  38582790.966          40.000        -140.199
 -22457628.357 8  20697882.666          49.000        -237.834
 -11772505.840 7  22990315.240          44.000        2556.375
  -2956796.245 6  25045563.705          37.000         412.442
  -4033094.265 7  24483450.520          42.000       -3295.134
 -23281742.032 8  20197676.851          51.000         -27.859
  -1532645.575 6  25234922.736          39.000        1099.130
   3439712.998 6  25319655.025          38.000       -3357.263
 16  6 23  0 43  0.0000000  0 11G23G07G03S20G06G02G04G19G09G26G17
 -20590030.345 8  21178189.090          48.000       -1637.566
 -13046894.807 7  23228915.436          47.000        3278.374
 -10324517.985 7  23161079.738          43.000       -3002.664
   7719333.682 6  38583596.538          40.000        -141.228
 -22450190.193 8  20699296.954          49.000        -258.515
 -11849034.588 7  22975752.440          44.000        2544.630
  -2968891.249 6  25043261.812          37.000         392.703
  -3934156.262 7  24502278.066          42.000       -3301.638
 -23280673.802 8  20197880.408          52.000         -44.061
  -1565407.334 6  25228689.309          39.000        1083.723
   3540417.120 6  25338819.709          38.000       -3356.321
 16  6 23  0 43 30.0000000  0 12G23G07G22G03S20G06G02G04G19G09G26G17
 -20540739.684 8  21187568.757          48.000       -1648.381
 -13145154.811 7  23210213.967          46.000        3272.101
    389945.25115  25225697.748          31.000       -3270.880
 -10234351.695 7  23178237.403          43.000       -3008.050
   7723579.071 6  38584404.867          40.000        -141.022
 -22442140.162 8  20700828.490          49.000        -278.464
 -11925219.125 7  22961255.812          45.000        2534.051
  -2980394.916 6  25041073.328          38.000         373.775
  -3835049.039 6  24521135.155          41.000       -3305.938
 -23279132.072 8  20198174.270          52.000         -59.184
  -1597678.042 6  25222548.891          39.000        1068.211
   3641093.082 5  25357974.761          34.000       -3354.786
 16  6 23  0 44  0.0000000  0 11G23G07G03S20G06G02G04G19G09G26G17
 -20491098.745 8  21197014.717          48.000       -1660.494
 -13243207.480 7  23191555.549          46.000        3264.954
 -10143996.080 7  23195432.062          43.000       -3015.055
   7727836.806 6  38585216.093          40.000        -142.383
 -22433479.321 8  20702476.768          49.000        -298.894
 -12001058.757 7  22946822.213          44.000        2522.455
  -2991307.595 6  25038996.246          37.000         353.457
  -3735777.120 7  24540028.175          42.000       -3311.310
 -23277118.715 8  20198557.721          52.000         -74.948
  -1629457.210 6  25216499.825          38.000        1050.651
   3741736.760 5  25377126.707          35.000       -3354.463
 16  6 23  0 44 30.0000000  0 12G23G07G22G03S20G06G02G04G19G09G26G17
 -20441124.047 8  21206524.754          48.000       -1671.191
 -13341066.345 7  23172934.038          46.000        3259.034
    586379.29815  25263078.069          30.000       -3278.113
 -10053467.257 7  23212660.401          44.000       -3020.101
   7732090.837 6  38586025.923          40.000        -141.512
 -22424222.858 8  20704238.856          49.000        -318.204
 -12076565.864 7  22932455.030          45.000        2511.271
  -3001643.709 6  25037029.815          38.000         335.834
  -3636359.055 7  24558946.078          42.000       -3316.375
 -23274649.760 8  20199026.696          52.000         -89.830
  -1660758.346 6  25210544.450          39.000        1035.801
   3842329.993 5  25396269.020          35.000       -3352.352
 16  6 23  0 45  0.0000000  0 12G23G07G22G03S20G06G02G04G19G09G26G17
 -20390815.893 8  21216097.385          48.000       -1682.163
 -13438727.194 7  23154349.399          46.000        3252.266
    684689.50714  25281784.615          28.000       -3277.668
  -9962764.736 7  23229920.289          44.000       -3025.981
   7736340.424 6  38586836.084          40.000        -140.840
 -22414369.318 8  20706113.463          49.000        -338.126
 -12151736.925 7  22918150.109          45.000        2500.104
  -3011401.226 6  25035172.257          40.000         315.423
  -3536796.391 6  24577892.425          41.000       -3321.014
 -23271724.511 8  20199583.480          52.000        -104.471
  -1691578.389 6  25204679.659          39.000        1019.535
   3942871.165 6  25415403.463          37.000       -3350.361
 16  6 23  0 45 30.0000000  0 12G23G07G22G03S20G06G02G04G19G09G26G17
 -20340174.663 8  21225735.454          48.000       -1693.549
 -13536186.695 7  23135803.482          46.000        3245.690
    783062.71213  25300497.094          22.000       -3277.722
  -9871888.435 7  23247213.682          43.000       -3031.990
   7740586.344 6  38587642.772          40.000        -141.709
 -22403917.739 8  20708101.461          49.000        -358.086
 -12226569.077 7  22903911.098          45.000        2488.909
  -3020578.165 6  25033426.956          40.000         296.470
  -3437091.518 7  24596865.994          42.000       -3325.760
 -23268342.836 8  20200227.183          52.000        -120.231
  -1721914.803 6  25198907.039          39.000        1003.345
   4043358.44716  25434525.900          38.000       -3348.191
 16  6 23  0 46  0.0000000  0 12G23G07G22G03S20G06G02G04G19G09G26G17
 -20289189.725 8  21235437.531          48.000       -1705.257
 -13633429.736 7  23117299.637          47.000        3237.596
    881522.08514  25319236.621          26.000       -3282.697
  -9780826.975 7  23264541.852          43.000       -3038.329
   7744843.343 6  38588454.208          40.000        -142.255
 -22392855.923 8  20710207.179          49.000        -379.345
 -12301047.735 7  22889738.415          46.000        2476.243
  -3029161.882 6  25031794.384          41.000         276.467
  -3337235.532 7  24615868.810          42.000       -3330.988
 -23264493.279 8  20200959.796          52.000        -136.128
  -1751753.684 6  25193228.582          39.000         985.942
   4143801.715 6  25453639.577          37.000       -3347.355
 16  6 23  0 46 30.0000000  0 12G23G07G22G03S20G06G02G04G19G09G26G17
 -20237874.275 8  21245202.464          48.000       -1715.868
 -13730465.828 7  23098834.009          47.000        3231.308
    980052.26014  25337978.783          26.000       -3284.436
  -9689593.129 7  23281903.755          44.000       -3043.928
   7749098.661 6  38589264.857          41.000        -141.608
 -22381195.690 8  20712426.446          49.000        -398.564
 -12375182.255 7  22875629.286          45.000        2465.451
  -3037163.373 6  25030270.770          40.000         257.783
  -3237243.384 6  24634895.568          41.000       -3334.660
 -23260188.516 8  20201779.275          52.000        -150.978
  -1781105.312 6  25187642.715          39.000         971.376
   4244186.074 6  25472742.767          38.000       -3344.823
 16  6 23  0 47  0.0000000  0 11G23G07G03S20G06G02G04G19G09G26G17
 -20186215.342 8  21255032.765          48.000       -1728.005
 -13827278.138 7  23080409.772          46.000        3223.143
  -9598173.270 7  23299300.348          43.000       -3050.524
   7753364.957 6  38590077.566          41.000        -142.425
 -22368922.703 8  20714761.773          49.000        -419.237
 -12448956.317 7  22861591.685          46.000        2452.917
  -3044567.731 6  25028862.014          41.000         237.054
  -3137103.984 6  24653952.986          41.000       -3341.106
 -23255414.829 8  20202687.141          52.000        -166.952
  -1809953.620 6  25182154.656          40.000         953.078
   4344523.109 6  25491837.057          38.000       -3343.548
 16  6 23  0 47 30.0000000  0 12G23G07G22G03S20G06G02G04G19G09G26G17
 -20134233.249 8  21264924.961          48.000       -1738.000
 -13923882.740 7  23062027.451          46.000        3217.050
     98488.80614  25375510.904          26.000       -3288.875
  -9506586.870 7  23316728.613          43.000       -3055.125
   7757623.364 6  38590888.391          41.000        -142.267
 -22356055.538 8  20717210.859          49.000        -438.527
 -12522385.731 7  22847618.144          46.000        2442.119
  -3051392.353 6  25027563.351          41.000         218.079
  -3036839.258 6  24673031.344          41.000       -3344.084
 -23250191.621 8  20203681.000          52.000        -181.257
  -1838315.643 6  25176755.419          39.000         938.813
   4444791.009 5  25510915.955          34.000       -3340.589
 16  6 23  0 48  0.0000000  0 12G23G07G22G03S20G06G02G04G19G09G26G17
 -20081933.170 8  21274877.187          48.000       -1748.615
 -14020280.510 7  23043682.910          46.000        3209.993
    197179.74514  25394293.969          27.000       -3289.198
  -9414838.575 7  23334187.957          43.000       -3061.021
   7761867.168 6  38591694.678          41.000        -141.533
 -22342598.054 8  20719772.097          50.000        -458.507
 -12595472.269 7  22833711.158          46.000        2430.270
  -3057640.775 6  25026374.451          41.000         198.187
  -2936455.827 6  24692133.870          41.000       -3348.133
 -23244523.457 8  20204759.616          52.000        -196.117
  -1866193.539 6  25171449.593          38.000         921.635
   4544984.290 6  25529981.243          38.000       -3338.886
 16  6 23  0 48 30.0000000  0 12G23G07G22G03S20G06G02G04G19G09G26G17
 -20029308.349 8  21284890.872          48.000       -1759.517
 -14116461.194 7  23025381.104          46.000        3203.106
    295927.52814  25413079.320          24.000       -3291.932
  -9322921.355 7  23351680.195          44.000       -3066.078
   7766105.332 6  38592498.557          40.000        -141.855
 -22328542.525 8  20722446.134          50.000        -478.113
 -12668205.792 7  22819870.518          46.000        2419.061
  -3063304.232 6  25025295.888          40.000         179.893
  -2835949.179 6  24711260.077          41.000       -3351.280
 -23238403.279 8  20205924.819          52.000        -211.238
  -1893577.928 6  25166240.529          39.000         904.233
   4645107.191 6  25549036.183          36.000       -3335.618
 16  6 23  0 49  0.0000000  0 12G23G07G22G03S20G06G02G04G19G09G26G17
 -19976355.961 8  21294967.204          48.000       -1770.161
 -14212417.358 7  23007120.777          46.000        3194.944
    394615.61314  25431886.694          28.000       -3293.619
  -9230831.461 7  23369203.180          43.000       -3071.685
   7770344.002 6  38593304.496          40.000        -141.174
 -22313884.380 8  20725235.220          49.000        -498.620
 -12740579.488 7  22806098.143          46.000        2406.668
  -3068377.258 6  25024331.135          40.000         159.621
  -2735318.234 6  24730408.619          40.000       -3356.036
 -23231827.278 8  20207175.616          52.000        -226.707
  -1920462.619 6  25161123.409          38.000         888.276
   4745161.976 6  25568075.400          39.000       -3333.503
 16  6 23  0 49 30.0000000  0 11G23G07G03S20G06G02G04G19G09G26G17
 -19923084.375 8  21305104.437          48.000       -1780.715
 -14308153.886 7  22988903.727          47.000        3187.328
  -9138576.512 7  23386758.536          43.000       -3077.805
   7774576.489 6  38594109.090          40.000        -140.908
 -22298630.573 8  20728138.395          50.000        -518.374
 -12812597.729 7  22792392.498          46.000        2394.420
  -3072866.656 6  25023475.865          39.000         140.079
  -2634572.590 7  24749583.425          42.000       -3360.399
 -23224803.070 8  20208512.337          52.000        -241.431
  -1946852.950 6  25156102.284          39.000         871.835
   4845139.316 5  25587100.622          33.000       -3331.675
 16  6 23  0 50  0.0000000  0 11G23G07G03S20G06G02G04G19G09G26G17
 -19869493.792 8  21315301.716          48.000       -1791.577
 -14403666.843 7  22970727.999          47.000        3180.760
  -9046156.410 7  23404345.336          44.000       -3083.274
   7778806.371 6  38594915.343          40.000        -141.769
 -22282780.235 8  20731153.845          49.000        -538.219
 -12884257.297 7  22778757.316          46.000        2383.074
  -3076770.934 6  25022734.283          40.000         120.943
  -2533714.393 7  24768775.366          42.000       -3363.523
 -23217330.450 8  20209934.548          52.000        -256.385
  -1972746.346 6  25151175.215          39.000         855.114
   4945037.85616  25606112.495          41.000       -3328.225
 16  6 23  0 50 30.0000000  0 11G23G07G03S20G06G02G04G19G09G26G17
 -19815574.691 8  21325562.583          48.000       -1802.771
 -14498943.180 7  22952597.886          47.000        3171.927
  -8953561.156 7  23421965.624          44.000       -3089.354
   7783044.631 6  38595720.094          40.000        -141.437
 -22266322.777 8  20734285.740          49.000        -559.070
 -12955545.039 7  22765191.482          47.000        2369.821
  -3080078.435 6  25022105.133          40.000         100.038
  -2432736.286 6  24787989.347          41.000       -3368.072
 -23209399.428 8  20211443.991          52.000        -272.065
  -1998130.509 6  25146344.122          39.000         837.728
   5044864.794 6  25625108.557          37.000       -3327.267
 16  6 23  0 51  0.0000000  0 11G23G07G03S20G06G02G04G19G09G26G17
 -19761334.938 8  21335884.824          48.000       -1813.869
 -14593985.493 7  22934511.538          47.000        3164.226
  -8860797.541 7  23439616.554          44.000       -3095.000
   7787282.774 6  38596526.329          40.000        -141.599
 -22249264.276 8  20737531.620          49.000        -578.967
 -13026464.856 7  22751696.147          46.000        2357.296
  -3082794.391 6  25021588.013          40.000          80.600
  -2331647.216 7  24807226.485          42.000       -3371.734
 -23201016.811 8  20213039.028          52.000        -287.402
  -2023009.890 6  25141609.633          39.000         820.741
   5144612.89616  25644090.154          40.000       -3323.914
 16  6 23  0 51 30.0000000  0 11G23G07G03S20G06G02G04G19G09G26G17
 -19706782.874 8  21346264.876          48.000       -1822.999
 -14688798.617 7  22916469.339          47.000        3156.882
  -8767873.703 7  23457299.715          44.000       -3099.915
   7791512.271 6  38597330.418          40.000        -141.151
 -22231612.236 8  20740891.031          49.000        -597.613
 -13097021.742 7  22738266.320          45.000        2346.246
  -3084925.642 6  25021182.069          39.000          61.885
  -2230457.652 6  24826482.800          41.000       -3374.837
 -23192190.679 8  20214718.472          52.000        -301.079
  -2047390.386 6  25136970.563          39.000         804.988
   5244271.078 6  25663054.579          41.000       -3320.612
 16  6 23  0 52  0.0000000  0 11G23G07G03S20G06G02G04G19G09G26G17
 -19651911.952 8  21356706.685          48.000       -1834.104
 -14783372.386 7  22898473.174          47.000        3148.912
  -8674782.415 7  23475014.827          44.000       -3105.231
   7795739.853 6  38598133.704          40.000        -140.343
 -22213358.900 8  20744364.550          49.000        -618.095
 -13167205.289 7  22724912.453          46.000        2333.981
  -3086463.915 6  25020890.004          39.000          42.333
  -2129162.603 6  24845757.019          41.000       -3378.095
 -23182913.873 8  20216483.789          52.000        -316.107
  -2071262.466 6  25132427.887          40.000         787.404
   5343845.75716  25682003.108          41.000       -3317.930
 16  6 23  0 52 30.0000000  0 10G23G07G03S20G06G02G04G19G09G26
 -19596732.796 8  21367206.848          49.000       -1844.225
 -14877713.193 7  22880519.308          47.000        3140.976
  -8581533.427 7  23492758.679          44.000       -3110.770
   7799956.084 6  38598935.908          39.000        -140.301
 -22194513.352 8  20747950.255          49.000        -637.618
 -13237021.741 7  22711625.962          46.000        2321.066
  -3087417.605 6  25020709.517          40.000          22.278
  -2027774.166 7  24865052.318          42.000       -3380.185
 -23173196.074 8  20218332.569          52.000        -330.834
  -2094633.578 6  25127980.542          40.000         771.344
 16  6 23  0 53  0.0000000  0 10G23G07G03S20G06G02G04G19G09G26
 -19541243.245 8  21377765.870          48.000       -1855.492
 -14971815.286 7  22862613.797          47.000        3132.326
  -8488124.565 7  23510533.942          44.000       -3116.316
   7804167.270 6  38599735.669          39.000        -140.554
 -22175072.853 8  20751650.312          49.000        -658.343
 -13306466.599 7  22698411.453          46.000        2308.208
  -3087782.890 6  25020641.094          40.000           1.271
  -1926292.318 6  24884362.869          41.000       -3384.768
 -23163035.267 8  20220266.909          52.000        -346.455
  -2117499.309 6  25123629.645          40.000         753.220
 16  6 23  0 53 30.0000000  0 12G23G07G22G03S20G06G02G04G19G09G26G17
 -19485436.742 8  21388385.147          48.000       -1865.452
 -15065667.415 7  22844755.820          47.000        3124.220
   1285536.47014  25601597.233          26.000       -3310.945
  -8394548.128 7  23528341.471          44.000       -3121.738
   7808381.463 6  38600536.965          39.000        -140.350
 -22155029.142 8  20755463.621          48.000        -677.977
 -13375528.849 7  22685270.829          46.000        2295.565
  -3087551.025 6  25020683.359          39.000         -17.624
  -1824711.835 7  24903694.115          42.000       -3387.489
 -23152423.555 8  20222286.440          52.000        -361.499
  -2139849.732 6  25119375.194          40.000         736.428
   5642048.73314  25738739.960          26.000       -3307.943
 16  6 23  0 54  0.0000000  0 10G23G07G03S20G06G02G04G19G09G26
 -19429314.814 8  21399065.239          48.000       -1876.378
 -15159267.444 7  22826944.121          47.000        3115.846
  -8300804.932 7  23546180.200          45.000       -3127.831
   7812595.594 6  38601337.826          39.000        -141.247
 -22134382.574 8  20759393.811          49.000        -698.454
 -13444205.887 7  22672199.848          45.000        2282.425
  -3086721.516 6  25020840.585          38.000         -38.475
  -1723035.927 7  24923042.271          42.000       -3391.099
 -23141361.920 8  20224391.058          52.000        -376.231
  -2161683.423 6  25115220.367          40.000         719.231
 16  6 23  0 54 30.0000000  0 10G23G07G03S20G06G02G04G19G09G26
 -19372888.050 8  21409802.655          49.000       -1886.152
 -15252621.664 7  22809177.531          47.000        3107.542
  -8206905.228 7  23564049.555          45.000       -3132.854
   7816801.768 6  38602137.203          39.000        -139.976
 -22113142.850 8  20763434.950          48.000        -718.363
 -13512505.045 7  22659204.636          46.000        2270.170
  -3085303.984 6  25021108.987          37.000         -58.269
  -1621277.039 6  24942407.318          41.000       -3393.046
 -23129860.649 8  20226579.473          52.000        -390.990
  -2183008.482 6  25111162.668          40.000         702.145
 16  6 23  0 55  0.0000000  0 12G23G07G22G03S20G06G02G04G16G19G09G26
 -19316146.754 8  21420601.076          49.000       -1897.012
 -15345716.841 7  22791461.162          47.000        3098.599
   1583389.94014  25658343.195          24.000       -3313.325
  -8112838.779 7  23581949.011          45.000       -3138.618
   7821011.886 6  38602940.715          39.000        -140.193
 -22091299.278 8  20767591.191          48.000        -738.640
 -13580413.071 7  22646281.982          46.000        2256.671
  -3083286.434 6  25021492.002          36.000         -77.287
    -66238.79114  25060175.749          28.000        2208.450
  -1519427.252 6  24961785.855          40.000       -3397.108
 -23117909.511 8  20228853.533          52.000        -406.298
  -2203812.538 6  25107203.789          40.000         684.315
 16  6 23  0 55 30.0000000  0 11G23G07G22G03S20G06G02G04G19G09G26
 -19259098.218 8  21431456.909          49.000       -1906.736
 -15438556.099 7  22773795.905          47.000        3090.823
   1682816.78514  25677280.119          26.000       -3317.483
  -8018612.343 7  23599880.209          45.000       -3143.318
   7825221.262 6  38603742.623          39.000        -139.947
 -22068858.144 8  20771861.207          48.000        -757.684
 -13647933.311 7  22633434.241          47.000        2244.349
  -3080674.870 6  25021990.275          36.000         -95.971
  -1417495.594 6  24981184.233          41.000       -3399.406
 -23105515.308 8  20231212.261          52.000        -420.124
  -2224100.111 6  25103342.824          40.000         667.826
 16  6 23  0 56  0.0000000  0 11G23G07G03S20G06G02G04G16G19G09G26
 -19201753.082 8  21442368.879          49.000       -1916.382
 -15531146.084 7  22756175.356          47.000        3081.979
  -7924235.897 7  23617839.484          44.000       -3148.575
   7829422.301 6  38604543.273          40.000        -140.147
 -22045828.983 8  20776244.440          48.000        -777.726
 -13715072.797 7  22620657.768          47.000        2231.591
  -3077477.714 5  25022597.264          35.000        -115.891
   -198120.10214  25035082.423          27.000        2186.198
  -1315493.688 6  25000595.436          41.000       -3401.452
 -23092688.105 8  20233653.041          52.000        -435.091
  -2243879.065 6  25099578.760          39.000         650.427
 16  6 23  0 56 30.0000000  0 12G23G07G22G03S20G06G02G04G16G19G09G26
 -19144091.870 8  21453341.942          49.000       -1927.222
 -15623463.226 7  22738608.972          47.000        3072.760
   1881866.35013  25715187.698          19.000       -3326.584
  -7829689.292 7  23635830.275          44.000       -3154.178
   7833635.979 6  38605345.076          40.000        -140.941
 -22022191.236 8  20780742.443          48.000        -797.919
 -13781808.515 7  22607955.021          45.000        2217.755
  -3073673.993 6  25023322.373          36.000        -137.372
   -263509.80014  25022636.841          26.000        2173.192
  -1213403.952 6  25020020.146          40.000       -3404.866
 -23079407.794 8  20236180.233          52.000        -449.933
  -2263127.171 6  25095915.854          39.000         632.320
 16  6 23  0 57  0.0000000  0 11G23G07G22G03S20G06G02G04G19G09G26
 -19086136.400 8  21464371.300          49.000       -1936.457
 -15715525.593 7  22721088.046          46.000        3064.875
   1981529.23813  25734155.963          18.000       -3319.959
  -7734993.919 7  23653850.696          44.000       -3159.128
   7837840.406 6  38606146.163          40.000        -139.155
 -21997965.910 8  20785352.232          49.000        -816.578
 -13848158.942 7  22595330.504          46.000        2205.586
  -3069283.934 6  25024157.296          37.000        -155.887
  -1111250.493 6  25039457.699          39.000       -3405.683
 -23065695.851 8  20238789.128          52.000        -463.821
  -2281863.726 6  25092351.263          40.000         616.130
 16  6 23  0 57 30.0000000  0 12G23G07G22G03S20G06G02G04G16G19G09G26
 -19027889.339 8  21475455.033          49.000       -1946.058
 -15807332.103 7  22703618.773          46.000        3056.577
   2081202.15913  25753129.846          19.000       -3324.185
  -7640151.949 7  23671898.357          44.000       -3162.961
   7842032.568 6  38606943.499          40.000        -138.759
 -21973154.828 8  20790074.034          49.000        -836.255
 -13914122.697 7  22582776.957          46.000        2192.683
  -3064308.453 6  25025106.186          39.000        -174.910
   -393282.44015  24997957.609          31.000        2151.385
  -1009037.532 6  25058908.165          39.000       -3408.210
 -23051554.535 8  20241480.371          52.000        -478.110
  -2300088.790 6  25088883.643          40.000         599.035
 16  6 23  0 58  0.0000000  0 10G23G07G03S20G06G02G04G19G09G26
 -18969346.270 8  21486595.618          49.000       -1956.743
 -15898874.164 7  22686198.360          46.000        3046.777
  -7545158.158 7  23689976.154          44.000       -3168.842
   7846216.665 6  38607740.223          40.000        -139.406
 -21947752.373 8  20794908.669          49.000        -857.048
 -13979691.826 7  22570300.819          46.000        2178.680
  -3058741.736 6  25026163.792          38.000        -196.003
   -906762.070 6  25078373.377          40.000       -3410.149
 -23036978.659 8  20244254.763          52.000        -493.485
  -2317795.097 6  25085514.041          40.000         581.050
 16  6 23  0 58 30.0000000  0 10G23G07G03S20G06G02G04G19G09G26
 -18910507.622 8  21497791.434          49.000       -1966.781
 -15990147.870 7  22668829.146          46.000        3037.687
  -7450012.446 7  23708082.552          44.000       -3173.904
   7850393.650 6  38608536.285          40.000        -139.935
 -21921758.153 8  20799855.718          49.000        -876.598
 -14044863.026 7  22557898.513          46.000        2165.404
  -3052582.351 6  25027335.661          38.000        -215.243
   -804426.255 6  25097847.751          40.000       -3413.387
 -23021968.279 8  20247111.486          52.000        -507.970
  -2334980.570 6  25082244.970          40.000         563.591
 16  6 23  0 59  0.0000000  0 11G23G07G03S20G06G02G04G16G19G09G26
 -18851381.053 8  21509042.462          49.000       -1976.234
 -16081157.071 7  22651511.550          46.000        3029.017
  -7354721.761 7  23726215.667          44.000       -3179.450
   7854559.721 6  38609329.013          40.000        -138.564
 -21895178.768 8  20804913.018          49.000        -895.978
 -14109640.046 7  22545572.220          46.000        2152.042
  -3045836.448 6  25028620.067          39.000        -235.486
   -585084.26315  24961460.025          32.000        2109.536
   -702039.033 6  25117331.093          39.000       -3414.269
 -23006530.419 8  20250048.881          52.000        -522.038
  -2351650.046 6  25079071.508          40.000         546.642
 16  6 23  0 59 30.0000000  0 11G23G07G03S20G06G02G04G16G19G09G26
 -18791957.645 8  21520350.883          49.000       -1985.312
 -16171888.984 7  22634246.235          46.000        3020.032
  -7259276.691 7  23744378.168          44.000       -3184.006
   7858725.616 6  38610122.108          40.000        -138.614
 -21868004.563 8  20810083.466          48.000        -915.352
 -14174010.861 7  22533323.075          47.000        2139.268
  -3038493.560 6  25030017.376          39.000        -254.708
   -648265.73915  24949435.027          32.000        2100.147
   -599593.195 6  25136826.459          40.000       -3415.731
 -22990655.719 8  20253068.641          52.000        -536.056
  -2367792.144 6  25075999.764          40.000         529.698
 16  6 23  1  0  0.0000000  0 11G23G07G03S20G06G02G04G16G19G09G26
 -18732248.749 8  21531712.912          48.000       -1994.532
 -16262351.037 7  22617031.909          46.000        3010.975
  -7163688.064 7  23762567.716          43.000       -3188.091
   7862878.496 6  38610911.800          40.000        -138.061
 -21840246.074 8  20815364.477          48.000        -934.851
 -14237983.106 7  22521149.611          46.000        2126.394
  -3030563.713 6  25031526.139          39.000        -273.716
   -711071.95115  24937483.338          33.000        2087.042
   -497101.951 6  25156329.695          41.000       -3416.445
 -22974355.170 8  20256170.697          52.000        -550.158
  -2383415.705 6  25073026.369          40.000         513.754
 16  6 23  1  0 30.0000000  0 11G23G07G03S20G06G02G04G16G19G09G26
 -18672256.965 8  21543129.577          48.000       -2004.271
 -16352542.219 7  22599868.276          46.000        3001.631
  -7067957.936 7  23780784.505          43.000       -3193.123
   7867018.688 6  38611698.892          40.000        -137.018
 -21811905.110 8  20820758.706          49.000        -954.080
 -14301555.645 7  22509051.585          46.000        2112.456
  -3022048.077 6  25033146.426          39.000        -293.874
   -773500.98915  24925602.375          33.000        2077.220
   -394569.543 6  25175837.764          39.000       -3418.032
 -22957630.884 8  20259352.884          52.000        -564.278
  -2398520.822 6  25070151.411          40.000         494.900
 16  6 23  1  1  0.0000000  0 11G23G07G03S20G06G02G04G16G19G09G26
 -18611967.859 7  21554599.623          47.000       -2014.458
 -16442443.762 7  22582761.409          46.000        2991.608
  -6972071.472 7  23799031.691          43.000       -3198.219
   7871162.387 6  38612486.107          40.000        -138.360
 -21782966.644 8  20826265.314          48.000        -974.464
 -14364710.686 7  22497034.876          46.000        2098.579
  -3012930.895 6  25034881.397          39.000        -313.160
   -835534.64515  24913799.327          34.000        2060.181
   -291983.195 6  25195362.132          41.000       -3420.095
 -22940468.226 8  20262619.146          52.000        -579.092
  -2413090.800 6  25067378.972          40.000         477.103
 16  6 23  1  1 30.0000000  0 12G23G07G29G03S20G06G02G04G16G19G09G26
 -18551393.600 7  21566126.888          47.000       -2024.316
 -16532063.859 7  22565707.573          47.000        2982.609
    -54184.56816  25419511.157          39.000        1804.953
  -6876040.006 7  23817304.669          43.000       -3203.893
   7875299.444 6  38613273.565          40.000        -137.881
 -21753441.837 8  20831883.883          49.000        -994.093
 -14427456.486 7  22485092.383          45.000        2084.275
  -3003222.001 6  25036728.101          38.000        -333.512
   -897180.011 5  24902067.912          35.000        2049.954
   -189356.616 6  25214891.212          41.000       -3421.582
 -22922878.626 8  20265966.603          52.000        -593.983
  -2427135.021 6  25064706.716          40.000         458.292
 16  6 23  1  2  0.0000000  0 13G23G07G29G03S20G06G02G04G16G19G09G26
                                G30
 -18490530.091 8  21577710.482          48.000       -2033.353
 -16621394.675 7  22548708.583          47.000        2972.750
   -108100.860 6  25409251.685          40.000        1790.627
  -6779858.609 7  23835606.981          42.000       -3208.254
   7879433.848 6  38614061.006          40.000        -137.307
 -21723325.541 8  20837615.110          49.000       -1013.920
 -14489785.186 7  22473231.575          45.000        2070.156
  -2992916.700 6  25038689.488          38.000        -353.079
   -958428.69615  24890414.447          35.000        2036.782
    -86687.000 6  25234425.771          39.000       -3422.345
 -22904857.292 8  20269396.025          52.000        -607.872
  -2440646.628 6  25062135.182          40.000         441.654
   -111174.30816  24512229.437          41.000        3719.872
 16  6 23  1  2 30.0000000  0 13G23G07G29G03S20G06G02G04G16G19G09G26
                                G30
 -18429379.996 8  21589347.352          48.000       -2043.418
 -16710434.826 7  22531763.392          46.000        2963.013
   -161551.079 6  25399079.831          38.000        1773.982
  -6683530.045 7  23853937.772          42.000       -3213.469
   7883563.286 6  38614845.638          40.000        -137.890
 -21692620.365 8  20843457.984          49.000       -1032.975
 -14551696.616 7  22461451.509          46.000        2056.848
  -2982016.388 6  25040763.848          38.000        -373.248
  -1019279.696 5  24878832.615          34.000        2022.131
     16020.531 6  25253971.044          39.000       -3423.897
 -22886407.052 8  20272907.148          52.000        -621.985
  -2453626.505 6  25059664.074          39.000         424.223
   -222749.285 6  24490997.076          41.000        3718.979
 16  6 23  1  3  0.0000000  0 13G23G07G29G03S20G06G02G04G16G19G09G26
                                G30
 -18367951.373 8  21601036.921          49.000       -2052.699
 -16799188.829 7  22514874.652          46.000        2953.129
   -214539.826 6  25388997.252          37.000        1758.712
  -6587061.501 6  23872296.291          41.000       -3217.705
   7887683.536 6  38615630.880          40.000        -137.825
 -21661333.368 8  20849412.295          50.000       -1052.617
 -14613194.469 7  22449750.388          46.000        2042.924
  -2970527.615 6  25042950.098          37.000        -392.478
  -1079736.180 5  24867328.018          34.000        2009.103
    118757.011 6  25273521.850          40.000       -3424.827
 -22867535.321 8  20276498.735          52.000        -636.131
  -2466079.943 6  25057294.823          39.000         405.479
   -334291.288 6  24469769.619          40.000        3717.473
 16  6 23  1  3 30.0000000  0 13G23G07G29G03S20G06G02G04G16G19G09G26
                                G30
 -18306249.966 8  21612778.335          49.000       -2060.768
 -16887658.274 7  22498039.433          46.000        2944.766
   -267069.349 6  25378999.865          39.000        1743.117
  -6490458.312 6  23890677.827          41.000       -3222.300
   7891790.537 6  38616412.301          40.000        -136.831
 -21629469.773 8  20855475.548          49.000       -1071.565
 -14674281.452 7  22438125.175          46.000        2029.581
  -2958454.971 5  25045246.722          35.000        -412.151
  -1139799.723 5  24855899.120          35.000        1996.597
    221514.937 6  25293077.000          40.000       -3424.963
 -22848247.532 8  20280168.620          52.000        -649.417
  -2478010.558 6  25055025.091          38.000         388.917
   -445802.166 6  24448550.137          41.000        3716.713
 16  6 23  1  4  0.0000000  0 13G23G07G29G03S20G06G02G04G16G19G09G26
                                G30
 -18244279.079 8  21624569.604          48.000       -2070.179
 -16975842.370 7  22481257.489          46.000        2934.177
   -319139.800 6  25369091.283          38.000        1727.104
  -6393723.021 6  23909087.772          41.000       -3226.362
   7895879.532 6  38617191.697          40.000        -136.451
 -21597032.025 8  20861648.440          49.000       -1090.689
 -14734957.443 7  22426577.894          46.000        2015.362
  -2945800.162 5  25047654.433          35.000        -432.183
  -1199469.333 6  24844545.887          36.000        1982.880
    324289.374 6  25312631.784          40.000       -3426.057
 -22828546.398 8  20283917.538          52.000        -663.922
  -2489418.966 6  25052854.929          40.000         371.759
   -557281.043 6  24427334.843          40.000        3714.909
 16  6 23  1  4 30.0000000  0 13G23G07G29G03S20G06G02G04G16G19G09G26
                                G30
 -18182038.105 8  21636414.410          49.000       -2079.230
 -17063736.590 7  22464531.978          46.000        2924.857
   -370747.049 6  25359270.946          39.000        1712.465
  -6296854.291 6  23927520.995          41.000       -3231.675
   7899954.264 6  38617965.946          40.000        -135.696
 -21564018.724 8  20867929.751          49.000       -1109.720
 -14795217.617 7  22415112.159          46.000        2001.288
  -2932561.230 5  25050172.639          35.000        -450.736
  -1258740.092 6  24833267.985          36.000        1969.033
    427079.574 6  25332193.949          41.000       -3426.583
 -22808430.714 8  20287745.452          51.000        -677.417
  -2500302.103 6  25050782.489          38.000         354.333
   -668723.211 6  24406127.052          40.000        3714.552
 16  6 23  1  5  0.0000000  0 13G23G07G29G03S20G06G02G04G16G19G09G26
                                G30
 -18119513.362 8  21648313.086          49.000       -2088.800
 -17151324.061 7  22447864.577          46.000        2914.671
   -421874.704 6  25349541.490          37.000        1696.236
  -6199838.400 6  23945984.407          41.000       -3235.777
   7904030.319 6  38618742.271          40.000        -136.769
 -21530416.114 8  20874323.825          49.000       -1129.794
 -14855045.317 7  22403727.375          47.000        1987.445
  -2918723.198 6  25052808.616          37.000        -470.186
  -1317594.36015  24822063.986          34.000        1955.389
    529897.186 6  25351759.465          41.000       -3427.428
 -22787886.962 8  20291654.144          51.000        -691.927
  -2510644.448 6  25048815.396          39.000         335.628
   -780111.484 6  24384928.947          40.000        3712.452
 16  6 23  1  5 30.0000000  0 13G23G07G29G03S20G06G02G04G16G19G09G26
                                G30
 -18056707.998 8  21660264.879          49.000       -2097.706
 -17238603.157 7  22431256.856          47.000        2904.199
   -472522.249 6  25339903.944          40.000        1680.368
  -6102677.617 6  23964472.878          41.000       -3240.792
   7908106.714 6  38619518.562          40.000        -134.826
 -21496226.403 8  20880830.313          49.000       -1149.137
 -14914439.839 7  22392423.613          46.000        1972.793
  -2904288.503 6  25055555.490          38.000        -490.747
  -1376030.73715  24810942.910          34.000        1940.506
    632738.070 6  25371330.215          41.000       -3427.787
 -22766917.553 8  20295644.101          51.000        -705.925
  -2520446.543 6  25046949.444          39.000         318.287
   -891444.775 6  24363743.684          40.000        3710.480
 16  6 23  1  6  0.0000000  0 13G23G07G29G03S20G06G02G04G16G19G09G26
                                G30
 -17993636.816 8  21672267.523          49.000       -2106.861
 -17325584.851 7  22414704.854          47.000        2894.796
   -522700.681 6  25330355.638          41.000        1664.642
  -6005385.785 6  23982987.332          40.000       -3244.233
   7912167.990 6  38620291.100          41.000        -133.845
 -21461463.463 8  20887445.481          49.000       -1168.351
 -14973412.453 7  22381203.175          47.000        1958.948
  -2889270.062 6  25058413.591          37.000        -510.551
  -1434059.48215  24799903.919          34.000        1928.138
    735586.149 6  25390901.682          40.000       -3428.100
 -22745536.501 8  20299712.916          51.000        -719.472
  -2529720.459 6  25045184.494          39.000         300.140
  -1002733.483 6  24342566.606          40.000        3708.972
 16  6 23  1  6 30.0000000  0 13G23G07G29G03S20G06G02G04G16G19G09G26
                                G30
 -17930294.727 8  21684319.725          48.000       -2115.939
 -17412260.786 8  22398212.391          48.000        2883.894
   -572402.744 6  25320896.818          39.000        1648.276
  -5907958.094 6  24001526.810          40.000       -3250.586
   7916220.233 6  38621061.144          40.000        -134.753
 -21426122.467 8  20894172.226          50.000       -1187.717
 -15031954.921 7  22370063.951          47.000        1944.179
  -2873662.576 6  25061383.584          39.000        -530.393
  -1491672.13915  24788940.157          35.000        1911.674
    838443.667 6  25410475.050          41.000       -3429.198
 -22723739.182 8  20303860.938          50.000        -733.439
  -2538459.670 6  25043521.541          41.000         282.065
  -1113969.347 6  24321399.824          40.000        3707.487
 16  6 23  1  7  0.0000000  0 13G23G07G29G03S20G06G02G04G16G19G09G26
                                G30
 -17866675.186 8  21696425.919          48.000       -2125.070
 -17498621.038 7  22381776.903          47.000        2873.872
   -621618.721 6  25311532.368          38.000        1632.086
  -5810387.483 6  24020093.772          40.000       -3255.184
   7920273.544 6  38621832.775          41.000        -134.431
 -21390196.383 8  20901007.563          49.000       -1206.912
 -15090057.190 7  22359005.154          46.000        1929.963
  -2857458.156 6  25064467.526          39.000        -550.037
  -1548857.619 5  24778058.742          35.000        1899.833
    941315.822 7  25430050.844          42.000       -3428.509
 -22701518.729 8  20308089.213          50.000        -747.235
  -2546655.409 6  25041962.835          41.000         264.452
  -1225141.891 6  24300245.256          41.000        3705.674
 16  6 23  1  7 30.0000000  0 13G23G07G29G03S20G06G02G04G16G19G09G26
                                G30
 -17802791.313 8  21708583.520          49.000       -2133.794
 -17584673.656 7  22365402.038          47.000        2863.475
   -670357.878 6  25302256.565          39.000        1617.110
  -5712686.086 6  24038685.059          39.000       -3259.003
   7924316.499 6  38622602.469          41.000        -135.072
 -21353697.440 8  20907953.274          49.000       -1226.115
 -15147728.904 7  22348031.009          46.000        1915.260
  -2840668.543 6  25067662.643          39.000        -569.564
  -1605624.53216  24767255.784          36.000        1885.164
   1044188.587 6  25449625.992          41.000       -3429.144
 -22678887.437 8  20312395.944          50.000        -761.254
  -2554318.126 7  25040505.044          42.000         246.779
  -1336259.834 6  24279099.955          41.000        3703.066
 16  6 23  1  8  0.0000000  0 13G23G07G29G03S20G06G02G04G16G19G09G26
                                G30
 -17738644.870 8  21720789.808          48.000       -2142.820
 -17670416.878 7  22349085.474          47.000        2852.901
   -718619.039 6  25293072.759          37.000        1599.905
  -5614855.294 6  24057300.323          37.000       -3263.189
   7928346.451 6  38623367.556          41.000        -133.685
 -21316627.032 8  20915007.541          49.000       -1245.475
 -15204968.220 7  22337139.875          46.000        1900.584
  -2823294.675 6  25070969.459          40.000        -588.815
  -1661970.770 5  24756532.887          35.000        1873.185
   1147058.310 7  25469203.793          43.000       -3428.539
 -22655846.859 8  20316780.695          50.000        -774.916
  -2561447.608 7  25039148.254          42.000         228.676
  -1447321.048 7  24257967.881          42.000        3701.645
 16  6 23  1  8 30.0000000  0 13G23G07G29G03S20G06G02G04G16G19G09G26
                                G30
 -17674231.838 8  21733048.150          49.000       -2151.425
 -17755843.407 7  22332829.776          47.000        2842.424
   -766395.116 6  25283982.418          37.000        1585.711
  -5516890.454 6  24075942.810          37.000       -3267.797
   7932368.736 6  38624133.691          41.000        -132.969
 -21278980.715 8  20922171.048          49.000       -1263.777
 -15261767.627 7  22326329.831          46.000        1886.534
  -2805331.270 6  25074386.229          40.000        -607.985
  -1717887.94815  24745893.506          34.000        1858.271
   1249927.746 6  25488776.812          41.000       -3429.278
 -22632392.656 8  20321244.286          51.000        -788.471
  -2568037.583 7  25037895.433          43.000         211.076
  -1558317.591 7  24236847.271          42.000        3699.320
 16  6 23  1  9  0.0000000  0 13G23G07G29G03S20G06G02G04G16G19G09G26
                                G30
 -17609552.672 8  21745354.828          49.000       -2160.439
 -17840949.942 8  22316634.979          48.000        2831.201
   -813683.774 5  25274981.997          35.000        1567.797
  -5418791.874 6  24094612.187          38.000       -3272.586
   7936385.862 6  38624896.771          41.000        -134.419
 -21240758.750 8  20929443.653          49.000       -1283.898
 -15318124.243 7  22315605.957          46.000        1870.755
  -2786777.798 6  25077917.543          40.000        -628.186
  -1773372.82215  24735333.088          34.000        1842.119
   1352794.761 7  25508351.803          42.000       -3428.999
 -22608525.130 8  20325785.583          51.000        -802.451
  -2574086.618 7  25036743.545          43.000         192.739
  -1669246.100 7  24215736.888          42.000        3695.845
 16  6 23  1  9 30.0000000  0 13G23G07G29G03S20G06G02G04G16G19G09G26
                                G30
 -17544605.713 8  21757713.212          48.000       -2168.718
 -17925730.549 7  22300501.031          47.000        2821.013
   -860479.819 5  25266075.545          34.000        1552.696
  -5320557.030 6  24113306.029          37.000       -3276.287
   7940401.972 6  38625661.876          41.000        -133.311
 -21201958.863 8  20936827.381          49.000       -1302.539
 -15374032.815 7  22304967.187          46.000        1856.786
  -2767631.536 6  25081561.881          41.000        -647.162
  -1828419.259 5  24724858.473          34.000        1827.708
   1455659.147 7  25527927.736          42.000       -3428.320
 -22584242.096 8  20330406.663          50.000        -815.843
  -2579590.753 7  25035695.694          42.000         175.154
  -1780100.780 7  24194642.733          42.000        3693.857
 16  6 23  1 10  0.0000000  0 13G23G07G29G03S20G06G02G04G16G19G09G26
                                G30
 -17479400.142 8  21770121.539          49.000       -2177.815
 -18010190.304 7  22284428.630          47.000        2810.236
   -906789.364 5  25257262.854          34.000        1535.896
  -5222194.625 6  24132023.971          38.000       -3279.750
   7944406.134 6  38626422.583          40.000        -133.360
 -21162590.091 8  20944318.951          49.000       -1321.579
 -15429499.179 7  22294412.039          46.000        1841.375
  -2747900.703 6  25085316.540          41.000        -667.107
  -1883032.34116  24714467.863          36.000        1811.592
   1558510.530 7  25547499.709          42.000       -3428.292
 -22559552.475 8  20335104.314          50.000        -829.753
  -2584557.058 7  25034750.869          43.000         156.563
  -1890886.806 7  24173558.316          42.000        3691.545
 16  6 23  1 10 30.0000000  0 13G23G07G29G03S20G06G02G04G16G19G09G26
                                G30
 -17413940.654 8  21782579.284          49.000       -2186.583
 -18094330.536 7  22268416.188          47.000        2799.233
   -952614.355 6  25248543.940          36.000        1519.275
  -5123709.009 6  24150765.243          38.000       -3285.754
   7948395.721 6  38627182.785          41.000        -133.224
 -21122656.572 8  20951918.731          49.000       -1340.472
 -15484524.999 7  22283942.397          47.000        1826.188
  -2727589.694 6  25089180.873          40.000        -687.179
  -1937212.765 6  24704157.314          37.000        1799.246
   1661342.429 6  25567067.336          41.000       -3427.570
 -22534460.780 8  20339879.182          50.000        -843.337
  -2588988.371 7  25033907.762          42.000         138.872
  -2001605.097 7  24152491.034          43.000        3688.943
 16  6 23  1 11  0.0000000  0 13G23G07G29G03S20G06G02G04G16G19G09G26
                                G30
 -17348212.936 8  21795086.553          49.000       -2194.939
 -18178133.665 7  22252469.324          47.000        2788.205
   -997936.935 6  25239919.850          36.000        1502.144
  -5025085.108 6  24169530.264          37.000       -3290.104
   7952387.817 6  38627943.509          41.000        -133.007
 -21082143.662 8  20959627.888          49.000       -1360.125
 -15539091.912 7  22273557.720          46.000        1810.941
  -2706682.421 6  25093159.872          39.000        -707.426
  -1990941.848 6  24693933.808          37.000        1784.853
   1764167.946 6  25586634.248          41.000       -3427.049
 -22508952.205 8  20344733.518          51.000        -856.888
  -2592868.103 7  25033169.670          42.000         120.339
  -2112237.081 7  24131437.224          42.000        3686.866
 16  6 23  1 11 30.0000000  0 13G23G07G29G03S20G06G02G04G16G19G09G26
                                G30
 -17282226.075 8  21807641.514          48.000       -2204.128
 -18261604.060 8  22236586.677          48.000        2776.760
  -1042763.722 6  25231390.288          37.000        1484.500
  -4926331.786 6  24188322.823          38.000       -3294.471
   7956376.535 6  38628701.844          41.000        -132.714
 -21041060.331 8  20967446.929          49.000       -1378.820
 -15593206.082 7  22263260.172          46.000        1796.168
  -2685187.557 6  25097248.842          39.000        -726.823
  -2044224.686 6  24683792.404          37.000        1767.871
   1866976.580 6  25606200.252          41.000       -3427.052
 -22483035.749 8  20349665.840          51.000        -870.759
  -2596203.511 7  25032536.035          43.000         102.126
  -2222788.007 7  24110400.708          42.000        3683.789
 16  6 23  1 12  0.0000000  0 13G23G07G29G03S20G06G02G04G16G19G09G26
                                G30
 -17215991.727 7  21820244.235          47.000       -2212.135
 -18344749.776 8  22220765.577          48.000        2766.563
  -1087102.987 6  25222952.305          37.000        1470.158
  -4827460.176 6  24207137.840          38.000       -3298.853
   7960347.245 6  38629457.124          41.000        -132.019
 -20999418.046 8  20975370.445          49.000       -1397.089
 -15646875.709 7  22253047.223          47.000        1781.993
  -2663116.153 6  25101449.877          40.000        -745.239
  -2097068.914 6  24673737.554          38.000        1753.811
   1969754.444 6  25625755.891          39.000       -3424.704
 -22456722.809 8  20354672.831          51.000        -883.613
  -2599004.359 7  25032001.657          43.000          84.506
  -2333265.796 7  24089376.668          42.000        3681.563
 16  6 23  1 12 30.0000000  0 13G23G07G29G03S20G06G02G04G16G19G09G26
                                G30
 -17149509.784 7  21832894.928          46.000       -2220.238
 -18427567.283 8  22205004.889          48.000        2754.820
  -1130951.736 6  25214609.670          38.000        1453.205
  -4728469.505 6  24225974.442          37.000       -3301.521
   7964302.727 6  38630208.199          41.000        -130.444
 -20957216.327 8  20983401.593          49.000       -1415.949
 -15700097.280 7  22242919.117          47.000        1766.660
  -2640466.845 6  25105760.656          40.000        -764.496
  -2149471.034 6  24663765.086          38.000        1739.349
   2072500.706 6  25645306.015          41.000       -3424.267
 -22430012.898 8  20359755.224          51.000        -896.792
  -2601268.391 7  25031570.079          42.000          65.993
  -2443666.123 7  24068370.305          43.000        3678.385
 16  6 23  1 13  0.0000000  0 13G23G07G29G03S20G06G02G04G16G19G09G26
                                G30
 -17082783.724 7  21845593.678          47.000       -2228.292
 -18510056.444 7  22189306.795          47.000        2744.106
  -1174310.860 6  25206358.911          38.000        1436.845
  -4629363.130 6  24244834.446          37.000       -3306.059
   7968242.036 6  38630956.988          41.000        -130.986
 -20914458.663 8  20991536.867          49.000       -1434.650
 -15752871.052 7  22232876.464          46.000        1752.192
  -2617242.635 6  25110178.423          40.000        -784.221
  -2201430.214 6  24653877.915          39.000        1724.637
   2175210.312 6  25664849.439          40.000       -3423.053
 -22402909.471 8  20364912.427          50.000        -910.010
  -2602997.428 7  25031241.822          43.000          49.295
  -2553988.719 7  24047373.819          42.000        3676.729
 16  6 23  1 13 30.0000000  0 13G23G07G29G03S20G06G02G04G16G19G09G26
                                G30
 -17015798.717 7  21858341.167          47.000       -2237.992
 -18592198.612 7  22173675.850          47.000        2732.226
  -1217162.020 6  25198202.347          36.000        1419.845
  -4530125.222 6  24263717.693          37.000       -3310.443
   7972182.984 6  38631706.858          41.000        -131.507
 -20871129.648 8  20999782.915          49.000       -1454.347
 -15805178.688 7  22222920.958          45.000        1735.656
  -2593427.562 6  25114710.437          40.000        -803.798
  -2252927.150 6  24644078.448          39.000        1708.474
   2277896.710 6  25684394.311          41.000       -3422.542
 -22375397.035 8  20370147.911          50.000        -924.124
  -2604174.351 7  25031017.797          42.000          30.065
  -2664214.434 6  24026397.541          41.000        3672.385
 16  6 23  1 14  0.0000000  0 13G23G07G29G03S20G06G02G04G16G19G09G26
                                G30
 -16948561.723 8  21871137.917          48.000       -2245.861
 -18673996.487 7  22158110.151          47.000        2720.474
  -1259509.437 6  25190143.959          36.000        1402.314
  -4430762.418 6  24282626.818          38.000       -3315.334
   7976116.795 6  38632453.832          40.000        -130.738
 -20827236.139 8  21008135.392          49.000       -1472.824
 -15857023.910 7  22213055.512          45.000        1720.419
  -2569027.797 6  25119354.655          41.000        -823.599
  -2303964.979 6  24634367.106          40.000        1693.049
   2380551.516 6  25703927.858          40.000       -3421.430
 -22347482.365 8  20375459.949          50.000        -937.602
  -2604804.246 7  25030898.018          42.000          11.669
  -2774346.268 6  24005441.662          41.000        3669.711
 16  6 23  1 14 30.0000000  0 13G23G07G29G03S20G06G02G04G16G19G09G26
                                G30
 -16881082.306 8  21883978.311          48.000       -2253.238
 -18755456.182 8  22142609.960          48.000        2709.722
  -1301359.707 6  25182180.151          36.000        1387.236
  -4331283.933 6  24301554.895          37.000       -3318.556
   7980035.544 6  38633198.538          40.000        -130.610
 -20782787.719 8  21016593.844          49.000       -1490.969
 -15908412.734 7  22203275.817          44.000        1705.628
  -2544052.748 6  25124107.013          41.000        -842.310
  -2354549.475 6  24624740.292          40.000        1678.211
   2483163.369 6  25723449.137          36.000       -3419.655
 -22319174.994 8  20380846.761          50.000        -949.849
  -2604895.035 7  25030880.463          42.000          -5.498
  -2884390.030 7  23984500.999          42.000        3667.285
 16  6 23  1 15  0.0000000  0 13G23G07G29G03S20G06G02G04G16G19G09G26
                                G30
 -16813363.856 8  21896863.500          48.000       -2262.072
 -18836577.574 8  22127172.608          48.000        2697.734
  -1342713.487 6  25174311.533          39.000        1369.501
  -4231692.595 6  24320506.966          37.000       -3323.647
   7983938.863 6  38633942.371          40.000        -130.784
 -20737787.634 8  21025156.492          49.000       -1509.735
 -15959345.473 7  22193584.280          45.000        1689.326
  -2518504.717 6  25128969.027          41.000        -861.516
  -2404679.958 6  24615200.572          40.000        1662.407
   2585727.537 6  25742971.795          39.000       -3418.880
 -22290477.996 8  20386307.999          50.000        -963.465
  -2604448.256 6  25030964.643          41.000         -24.372
  -2994345.040 6  23963576.705          41.000        3663.153
 16  6 23  1 15 30.0000000  0 13G23G07G29G03S20G06G02G04G16G19G09G26
                                G30
 -16745390.902 8  21909797.863          48.000       -2269.699
 -18917341.856 8  22111803.311          48.000        2686.385
  -1383552.728 6  25166540.637          39.000        1353.275
  -4131972.796 6  24339481.233          37.000       -3327.147
   7987843.778 6  38634683.865          40.000        -130.139
 -20692220.611 8  21033827.819          48.000       -1528.055
 -16009803.684 7  22183983.816          45.000        1674.774
  -2492368.018 6  25133942.392          41.000        -880.752
  -2454337.252 6  24605752.169          41.000        1647.671
   2688257.700 6  25762476.863          36.000       -3417.626
 -22261375.991 8  20391846.000          50.000        -976.311
  -2603446.951 6  25031156.927          41.000         -42.510
  -3104192.223 7  23942674.781          42.000        3660.414
 16  6 23  1 16  0.0000000  0 13G23G07G29G03S20G06G02G04G16G19G09G26
                                G30
 -16677169.418 8  21922781.505          48.000       -2277.816
 -18997750.690 8  22096501.616          48.000        2674.996
  -1423880.201 6  25158867.567          40.000        1335.783
  -4032129.894 6  24358481.658          38.000       -3330.177
   7991743.530 6  38635427.611          40.000        -129.253
 -20646092.362 8  21042605.663          48.000       -1546.602
 -16059789.847 7  22174472.383          46.000        1658.358
  -2465647.660 6  25139026.356          41.000        -900.017
  -2503523.335 6  24596391.697          41.000        1631.319
   2790746.982 6  25781982.438          36.000       -3414.648
 -22231874.536 8  20397459.979          50.000        -989.567
  -2601895.016 6  25031452.970          41.000         -59.654
  -3213933.372 7  23921792.403          42.000        3656.961
 16  6 23  1 16 30.0000000  0 13G23G07G29G03S20G06G02G04G16G19G09G26
                                G30
 -16608710.824 8  21935809.838          49.000       -2286.115
 -19077812.202 8  22081265.482          48.000        2662.883
  -1463704.447 6  25151288.641          40.000        1318.683
  -3932174.482 6  24377503.216          38.000       -3334.044
   7995628.141 6  38636166.750          40.000        -129.471
 -20599413.966 8  21051487.946          48.000       -1564.944
 -16109312.000 7  22165047.502          46.000        1643.228
  -2438354.438 7  25144221.268          42.000        -919.237
  -2552245.714 6  24587118.739          41.000        1616.208
   2893182.368 6  25801472.725          36.000       -3413.607
 -22201984.553 8  20403148.000          51.000       -1002.501
  -2599801.945 6  25031848.950          40.000         -78.435
  -3323575.611 6  23900925.432          41.000        3653.480
 16  6 23  1 17  0.0000000  0 13G23G07G29G03S20G06G02G04G16G19G09G26
                                G30
 -16540019.363 8  21948880.854          48.000       -2293.705
 -19157526.645 8  22066097.683          48.000        2650.763
  -1503027.032 6  25143806.284          40.000        1301.936
  -3832110.683 6  24396546.307          39.000       -3337.203
   7999496.783 6  38636902.940          40.000        -128.668
 -20552189.911 8  21060473.935          48.000       -1583.542
 -16158371.091 7  22155711.392          46.000        1627.535
  -2410492.164 7  25149523.429          42.000        -938.638
  -2600504.763 6  24577937.028          41.000        1600.409
   2995557.750 6  25820959.157          38.000       -3411.710
 -22171710.344 8  20408909.015          51.000       -1015.630
  -2597170.440 6  25032348.986          40.000         -96.684
  -3433119.511 7  23880083.032          42.000        3650.084
 16  6 23  1 17 30.0000000  0 13G23G07G29G03S20G06G02G04G16G19G09G26
                                G30
 -16471083.325 8  21961997.921          48.000       -2302.466
 -19236878.914 8  22050998.202          49.000        2638.452
  -1541833.692 6  25136420.305          38.000        1283.931
  -3731926.392 6  24415610.600          39.000       -3342.534
   8003362.295 6  38637637.734          40.000        -129.614
 -20504408.581 8  21069567.121          49.000       -1602.447
 -16206952.585 7  22146467.017          46.000        1611.130
  -2382048.631 7  25154936.417          43.000        -957.583
  -2648285.040 6  24568844.557          41.000        1583.817
   3097883.804 6  25840432.029          38.000       -3409.977
 -22141040.102 8  20414745.362          51.000       -1029.646
  -2593987.211 6  25032955.992          40.000        -115.452
  -3542549.462 7  23859258.797          42.000        3646.348
 16  6 23  1 18  0.0000000  0 13G23G07G29G03S20G06G02G04G16G19G09G26
                                G30
 -16401896.753 8  21975163.900          48.000       -2310.050
 -19315859.202 8  22035968.748          49.000        2626.541
  -1580115.517 6  25129135.572          36.000        1268.582
  -3631615.051 6  24434700.109          40.000       -3345.618
   8007230.868 6  38638375.651          40.000        -128.606
 -20456063.902 8  21078767.452          50.000       -1620.794
 -16255047.090 7  22137314.465          47.000        1595.245
  -2353017.325 7  25160459.882          42.000        -977.324
  -2695576.535 6  24559846.387          41.000        1567.569
   3200165.099 6  25859896.526          38.000       -3409.480
 -22109967.507 8  20420658.142          50.000       -1042.294
  -2590244.469 6  25033669.410          41.000        -133.910
  -3651855.430 7  23838457.631          42.000        3641.873
 16  6 23  1 18 30.0000000  0 13G23G07G29G03S20G06G02G04G16G19G09G26
                                G30
 -16332477.465 7  21988373.593          47.000       -2317.749
 -19394481.999 8  22021006.216          48.000        2614.936
  -1617887.559 6  25121948.246          38.000        1251.007
  -3531194.078 6  24453810.732          40.000       -3349.004
   8011085.612 6  38639108.368          40.000        -127.885
 -20407173.725 8  21088071.734          51.000       -1638.469
 -16302669.338 7  22128253.108          47.000        1579.803
  -2323415.501 7  25166093.720          42.000        -996.014
  -2742393.258 6  24550936.341          41.000        1552.713
   3302382.046 6  25879347.481          38.000       -3405.288
 -22078510.237 8  20426643.741          50.000       -1054.577
  -2585958.442 6  25034483.218          41.000        -151.414
  -3761051.240 7  23817678.087          42.000        3637.849
 16  6 23  1 19  0.0000000  0 13G23G07G29G03S20G06G02G04G16G19G09G26
                                G30
 -16262821.602 7  22001628.517          47.000       -2325.664
 -19472739.624 8  22006114.270          48.000        2602.531
  -1655143.275 6  25114857.176          37.000        1234.080
  -3430659.298 6  24472940.289          40.000       -3352.668
   8014933.331 6  38639841.225          40.000        -127.745
 -20357734.375 8  21097479.024          50.000       -1656.821
 -16349812.139 7  22119282.858          47.000        1563.483
  -2293238.969 6  25171835.138          41.000       -1014.800
  -2788727.834 6  24542117.821          41.000        1536.416
   3404536.849 6  25898789.082          38.000       -3404.123
 -22046664.339 8  20432703.975          50.000       -1067.846
  -2581123.738 6  25035405.043          41.000        -170.265
  -3870129.204 7  23796922.571          42.000        3633.616
 16  6 23  1 19 30.0000000  0 13G23G07G29G03S20G06G02G04G16G19G09G26
                                G30
 -16192924.059 7  22014930.294          47.000       -2334.059
 -19550623.293 8  21991293.678          48.000        2589.821
  -1691874.836 6  25107868.835          39.000        1215.512
  -3330005.234 6  24492095.445          41.000       -3356.977
   8018780.673 6  38640573.680          40.000        -128.469
 -20307740.941 8  21106993.336          50.000       -1675.842
 -16396467.288 7  22110402.896          46.000        1546.767
  -2262482.166 6  25177689.337          41.000       -1035.399
  -2834571.482 6  24533394.806          41.000        1520.491
   3506633.153 5  25918214.577          35.000       -3400.997
 -22014424.650 8  20438839.262          50.000       -1081.456
  -2575733.696 6  25036428.306          41.000        -189.432
  -3979080.343 7  23776188.676          42.000        3629.394
 16  6 23  1 20  0.0000000  0 13G23G07G29G03S20G06G02G04G16G19G09G26
                                G30
 -16122791.371 7  22028277.704          47.000       -2342.181
 -19628136.103 8  21976544.736          49.000        2576.881
  -1728086.183 6  25100977.674          40.000        1198.083
  -3229237.777 6  24511268.575          40.000       -3360.406
   8022620.732 6  38641304.478          40.000        -128.257
 -20257199.887 8  21116609.977          50.000       -1694.292
 -16442638.375 7  22101616.327          45.000        1530.866
  -2231151.157 6  25183650.401          41.000       -1056.052
  -2879926.745 6  24524764.888          41.000        1503.363
   3608663.38616  25937630.667          36.000       -3400.372
 -21981797.322 8  20445047.666          51.000       -1094.646
  -2569793.153 7  25037559.587          42.000        -207.423
  -4087907.057 6  23755479.979          41.000        3625.101
 16  6 23  1 20 30.0000000  0 13G23G07G29G03S20G06G02G04G16G19G09G26
                                G30
 -16052431.528 7  22041666.122          47.000       -2349.389
 -19705282.679 8  21961863.432          49.000        2565.361
  -1763783.115 6  25094186.241          39.000        1182.202
  -3128364.697 6  24530463.937          41.000       -3363.883
   8026446.630 6  38642030.651          40.000        -126.795
 -20206119.439 8  21126331.074          50.000       -1711.526
 -16488330.110 7  22092921.652          46.000        1515.365
  -2199253.590 6  25189719.500          40.000       -1072.636
  -2924797.977 6  24516225.100          41.000        1487.544
   3710618.17016  25957033.232          36.000       -3397.302
 -21948790.341 8  20451328.854          51.000       -1106.490
  -2563308.629 7  25038793.439          42.000        -225.300
  -4196613.483 7  23734793.932          42.000        3621.729
 16  6 23  1 21  0.0000000  0 13G23G07G29G03S20G06G02G04G16G19G09G26
                                G30
 -15981842.100 7  22055097.502          47.000       -2356.845
 -19782056.624 8  21947253.900          49.000        2553.034
  -1798960.135 6  25087490.662          38.000        1165.527
  -3027382.697 6  24549677.342          38.000       -3367.100
   8030264.579 6  38642756.162          40.000        -127.219
 -20154497.009 8  21136152.633          49.000       -1729.496
 -16533536.719 7  22084318.206          46.000        1498.963
  -2166786.526 6  25195898.988          40.000       -1091.915
  -2969178.499 6  24507778.584          40.000        1471.306
   3812499.257 6  25976419.220          36.000       -3395.485
 -21915400.775 8  20457682.548          51.000       -1119.182
  -2556275.880 7  25040132.359          43.000        -242.671
  -4305192.871 7  23714131.601          42.000        3617.490
 16  6 23  1 21 30.0000000  0 13G23G07G29G03S20G06G02G04G16G19G09G26
                                G30
 -15911024.130 7  22068573.817          47.000       -2365.157
 -19858455.680 8  21932714.623          49.000        2539.652
  -1833615.792 6  25080895.108          39.000        1145.304
  -2926292.999 6  24568915.091          40.000       -3370.977
   8034074.670 6  38643482.632          40.000        -126.666
 -20102334.386 8  21146078.875          49.000       -1748.789
 -16578256.631 7  22075808.625          46.000        1481.407
  -2133751.004 6  25202184.278          40.000       -1111.789
  -3013066.350 6  24499429.528          41.000        1453.965
   3914303.082 5  25995791.632          35.000       -3393.290
 -21881630.085 8  20464109.201          51.000       -1133.012
  -2548694.975 7  25041575.737          43.000        -262.502
  -4413642.869 7  23693492.530          42.000        3611.506
 16  6 23  1 22  0.0000000  0 13G23G07G29G03S20G06G02G04G16G19G09G26
                                G30
 -15839966.135 8  22082096.845          48.000       -2372.392
 -19934464.523 8  21918250.190          49.000        2527.318
  -1867735.819 6  25074401.900          38.000        1127.822
  -2825083.471 6  24588173.290          39.000       -3375.279
   8037892.209 6  38644209.032          40.000        -127.409
 -20049620.012 8  21156110.883          49.000       -1765.759
 -16622475.129 7  22067394.496          46.000        1465.716
  -2100135.284 6  25208581.039          39.000       -1129.887
  -3056446.232 6  24491173.603          40.000        1437.891
   4016040.352 6  26015150.554          37.000       -3390.010
 -21847466.407 8  20470610.472          51.000       -1145.047
  -2540552.741 7  25043123.746          42.000        -280.777
  -4521947.820 7  23672884.224          43.000        3608.666
 16  6 23  1 22 30.0000000  0 13G23G07G29G03S20G06G02G04G16G19G09G26
                                G30
 -15768677.172 8  22095663.535          48.000       -2380.249
 -20010089.144 8  21903859.780          49.000        2514.547
  -1901326.985 6  25068010.217          38.000        1111.016
  -2723762.968 6  24607456.497          40.000       -3378.668
   8041708.663 6  38644936.148          40.000        -126.424
 -19996363.348 8  21166244.294          49.000       -1784.381
 -16666198.283 7  22059074.616          47.000        1449.081
  -2065947.991 6  25215085.485          39.000       -1148.850
  -3099323.516 6  24483013.933          39.000        1421.689
   4117700.216 5  26034493.667          35.000       -3386.712
 -21812918.779 8  20477184.929          51.000       -1157.758
  -2531856.920 7  25044780.155          43.000        -299.306
  -4630112.974 7  23652300.733          43.000        3603.241
 16  6 23  1 23  0.0000000  0 13G23G07G29G03S20G06G02G04G16G19G09G26
                                G30
 -15697169.420 8  22109269.993          49.000       -2386.759
 -20085337.694 8  21889541.388          49.000        2502.209
  -1934398.824 6  25061717.144          39.000        1094.159
  -2622342.928 6  24626757.432          40.000       -3382.246
   8045510.957 6  38645659.424          40.000        -126.856
 -19942576.505 8  21176480.417          50.000       -1801.522
 -16709434.885 7  22050847.030          47.000        1433.311
  -2031200.679 6  25221698.699          40.000       -1167.717
  -3141706.764 6  24474949.071          40.000        1404.250
   4219269.54615  26053819.068          34.000       -3383.569
 -21777998.995 8  20483829.850          51.000       -1169.827
  -2522618.027 7  25046538.474          43.000        -316.738
  -4738146.260 7  23631742.666          43.000        3599.304
 16  6 23  1 23 30.0000000  0 13G23G07G29G03S20G06G02G04G16G19G09G26
                                G30
 -15625440.511 8  22122919.972          49.000       -2394.660
 -20160204.719 8  21875294.873          49.000        2489.162
  -1966946.513 6  25055523.923          40.000        1075.421
  -2520820.815 7  24646079.343          42.000       -3385.704
   8049303.288 6  38646382.456          40.000        -126.263
 -19888257.671 8  21186817.089          50.000       -1819.547
 -16752180.127 7  22042712.978          46.000        1416.212
  -1995891.183 6  25228419.092          41.000       -1186.135
  -3183589.940 6  24466979.434          40.000        1387.221
   4320748.87015  26073131.503          34.000       -3380.647
 -21742704.798 8  20490546.107          51.000       -1182.446
  -2512832.519 7  25048399.679          42.000        -334.918
  -4846041.624 7  23611208.785          42.000        3593.997
 16  6 23  1 24  0.0000000  0 13G23G07G29G03S20G06G02G04G16G19G09G26
                                G30
 -15553474.747 8  22136614.728          49.000       -2402.451
 -20234670.552 8  21861123.621          49.000        2475.948
  -1998951.493 6  25049432.732          39.000        1058.023
  -2419180.138 6  24665420.641          41.000       -3389.359
   8053100.218 6  38647104.826          40.000        -125.878
 -19833390.999 8  21197258.339          50.000       -1837.616
 -16794414.396 7  22034675.425          46.000        1399.258
  -1960003.248 6  25235247.502          40.000       -1205.513
  -3224953.459 6  24459109.316          40.000        1370.336
   4422153.24315  26092426.785          34.000       -3379.275
 -21707019.985 8  20497336.423          50.000       -1195.423
  -2502482.893 6  25050368.675          41.000        -354.354
  -4953778.965 7  23590708.636          43.000        3589.110
 16  6 23  1 24 30.0000000  0 13G23G07G29G03S20G06G02G04G16G19G09G26
                                G30
 -15481277.493 8  22150353.965          49.000       -2410.072
 -20308737.785 8  21847029.238          49.000        2462.376
  -2030417.623 6  25043446.906          40.000        1040.402
  -2317426.568 7  24684784.030          42.000       -3393.729
   8056897.854 6  38647827.596          40.000        -125.653
 -19777982.867 8  21207801.778          50.000       -1855.748
 -16836140.930 7  22026735.419          46.000        1382.656
  -1923542.755 6  25242186.127          40.000       -1223.790
  -3265799.972 6  24451333.674          40.000        1353.264
   4523475.816 5  26111710.444          35.000       -3375.300
 -21670950.454 8  20504199.873          50.000       -1208.531
  -2491573.898 6  25052445.041          41.000        -373.110
  -5061360.389 7  23570237.611          44.000        3584.512
 16  6 23  1 25  0.0000000  0 14G23G07G29G03S20G06G02G04G16G19G05G09
                                G26G30
 -15408865.071 8  22164133.931          49.000       -2417.430
 -20382419.249 8  21833007.708          49.000        2449.554
  -2061358.227 6  25037559.360          40.000        1022.840
  -2215575.867 6  24704164.050          41.000       -3397.688
   8060682.930 6  38648547.679          40.000        -126.393
 -19722049.748 8  21218446.307          50.000       -1873.354
 -16877372.915 7  22018889.976          47.000        1366.337
  -1886525.405 6  25249230.396          41.000       -1243.180
  -3306141.946 6  24443658.440          40.000        1336.134
   4624698.35016  26130975.293          38.000       -3371.198
    -99624.43516  24825863.893          36.000        3332.327
 -21634512.292 8  20511134.572          51.000       -1220.830
  -2480120.363 6  25054624.730          40.000        -391.782
  -5168798.176 7  23549792.517          44.000        3578.853
 16  6 23  1 25 30.0000000  0 14G23G07G29G03S20G06G02G04G16G19G05G09
                                G26G30
 -15336240.509 8  22177952.986          48.000       -2424.446
 -20455714.372 8  21819060.395          48.000        2436.606
  -2091774.087 6  25031770.861          40.000        1004.910
  -2113630.747 6  24723562.655          41.000       -3399.895
   8064454.418 6  38649265.494          40.000        -125.646
 -19665595.126 8  21229188.015          49.000       -1890.417
 -16918110.596 7  22011138.344          47.000        1349.508
  -1848954.366 7  25256380.605          42.000       -1262.043
  -3345978.872 6  24436078.467          40.000        1319.284
   4725816.559 6  26150216.758          39.000       -3368.647
   -199610.314 5  24806837.083          35.000        3331.028
 -21597708.504 8  20518137.833          51.000       -1232.885
  -2468124.155 6  25056906.137          40.000        -408.653
  -5276091.419 7  23529376.722          45.000        3574.073
 16  6 23  1 26  0.0000000  0 14G23G07G29G03S20G06G02G04G16G19G05G09
                                G26G30
 -15263385.132 8  22191816.433          49.000       -2431.906
 -20528600.440 8  21805190.787          49.000        2423.044
  -2121643.959 6  25026086.574          40.000         986.852
  -2011571.969 6  24742981.571          40.000       -3404.085
   8068229.717 6  38649983.082          40.000        -125.888
 -19608600.457 8  21240033.430          49.000       -1908.306
 -16958332.068 7  22003483.440          47.000        1332.823
  -1810811.031 6  25263639.390          41.000       -1279.749
  -3385288.437 6  24428597.733          40.000        1301.350
   4826847.751 6  26169442.867          36.000       -3363.942
   -299554.187 6  24787817.096          36.000        3330.909
 -21560520.062 8  20525214.542          51.000       -1245.562
  -2455565.154 6  25059296.014          40.000        -428.121
  -5383217.316 7  23508991.238          45.000        3568.801
 16  6 23  1 26 30.0000000  0 14G23G07G29G03S20G06G02G04G16G19G05G09
                                G26G30
 -15190313.481 8  22205721.465          49.000       -2439.193
 -20601088.993 8  21791396.582          49.000        2410.033
  -2150980.153 6  25020504.163          39.000         969.351
  -1909413.617 6  24762422.318          40.000       -3406.582
   8071995.999 6  38650699.605          40.000        -125.494
 -19551080.630 8  21250979.323          49.000       -1926.127
 -16998048.812 7  21995926.065          47.000        1315.621
  -1772109.490 6  25271002.876          40.000       -1298.655
  -3424081.546 6  24421214.790          40.000        1285.268
   4927777.157 6  26188648.943          37.000       -3363.048
   -399467.619 6  24768805.014          36.000        3328.475
 -21522961.385 8  20532362.081          50.000       -1257.652
  -2442456.419 6  25061791.587          40.000        -447.470
  -5490186.386 7  23488634.617          45.000        3563.005
 16  6 23  1 27  0.0000000  0 14G23G07G29G03S20G06G02G04G16G19G05G09
                                G26G30
 -15117022.139 8  22219668.935          49.000       -2446.665
 -20673173.203 8  21777678.809          48.000        2396.396
  -2179776.999 6  25015023.503          39.000         950.769
  -1807152.186 6  24781880.829          39.000       -3409.397
   8075760.023 6  38651414.838          40.000        -125.285
 -19493032.899 8  21262025.224          49.000       -1943.499
 -17037254.758 7  21988465.835          47.000        1298.471
  -1732846.504 6  25278475.844          41.000       -1318.195
  -3462351.881 6  24413930.737          39.000        1267.408
   5028606.270 5  26207835.213          33.000       -3359.458
   -499344.741 6  24749797.382          36.000        3329.315
 -21485029.253 8  20539579.788          50.000       -1270.735
  -2428793.691 6  25064391.059          39.000        -463.906
  -5596991.591 7  23468309.563          45.000        3557.747
 16  6 23  1 27 30.0000000  0 14G23G07G29G03S20G06G02G04G16G19G05G09
                                G26G30
 -15043521.370 8  22233656.471          49.000       -2453.742
 -20744860.395 8  21764036.927          48.000        2382.667
  -2208042.941 6  25009645.573          39.000         933.414
  -1704797.736 6  24801360.402          40.000       -3413.636
   8079512.404 6  38652128.447          40.000        -125.447
 -19434468.139 8  21273170.922          50.000       -1960.557
 -17075957.671 7  21981100.779          47.000        1281.613
  -1693032.487 6  25286050.303          40.000       -1336.651
  -3500106.314 6  24406747.687          40.000        1249.590
   5129324.10316  26227002.515          38.000       -3354.932
   -599193.551 6  24730797.986          37.000        3327.395
 -21446733.967 8  20546867.644          50.000       -1282.469
  -2414586.178 6  25067093.138          39.000        -483.770
  -5703639.348 7  23448016.757          46.000        3552.679
 16  6 23  1 28  0.0000000  0 14G23G07G29G03S20G06G02G04G16G19G05G09
                                G26G30
 -14969811.307 8  22247682.503          49.000       -2460.467
 -20816146.650 8  21750472.454          49.000        2369.485
  -2235774.914 6  25004369.395          39.000         915.350
  -1602349.562 6  24820856.361          40.000       -3416.975
   8083258.044 6  38652841.131          40.000        -125.308
 -19375386.522 8  21284414.569          50.000       -1978.234
 -17114154.187 7  21973831.070          46.000        1264.681
  -1652667.077 6  25293732.605          39.000       -1355.044
  -3537340.903 6  24399661.851          40.000        1231.899
   5229928.851 6  26246145.613          38.000       -3352.472
   -699011.146 6  24711803.895          38.000        3326.230
 -21408075.169 8  20554223.714          50.000       -1294.713
  -2399832.424 6  25069901.052          39.000        -500.669
  -5810125.411 7  23427752.221          46.000        3546.799
 16  6 23  1 28 30.0000000  0 14G23G07G29G03S20G06G02G04G16G19G05G09
                                G26G30
 -14895892.123 8  22261747.832          49.000       -2467.565
 -20887029.096 8  21736983.436          48.000        2355.777
  -2262970.973 6  24999192.543          39.000         896.891
  -1499807.722 6  24840370.224          41.000       -3419.885
   8086996.655 6  38653555.316          40.000        -124.473
 -19315788.848 8  21295753.179          49.000       -1995.324
 -17151841.757 7  21966661.387          47.000        1247.410
  -1611750.777 6  25301519.206          41.000       -1372.947
  -3574052.672 6  24392676.355          40.000        1215.130
   5330418.406 6  26265269.568          38.000       -3347.782
   -798795.224 6  24692815.877          39.000        3326.008
 -21369053.145 8  20561649.253          50.000       -1306.998
  -2384531.682 6  25072813.302          40.000        -519.370
  -5916446.277 7  23407518.030          45.000        3540.745
 16  6 23  1 29  0.0000000  0 13G23G07G29G03S20G06G02G04G16G05G09G26
                                G30
 -14821748.120 8  22275856.821          48.000       -2475.419
 -20957488.677 8  21723575.962          48.000        2341.687
  -2289613.608 6  24994124.127          39.000         878.556
  -1397156.253 6  24859905.097          40.000       -3422.951
   8090743.607 6  38654267.407          40.000        -124.644
 -19255660.081 8  21307196.299          49.000       -2013.171
 -17189002.126 7  21959589.930          47.000        1229.830
  -1570267.957 6  25309412.515          40.000       -1392.806
  -3610222.865 6  24385794.565          41.000        1196.474
   -898527.511 6  24673835.572          39.000        3324.055
 -21329652.264 8  20569147.245          50.000       -1319.437
  -2368667.277 6  25075833.987          40.000        -538.171
  -6022582.460 7  23387322.946          46.000        3534.785
 16  6 23  1 29 30.0000000  0 14G23G07G29G03S20G06G02G04G16G19G05G09
                                G26G30
 -14747389.408 8  22290006.330          48.000       -2482.079
 -21027532.476 8  21710246.718          48.000        2327.937
  -2315710.565 6  24989157.028          38.000         860.537
  -1294405.088 6  24879456.059          40.000       -3426.559
   8094489.293 6  38654980.737          40.000        -124.380
 -19195010.957 8  21318738.100          49.000       -2030.286
 -17225642.524 7  21952616.631          47.000        1212.832
  -1528229.311 6  25317411.468          39.000       -1410.677
  -3645858.347 6  24379012.991          40.000        1178.840
   5531021.64816  26303455.758          41.000       -3340.022
   -998215.877 6  24654865.510          39.000        3321.808
 -21289882.707 8  20576714.793          50.000       -1331.968
  -2352248.322 6  25078957.715          41.000        -556.481
  -6128540.205 7  23367161.435          47.000        3529.023
 16  6 23  1 30  0.0000000  0 14G23G07G29G03S20G06G02G04G16G19G05G09
                                G26G30
 -14672826.685 8  22304195.643          49.000       -2488.529
 -21097167.193 8  21696995.406          48.000        2314.697
  -2341270.511 6  24984292.256          37.000         843.179
  -1191564.391 6  24899025.711          39.000       -3429.083
   8098227.045 6  38655692.217          41.000        -124.479
 -19133852.563 8  21330376.470          49.000       -2046.958
 -17261770.905 7  21945740.844          46.000        1195.882
  -1485644.908 7  25325515.943          42.000       -1428.065
  -3680965.892 6  24372333.118          41.000        1162.247
   5631187.10415  26322517.835          35.000       -3336.567
  -1097868.340 6  24635903.475          39.000        3320.225
 -21249754.961 8  20584350.328          50.000       -1343.431
  -2335284.388 7  25082186.355          42.000        -574.475
  -6234326.160 7  23347029.520          46.000        3523.332
 16  6 23  1 30 30.0000000  0 13G23G07G29G03S20G06G02G04G16G05G09G26
                                G30
 -14598063.332 8  22318423.103          49.000       -2495.763
 -21166393.557 8  21683823.389          48.000        2300.200
  -2366294.365 6  24979529.969          37.000         824.440
  -1088637.312 6  24918609.671          38.000       -3432.191
   8101955.077 6  38656403.366          41.000        -124.284
 -19072188.969 8  21342109.805          49.000       -2063.871
 -17297387.688 7  21938963.755          46.000        1178.488
  -1442518.738 6  25333722.885          41.000       -1446.891
  -3715546.361 6  24365752.588          40.000        1143.735
  -1197485.328 6  24616946.710          39.000        3320.058
 -21209272.408 8  20592054.460          50.000       -1355.750
  -2317777.816 6  25085517.130          41.000        -593.010
  -6339939.924 7  23326930.377          45.000        3517.264
 16  6 23  1 31  0.0000000  0 13G23G07G29G03S20G06G02G04G16G05G09G26
                                G30
 -14523093.468 8  22332690.209          49.000       -2502.155
 -21235202.305 8  21670728.239          48.000        2286.941
  -2390774.735 6  24974872.576          38.000         807.506
   -985617.828 6  24938212.932          38.000       -3434.985
   8105678.329 6  38657111.199          41.000        -123.728
 -19010015.070 8  21353940.389          49.000       -2080.720
 -17332484.715 7  21932285.906          47.000        1161.519
  -1398845.289 6  25342033.411          41.000       -1464.801
  -3749590.767 6  24359273.165          40.000        1126.039
  -1297058.708 6  24597997.449          39.000        3318.780
 -21168429.377 8  20599826.560          49.000       -1367.406
  -2299722.002 7  25088953.095          42.000        -610.787
  -6445371.916 7  23306867.739          46.000        3510.997
 16  6 23  1 31 30.0000000  0 13G23G07G29G03S20G06G02G04G16G05G09G26
                                G30
 -14447908.083 8  22346997.747          49.000       -2509.643
 -21303580.652 8  21657716.240          48.000        2272.047
  -2414700.120 6  24970321.193          38.000         788.287
   -882496.335 6  24957837.150          38.000       -3438.791
   8109406.144 6  38657819.922          41.000        -124.335
 -18947322.157 8  21365872.464          49.000       -2098.478
 -17367049.980 7  21925706.511          46.000        1143.111
  -1354614.952 6  25350450.437          41.000       -1483.439
  -3783086.250 6  24352898.287          39.000        1107.525
  -1396576.564 6  24579061.764          38.000        3316.084
 -21127216.553 8  20607668.827          49.000       -1380.059
  -2281106.634 7  25092496.345          42.000        -630.062
  -6550608.866 7  23286845.220          47.000        3504.503
 16  6 23  1 32  0.0000000  0 13G23G07G29G03S20G06G02G04G16G05G09G26
                                G30
 -14372518.660 8  22361343.763          49.000       -2516.347
 -21371537.325 8  21644785.350          48.000        2258.651
  -2438080.091 6  24965870.113          37.000         770.563
   -779284.209 6  24977477.894          38.000       -3441.269
   8113125.901 6  38658527.703          41.000        -122.660
 -18884122.570 8  21377899.940          49.000       -2114.828
 -17401092.191 7  21919229.496          46.000        1126.272
  -1309839.943 7  25358970.610          42.000       -1501.089
  -3816041.362 6  24346627.342          40.000        1089.564
  -1496048.016 6  24560133.181          38.000        3314.897
 -21085645.563 8  20615580.075          49.000       -1391.612
  -2261942.492 7  25096142.219          42.000        -647.294
  -6655658.584 7  23266854.844          47.000        3498.753
 16  6 23  1 32 30.0000000  0 13G23G07G29G03S20G06G02G04G16G05G09G26
                                G30
 -14296938.859 8  22375725.011          49.000       -2522.308
 -21439082.730 8  21631931.676          48.000        2244.947
  -2460926.226 6  24961523.351          38.000         752.391
   -675994.682 6  24997136.140          38.000       -3444.706
   8116826.477 6  38659231.453          41.000        -123.824
 -18820430.447 8  21390018.732          49.000       -2131.296
 -17434622.344 7  21912847.515          46.000        1109.113
  -1264533.875 6  25367591.733          41.000       -1519.424
  -3848466.197 6  24340456.386          40.000        1071.864
  -1595484.029 6  24541211.910          38.000        3314.126
 -21043729.887 8  20623555.785          49.000       -1402.767
  -2242242.148 7  25099890.874          42.000        -665.062
  -6760530.752 7  23246895.983          46.000        3492.690
 16  6 23  1 33  0.0000000  0 13G23G07G29G03S20G06G02G04G16G05G09G26
                                G30
 -14221164.399 8  22390144.021          49.000       -2529.085
 -21506208.783 8  21619157.977          48.000        2230.482
  -2483231.865 6  24957278.254          38.000         734.298
   -572623.220 6  25016808.084          38.000       -3447.529
   8120514.702 6  38659932.341          41.000        -122.624
 -18756242.305 8  21402231.633          48.000       -2148.051
 -17467633.681 7  21906568.438          47.000        1092.032
  -1218693.252 6  25376314.992          41.000       -1536.777
  -3880353.933 6  24334390.376          41.000        1054.405
  -1694877.629 6  24522298.474          39.000        3313.212
 -21001465.314 8  20631598.189          49.000       -1414.748
  -2222000.497 7  25103741.719          42.000        -683.830
  -6865217.247 7  23226973.907          46.000        3486.532
 16  6 23  1 33 30.0000000  0 13G23G07G29G03S20G06G02G04G16G05G09G26
                                G30
 -14145184.914 8  22404602.835          49.000       -2535.747
 -21572902.804 8  21606465.719          48.000        2215.890
  -2504985.003 6  24953137.492          37.000         716.064
   -469159.473 6  25036495.874          38.000       -3450.895
   8124202.133 6  38660634.049          41.000        -122.976
 -18691548.778 8  21414543.722          48.000       -2164.811
 -17500113.206 7  21900385.739          47.000        1074.020
  -1172307.933 6  25385142.394          41.000       -1555.263
  -3911691.188 6  24328426.747          41.000        1035.378
  -1794215.965 6  24503395.386          40.000        3310.792
 -20958841.829 8  20639709.067          49.000       -1426.407
  -2201206.652 7  25107700.039          42.000        -701.538
  -6969704.119 7  23207091.548          46.000        3479.866
 16  6 23  1 34  0.0000000  0 13G23G07G29G03S20G06G02G04G16G05G09G26
                                G30
 -14069003.576 8  22419099.935          49.000       -2542.765
 -21639164.279 8  21593855.476          48.000        2201.649
  -2526186.817 6  24949102.932          38.000         697.929
   -365606.038 6  25056202.230          38.000       -3452.742
   8127885.106 6  38661334.222          41.000        -121.885
 -18626353.437 8  21426950.774          48.000       -2181.457
 -17532061.376 7  21894306.589          47.000        1055.998
  -1125381.036 6  25394071.758          41.000       -1572.975
  -3942477.140 6  24322566.824          41.000        1018.476
  -1893499.379 6  24484501.931          41.000        3308.346
 -20915862.272 8  20647888.525          49.000       -1438.529
  -2179862.635 7  25111761.280          42.000        -720.991
  -7073990.375 7  23187246.881          46.000        3472.978
 16  6 23  1 34 30.0000000  0 13G23G07G29G03S20G06G02G04G16G05G09G26
                                G30
 -13992631.708 8  22433633.750          49.000       -2548.842
 -21705001.675 8  21581328.348          48.000        2187.595
  -2546846.613 6  24945173.213          39.000         679.836
   -261974.210 6  25075921.500          37.000       -3455.656
   8131553.727 6  38662031.882          40.000        -122.021
 -18560668.630 8  21439450.609          49.000       -2197.570
 -17563486.973 7  21888326.399          47.000        1039.048
  -1077924.807 6  25403102.123          41.000       -1589.475
  -3972721.037 7  24316813.086          42.000         998.527
  -1992736.951 6  24465617.672          41.000        3307.168
 -20872538.243 8  20656133.422          49.000       -1449.618
  -2157979.240 6  25115925.548          41.000        -737.948
  -7178083.782 7  23167436.992          46.000        3467.001
 16  6 23  1 35  0.0000000  0 13G23G07G29G03S20G06G02G04G16G05G09G26
                                G30
 -13916066.881 8  22448204.071          49.000       -2555.738
 -21770409.105 8  21568882.591          49.000        2172.562
  -2566960.463 6  24941345.246          39.000         660.678
   -158261.297 6  25095656.195          37.000       -3460.513
   8135212.799 6  38662727.430          40.000        -122.139
 -18494492.690 8  21452042.390          48.000       -2214.174
 -17594385.196 7  21882447.316          47.000        1021.091
  -1029937.141 6  25412234.294          41.000       -1608.583
  -4002417.238 7  24311162.077          42.000         980.145
  -2091923.523 6  24446742.644          41.000        3305.154
 -20828867.343 8  20664444.193          49.000       -1461.855
  -2135553.260 6  25120193.365          41.000        -757.329
  -7281978.037 7  23147666.436          45.000        3459.246
 16  6 23  1 35 30.0000000  0 13G23G07G29G03S20G06G02G04G16G05G09G26
                                G30
 -13839300.386 8  22462811.823          49.000       -2562.193
 -21835374.578 8  21556519.478          49.000        2158.105
  -2586517.205 6  24937623.969          40.000         642.466
    -54457.92416  25115409.336          36.000       -3461.621
   8138873.769 6  38663422.838          40.000        -122.329
 -18427817.336 8  21464730.496          48.000       -2230.973
 -17624744.460 7  21876668.781          47.000        1003.063
   -981409.033 6  25421469.594          41.000       -1625.904
  -4031553.508 6  24305616.887          41.000         961.453
  -2191047.273 7  24427878.854          42.000        3303.383
 -20784840.489 8  20672821.344          49.000       -1473.184
  -2112574.868 6  25124565.535          41.000        -775.808
  -7385660.218 7  23127936.243          46.000        3452.286
 16  6 23  1 36  0.0000000  0 13G23G07G29G03S20G06G02G04G16G05G09G26
                                G30
 -13762337.409 8  22477456.377          49.000       -2568.702
 -21899900.382 8  21544240.772          49.000        2143.730
  -2605520.395 6  24934007.709          40.000         624.639
     49430.885 6  25135177.169          36.000       -3464.904
   8142535.525 6  38664118.858          40.000        -121.759
 -18360648.694 8  21477511.297          48.000       -2246.985
 -17654567.454 7  21870993.883          47.000         985.484
   -932346.313 6  25430805.513          40.000       -1645.126
  -4060132.413 6  24300178.125          41.000         942.852
  -2290110.864 7  24409027.383          42.000        3301.485
 -20740463.046 8  20681265.941          49.000       -1484.945
  -2089048.677 6  25129042.859          41.000        -792.974
  -7489131.740 7  23108248.838          46.000        3445.553
 16  6 23  1 36 30.0000000  0 13G23G07G29G03S20G06G02G04G16G05G09G26
                                G30
 -13685192.954 8  22492135.378          48.000       -2574.510
 -21963998.802 8  21532043.349          49.000        2129.515
  -2623983.357 6  24930494.160          41.000         606.319
    153389.968 6  25154961.092          36.000       -3466.788
   8146182.436 6  38664813.359          40.000        -121.189
 -18293002.822 8  21490383.747          48.000       -2262.366
 -17683866.803 8  21865419.481          48.000         968.168
   -882764.736 7  25440241.335          42.000       -1660.865
  -4088165.949 6  24294843.140          40.000         925.678
  -2389127.372 6  24390184.533          41.000        3299.350
 -20695750.296 8  20689774.370          49.000       -1495.789
  -2064989.212 6  25133621.238          41.000        -810.165
  -7592404.048 7  23088595.286          46.000        3438.989
 16  6 23  1 37  0.0000000  0 13G23G07G29G03S20G06G02G04G16G05G09G26
                                G30
 -13607860.163 8  22506851.618          48.000       -2581.264
 -22027659.231 8  21519929.356          49.000        2114.334
  -2641897.392 6  24927085.417          40.000         587.873
    257426.748 6  25174761.854          37.000       -3468.732
   8149821.340 6  38665507.127          40.000        -122.052
 -18224873.578 8  21503349.171          48.000       -2279.475
 -17712633.236 8  21859946.011          48.000         949.654
   -832657.616 6  25449776.081          40.000       -1679.541
  -4115644.049 6  24289614.671          41.000         906.099
  -2488086.665 6  24371352.136          40.000        3296.819
 -20650695.260 8  20698347.907          49.000       -1507.930
  -2040388.831 6  25138303.096          41.000        -828.870
  -7695466.344 7  23068983.649          46.000        3431.857
 16  6 23  1 37 30.0000000  0 13G23G07G29G03S20G06G02G04G16G05G09G26
                                G30
 -13530344.476 7  22521601.642          47.000       -2587.248
 -22090884.357 8  21507897.832          50.000        2100.079
  -2659266.106 6  24923780.276          40.000         570.132
    361535.743 6  25194572.545          37.000       -3472.618
   8153448.051 6  38666196.725          40.000        -120.854
 -18156267.380 8  21516404.848          48.000       -2294.674
 -17740870.152 8  21854572.164          48.000         931.959
   -782031.081 7  25459410.224          42.000       -1696.287
  -4142569.764 6  24284490.362          40.000         888.217
  -2586991.825 6  24352531.012          40.000        3295.927
 -20605303.562 8  20706985.415          49.000       -1518.830
  -2015252.451 6  25143084.945          40.000        -846.688
  -7798320.344 7  23049410.403          46.000        3424.889
 16  6 23  1 38  0.0000000  0 13G23G07G29G03S20G06G02G04G16G05G09G26
                                G30
 -13452634.487 8  22536389.672          48.000       -2593.279
 -22153659.584 8  21495952.809          49.000        2085.093
  -2676076.464 6  24920582.296          41.000         551.091
    465728.797 6  25214399.552          37.000       -3473.532
   8157076.477 6  38666889.062          40.000        -120.705
 -18087173.656 7  21529551.929          47.000       -2311.284
 -17768562.887 8  21849302.966          48.000         913.932
   -730874.548 7  25469145.282          42.000       -1714.220
  -4168928.568 6  24279475.152          41.000         868.273
  -2685828.627 6  24333723.342          39.000        3294.133
 -20559563.739 8  20715689.950          49.000       -1529.689
  -1989567.952 6  25147973.414          40.000        -865.236
  -7900950.720 7  23029881.917          47.000        3416.655
 16  6 23  1 38 30.0000000  0 13G23G07G29G03S20G06G02G04G16G05G09G26
                                G30
 -13374730.097 8  22551215.551          48.000       -2599.985
 -22215982.093 8  21484092.699          50.000        2069.911
  -2692326.454 6  24917489.158          41.000         531.598
    570006.112 6  25234243.765          37.000       -3477.416
   8160708.550 6  38667579.690          40.000        -121.170
 -18017593.306 8  21542793.224          48.000       -2327.573
 -17795709.490 8  21844135.817          48.000         895.622
   -679188.187 7  25478980.905          42.000       -1731.921
  -4194717.752 6  24274566.598          40.000         849.136
  -2784594.412 6  24314929.335          39.000        3291.242
 -20513475.897 8  20724459.924          49.000       -1542.094
  -1963334.821 6  25152964.542          40.000        -883.981
  -8003353.680 7  23010395.276          46.000        3408.799
 16  6 23  1 39  0.0000000  0 13G23G07G29G03S20G06G02G04G16G05G09G26
                                G30
 -13296640.992 8  22566075.755          48.000       -2605.983
 -22277858.563 8  21472317.588          49.000        2055.128
  -2708023.960 6  24914503.426          41.000         514.363
    674358.271 6  25254098.100          36.000       -3478.308
   8164333.708 6  38668268.101          40.000        -120.262
 -17947536.808 8  21556124.248          48.000       -2343.060
 -17822316.851 8  21839073.090          48.000         877.836
   -626982.193 7  25488915.419          42.000       -1748.904
  -4219943.582 6  24269766.863          40.000         831.603
  -2883296.259 6  24296146.130          39.000        3288.734
 -20467049.644 8  20733294.672          49.000       -1553.200
  -1936561.996 6  25158060.320          41.000        -901.813
  -8105535.009 7  22990949.573          46.000        3402.416
 16  6 23  1 39 30.0000000  0 13G23G07G29G03S20G06G02G04G16G05G09G26
                                G30
 -13218366.503 7  22580969.882          47.000       -2612.728
 -22339285.152 8  21460629.276          50.000        2039.317
  -2723166.974 6  24911621.173          41.000         495.388
    778786.102 6  25273971.018          36.000       -3482.419
   8167954.022 6  38668956.826          40.000        -120.899
 -17877004.471 8  21569545.612          48.000       -2359.647
 -17848382.398 8  21834112.935          48.000         859.177
   -574256.603 7  25498948.282          42.000       -1766.531
  -4244603.225 6  24265073.679          40.000         812.537
  -2981930.881 6  24277377.060          40.000        3285.476
 -20420284.522 8  20742194.004          49.000       -1565.014
  -1909248.458 6  25163255.791          40.000        -919.674
  -8207490.349 7  22971546.990          45.000        3393.554
 16  6 23  1 40  0.0000000  0 13G23G07G29G03S20G06G02G04G16G05G09G26
                                G30
 -13139895.924 7  22595901.301          47.000       -2618.544
 -22400248.450 8  21449028.702          50.000        2024.468
  -2737743.065 6  24908846.309          40.000         476.336
    883300.532 6  25293858.735          36.000       -3484.197
   8171577.727 6  38669647.296          40.000        -120.422
 -17805986.774 8  21583059.113          48.000       -2374.967
 -17873892.719 8  21829259.000          48.000         841.231
   -521001.112 7  25509082.705          42.000       -1783.351
  -4268683.057 6  24260492.770          41.000         792.927
  -3080484.687 6  24258624.236          40.000        3283.891
 -20373169.792 8  20751160.275          50.000       -1575.944
  -1881382.893 6  25168559.017          39.000        -937.627
  -8309205.166 7  22952191.104          45.000        3386.181
 16  6 23  1 40 30.0000000  0 13G23G07G29G03S20G06G02G04G16G05G09G26
                                G30
 -13061243.456 7  22610869.208          47.000       -2625.091
 -22460759.087 8  21437513.059          50.000        2009.333
  -2751764.895 6  24906176.792          39.000         457.959
    987887.741 5  25313758.754          34.000       -3487.251
   8175192.911 6  38670335.446          40.000        -119.302
 -17734498.653 7  21596661.541          47.000       -2390.573
 -17898859.627 8  21824506.556          48.000         823.115
   -467230.623 6  25519314.571          41.000       -1801.245
  -4292194.277 6  24256018.674          41.000         774.375
  -3178969.020 6  24239881.498          40.000        3281.160
 -20325719.702 8  20760189.437          50.000       -1587.171
  -1852978.983 6  25173965.059          41.000        -955.519
  -8410689.758 7  22932880.274          45.000        3378.891
 16  6 23  1 41  0.0000000  0 13G23G07G29G03S20G06G02G04G16G05G09G26
                                G30
 -12982415.405 7  22625868.647          47.000       -2630.709
 -22520820.481 8  21426083.446          50.000        1994.214
  -2765237.060 6  24903614.088          40.000         439.856
   1092541.510 6  25333677.165          36.000       -3490.099
   8178796.900 6  38671020.052          40.000        -120.191
 -17662547.406 7  21610353.889          47.000       -2406.330
 -17923287.415 8  21819857.730          48.000         805.379
   -412952.080 7  25529643.285          42.000       -1817.092
  -4315140.611 6  24251652.141          41.000         755.036
  -3277387.578 6  24221154.221          41.000        3279.667
 -20277940.586 8  20769280.703          49.000       -1598.395
  -1824042.575 6  25179470.725          41.000        -973.995
  -8511946.673 7  22913612.163          46.000        3371.202
 16  6 23  1 41 30.0000000  0 13G23G07G29G03S20G06G02G04G16G05G09G26
                                G30
 -12903415.729 7  22640902.551          47.000       -2636.348
 -22580434.120 8  21414738.710          49.000        1979.541
  -2778161.957 6  24901155.300          39.000         420.979
   1197257.951 6  25353603.778          36.000       -3492.300
   8182386.969 6  38671703.926          40.000        -119.490
 -17590138.194 7  21624133.296          47.000       -2421.475
 -17947177.817 8  21815312.210          48.000         786.981
   -358170.243 6  25540068.324          40.000       -1834.584
  -4337523.461 7  24247393.572          42.000         735.743
  -3375742.077 7  24202438.426          42.000        3277.277
 -20229836.681 8  20778434.651          49.000       -1608.950
  -1794577.310 7  25185078.457          42.000        -991.711
  -8612976.218 7  22894385.722          46.000        3363.404
 16  6 23  1 42  0.0000000  0 13G23G07G29G03S20G06G02G04G16G05G09G26
                                G30
 -12824228.445 7  22655972.838          47.000       -2642.546
 -22639581.185 8  21403484.489          50.000        1964.002
  -2790522.468 6  24898802.959          40.000         403.106
   1302053.221 6  25373545.468          36.000       -3494.384
   8185982.701 6  38672389.860          40.000        -118.754
 -17517256.190 8  21638002.031          48.000       -2437.223
 -17970512.784 8  21810872.055          48.000         768.904
   -302869.940 6  25550591.242          41.000       -1851.412
  -4359324.379 7  24243244.207          42.000         717.414
  -3474014.036 7  24183737.953          43.000        3274.677
 -20181392.186 8  20787653.340          49.000       -1620.128
  -1764566.960 6  25190789.530          41.000       -1008.802
  -8713758.801 7  22875208.840          46.000        3355.534
 16  6 23  1 42 30.0000000  0 13G23G07G29G03S20G06G02G04G16G05G09G26
                                G30
 -12744859.573 7  22671076.787          47.000       -2648.131
 -22698264.554 8  21392317.728          50.000        1948.639
  -2802322.426 6  24896558.564          41.000         384.729
   1406921.335 5  25393500.368          35.000       -3495.471
   8189579.126 6  38673073.891          40.000        -119.091
 -17443908.376 8  21651960.932          48.000       -2452.721
 -17993295.886 7  21806536.199          47.000         750.297
   -247057.613 7  25561212.072          42.000       -1868.579
  -4380546.404 7  24239205.162          42.000         698.458
  -3572206.478 7  24165051.143          43.000        3271.646
 -20132613.127 8  20796935.233          49.000       -1631.426
  -1734017.057 7  25196602.878          42.000       -1027.172
  -8814296.584 7  22856077.242          46.000        3347.208
 16  6 23  1 43  0.0000000  0 13G23G07G29G03S20G06G02G04G16G05G09G26
                                G30
 -12665316.301 7  22686212.704          46.000       -2653.920
 -22756488.938 8  21381238.027          50.000        1933.422
  -2813568.053 6  24894417.684          41.000         366.095
   1511855.389 5  25413467.588          35.000       -3498.675
   8193167.891 6  38673758.480          41.000        -119.593
 -17370103.089 7  21666004.919          47.000       -2467.783
 -18015532.230 8  21802304.801          48.000         732.122
   -190741.486 6  25571928.024          40.000       -1886.479
  -4401194.273 7  24235274.989          42.000         679.824
  -3670323.813 7  24146380.334          43.000        3269.717
 -20083506.887 8  20806279.981          49.000       -1642.411
  -1702934.480 6  25202517.804          41.000       -1044.827
  -8914593.052 7  22836992.515          46.000        3339.398
 16  6 23  1 43 30.0000000  0 13G23G07G29G03S20G06G02G04G16G05G09G26
                                G30
 -12585601.346 7  22701381.742          46.000       -2659.437
 -22814253.471 8  21370245.576          49.000        1918.188
  -2824260.275 6  24892382.430          41.000         348.071
   1616853.167 6  25433447.947          36.000       -3501.623
   8196747.136 6  38674440.103          40.000        -119.460
 -17295843.837 8  21680138.775          49.000       -2482.306
 -18037222.043 8  21798177.999          48.000         714.541
   -133924.767 6  25582740.074          40.000       -1902.395
  -4421268.068 7  24231456.288          42.000         659.680
  -3768366.175 7  24127724.394          43.000        3267.719
 -20034075.959 8  20815686.539          50.000       -1652.660
  -1671321.383 6  25208534.429          41.000       -1061.927
  -9014646.906 7  22817950.994          44.000        3331.709
 16  6 23  1 44  0.0000000  0 13G23G07G29G03S20G06G02G04G16G05G09G26
                                G30
 -12505707.414 7  22716583.831          45.000       -2665.975
 -22871548.467 8  21359342.698          49.000        1902.381
  -2834390.796 6  24890455.664          40.000         328.935
   1721921.807 5  25453442.459          35.000       -3503.132
   8200327.690 6  38675121.046          41.000        -119.498
 -17221124.608 8  21694356.585          49.000       -2497.958
 -18058355.927 8  21794158.009          48.000         695.694
    -76601.082 6  25593649.759          40.000       -1919.512
  -4440758.097 7  24227748.379          42.000         640.190
  -3866323.464 7  24109084.019          44.000        3264.462
 -19984313.386 8  20825156.475          50.000       -1663.849
  -1639170.318 6  25214651.987          41.000       -1079.751
  -9114447.319 7  22798958.910          45.000        3322.566
 16  6 23  1 44 30.0000000  0 13G23G07G29G03S20G06G02G04G16G05G09G26
                                G30
 -12425640.658 7  22731818.464          44.000       -2671.569
 -22928377.407 8  21348528.850          49.000        1886.429
  -2843964.003 6  24888632.675          40.000         309.842
   1827055.379 6  25473450.286          36.000       -3505.408
   8203904.980 6  38675801.552          41.000        -119.940
 -17145952.822 8  21708661.139          49.000       -2513.495
 -18078937.996 8  21790240.017          48.000         676.834
    -18777.278 6  25604652.069          40.000       -1935.831
  -4459667.995 7  24224148.696          42.000         621.005
  -3964199.106 7  24090458.390          43.000        3261.018
 -19934225.447 8  20834688.796          50.000       -1675.035
  -1606487.269 6  25220871.489          41.000       -1098.158
  -9213996.736 7  22780014.605          45.000        3314.141
 16  6 23  1 45  0.0000000  0 13G23G07G29G03S20G06G02G04G16G05G09G26
                                G30
 -12345399.749 7  22747089.586          44.000       -2677.716
 -22984735.914 8  21337803.248          49.000        1870.943
  -2852977.626 6  24886917.685          40.000         291.218
   1932255.419 6  25493469.210          39.000       -3507.667
   8207478.879 6  38676483.140          41.000        -119.936
 -17070328.180 8  21723051.007          48.000       -2528.021
 -18098965.007 8  21786428.121          48.000         658.563
     39547.280 7  25615751.663          42.000       -1952.322
  -4477993.796 7  24220661.985          43.000         601.179
  -4061988.967 7  24071849.914          43.000        3258.877
 -19883810.871 8  20844281.704          50.000       -1685.577
  -1573270.559 6  25227191.225          40.000       -1115.439
  -9313290.069 7  22761120.189          45.000        3306.091
 16  6 23  1 45 30.0000000  0 13G23G07G29G03S20G06G02G04G16G05G09G26
                                G30
 -12264998.294 7  22762389.466          44.000       -2682.684
 -23040634.944 8  21327165.595          48.000        1855.834
  -2861444.101 6  24885306.629          41.000         272.896
   2037508.055 6  25513499.181          40.000       -3509.054
   8211037.033 6  38677158.830          41.000        -119.011
 -16994265.782 8  21737525.841          48.000       -2542.597
 -18118448.684 8  21782720.945          48.000         640.639
     98357.353 6  25626943.238          37.000       -1967.908
  -4495747.030 7  24217283.763          43.000         582.414
  -4159704.863 7  24053254.316          42.000        3256.695
 -19833083.723 8  20853934.240          50.000       -1695.810
  -1539533.923 6  25233611.526          39.000       -1133.646
  -9412337.493 7  22742272.174          46.000        3297.436
 16  6 23  1 46  0.0000000  0 13G23G07G29G03S20G06G02G04G16G05G09G26
                                G30
 -12184435.473 7  22777720.878          45.000       -2687.753
 -23096071.358 8  21316617.358          48.000        1840.186
  -2869360.901 7  24883801.094          42.000         254.346
   2142814.522 6  25533536.132          38.000       -3510.602
   8214578.298 6  38677831.605          41.000        -117.552
 -16917765.921 8  21752083.720          48.000       -2556.936
 -18137386.012 8  21779117.510          48.000         622.360
    157653.520 6  25638226.514          40.000       -1984.486
  -4512924.459 7  24214014.796          43.000         563.807
  -4257342.596 7  24034677.093          43.000        3253.885
 -19782043.250 8  20863647.118          50.000       -1706.280
  -1505276.256 6  25240130.492          39.000       -1149.911
  -9511134.443 7  22723470.647          46.000        3289.414
 16  6 23  1 46 30.0000000  0 13G23G07G29G03S20G06G02G04G16G05G09G26
                                G30
 -12103695.775 7  22793086.144          44.000       -2694.585
 -23151026.139 8  21306159.826          48.000        1823.993
  -2876710.953 7  24882404.012          43.000         235.675
   2248190.882 5  25553588.648          35.000       -3514.537
   8218120.195 6  38678505.672          40.000        -117.710
 -16840813.784 8  21766726.459          48.000       -2572.435
 -18155758.844 8  21775622.598          48.000         603.192
    217450.428 6  25649605.801          41.000       -2001.360
  -4529507.445 7  24210859.238          43.000         543.377
  -4354883.917 7  24016114.285          42.000        3249.932
 -19730673.535 8  20873422.242          50.000       -1717.539
  -1470481.451 6  25246751.994          39.000       -1168.845
  -9609661.236 7  22704723.284          46.000        3280.065
 16  6 23  1 47  0.0000000  0 13G23G07G29G03S20G06G02G04G16G05G09G26
                                G30
 -12022783.171 7  22808481.075          44.000       -2700.184
 -23205500.754 8  21295793.786          48.000        1807.408
  -2883497.245 7  24881111.928          43.000         216.118
   2353633.162 6  25573653.537          37.000       -3516.148
   8221661.419 6  38679180.525          40.000        -117.767
 -16763414.778 8  21781455.455          48.000       -2587.492
 -18173569.597 8  21772232.317          48.000         584.178
    277743.123 6  25661077.609          38.000       -2018.269
  -4545498.047 7  24207816.252          42.000         523.214
  -4452329.894 7  23997570.148          42.000        3246.098
 -19678978.956 8  20883259.540          50.000       -1728.637
  -1435153.494 6  25253475.389          38.000       -1186.690
  -9707918.357 7  22686025.428          45.000        3270.259
 16  6 23  1 47 30.0000000  0 13G23G07G29G03S20G06G02G04G16G05G09G26
                                G30
 -11941710.208 7  22823908.079          44.000       -2705.008
 -23259504.953 8  21285516.096          48.000        1792.431
  -2889730.892 7  24879925.645          43.000         198.325
   2459128.893 5  25593727.796          35.000       -3517.387
   8225191.387 6  38679852.358          41.000        -117.563
 -16685582.771 8  21796266.956          48.000       -2601.677
 -18190828.636 8  21768947.907          48.000         566.060
    338518.327 6  25672643.352          39.000       -2034.268
  -4560906.319 7  24204883.306          42.000         503.410
  -4549690.445 7  23979042.414          42.000        3243.891
 -19626972.149 8  20893155.820          50.000       -1738.896
  -1399304.750 6  25260296.173          38.000       -1203.281
  -9805914.698 7  22667377.969          46.000        3262.413
 16  6 23  1 48  0.0000000  0 13G23G07G29G03S20G06G02G04G16G05G09G26
                                G30
 -11860471.187 7  22839367.175          45.000       -2711.232
 -23313030.698 8  21275330.980          48.000        1776.161
  -2895405.394 7  24878845.057          43.000         180.117
   2564683.661 5  25613814.637          35.000       -3519.839
   8228720.643 6  38680526.111          41.000        -117.817
 -16607313.429 8  21811162.130          49.000       -2616.482
 -18207528.506 8  21765769.681          48.000         547.008
    399780.642 6  25684302.174          40.000       -2050.039
  -4575724.574 7  24202064.433          42.000         484.488
  -4646957.524 6  23960531.136          41.000        3240.032
 -19574647.768 8  20903113.124          50.000       -1749.548
  -1362929.733 6  25267217.871          38.000       -1221.722
  -9903641.046 7  22648781.603          46.000        3252.609
 16  6 23  1 48 30.0000000  0 13G23G07G29G03S20G06G02G04G16G05G09G26
                                G30
 -11779053.779 7  22854860.700          45.000       -2716.962
 -23366063.223 8  21265240.008          49.000        1759.372
  -2900507.528 7  24877873.464          42.000         160.650
   2670309.844 6  25633917.340          37.000       -3521.594
   8232260.543 6  38681199.393          41.000        -118.426
 -16528595.912 8  21826140.751          48.000       -2631.562
 -18223655.363 8  21762700.694          48.000         527.580
    461540.996 6  25696054.529          37.000       -2066.850
  -4589938.590 6  24199358.358          41.000         463.685
  -4744116.180 6  23942041.984          41.000        3236.867
 -19521993.854 8  20913132.428          49.000       -1760.520
  -1326016.195 6  25274241.270          37.000       -1239.626
 -10001081.655 7  22630237.850          46.000        3243.451
 16  6 23  1 49  0.0000000  0 13G23G07G29G03S20G06G02G04G16G05G09G26
                                G30
 -11697470.192 7  22870386.124          46.000       -2722.113
 -23418611.657 8  21255240.405          49.000        1743.786
  -2905047.841 6  24877009.382          41.000         141.911
   2775995.841 6  25654028.507          37.000       -3523.382
   8235798.780 6  38681872.395          41.000        -118.451
 -16449443.344 8  21841201.284          48.000       -2645.631
 -18239218.931 8  21759740.526          48.000         509.750
    523786.689 5  25707900.313          33.000       -2082.584
  -4603557.799 7  24196767.193          42.000         444.093
  -4841175.340 6  23923571.539          41.000        3233.350
 -19469022.386 8  20923213.419          49.000       -1771.007
  -1288575.923 6  25281366.857          37.000       -1256.833
 -10098244.667 7  22611748.018          46.000        3234.528
 16  6 23  1 49 30.0000000  0 13G23G07G29G03S20G06G02G04G16G05G09G26
                                G30
 -11615727.804 7  22885943.377          47.000       -2727.390
 -23470681.060 8  21245331.211          48.000        1727.632
  -2909032.744 6  24876250.280          41.000         123.496
   2881734.204 6  25674150.161          38.000       -3524.177
   8239328.407 6  38682544.263          41.000        -117.077
 -16369864.498 8  21856344.879          48.000       -2660.076
 -18254225.118 8  21756883.821          48.000         490.666
    586509.34715  25719833.068          30.000       -2099.718
  -4616587.289 6  24194287.831          41.000         424.832
  -4938140.099 6  23905118.859          41.000        3229.895
 -19415740.931 8  20933352.973          49.000       -1780.967
  -1250616.362 6  25288591.072          38.000       -1273.305
 -10195133.896 7  22593311.217          46.000        3224.860
 16  6 23  1 50  0.0000000  0 13G23G07G29G03S20G06G02G04G16G05G09G26
                                G30
 -11533827.705 7  22901529.248          47.000       -2732.662
 -23522269.903 8  21235513.475          48.000        1711.627
  -2912462.306 6  24875598.392          41.000         104.848
   2987523.808 6  25694281.151          38.000       -3527.095
   8242852.300 6  38683212.973          41.000        -117.603
 -16289861.737 8  21871569.392          48.000       -2673.884
 -18268672.955 7  21754133.265          47.000         471.973
    649706.78715  25731859.741          31.000       -2114.481
  -4629026.178 6  24191921.703          41.000         404.762
  -5035008.743 6  23886685.985          41.000        3226.586
 -19362150.772 8  20943550.095          49.000       -1791.389
  -1212138.684 6  25295912.451          39.000       -1291.543
 -10291746.756 7  22574925.546          46.000        3216.018
 16  6 23  1 50 30.0000000  0 13G23G07G29G03S20G06G02G04G16G05G09G26
                                G30
 -11451763.294 7  22917145.849          47.000       -2738.169
 -23573368.857 8  21225789.410          48.000        1695.396
  -2915329.048 7  24875053.160          42.000          85.483
   3093371.218 6  25714422.960          37.000       -3528.980
   8246377.731 6  38683883.289          40.000        -118.096
 -16209430.115 7  21886874.489          47.000       -2688.108
 -18282554.280 8  21751492.245          48.000         453.593
    713383.76414  25743974.398          29.000       -2130.168
  -4640865.845 6  24189668.496          41.000         385.209
  -5131771.925 6  23868273.789          41.000        3223.724
 -19308245.781 8  20953808.013          49.000       -1801.833
  -1173136.516 6  25303334.028          39.000       -1308.730
 -10388073.392 7  22556596.273          47.000        3205.823
 16  6 23  1 51  0.0000000  0 13G23G07G29G03S20G06G02G04G16G05G09G26
                                G30
 -11369534.896 7  22932792.814          47.000       -2743.332
 -23623975.438 8  21216160.276          49.000        1679.234
  -2917631.964 6  24874614.898          41.000          67.582
   3199277.044 6  25734575.937          38.000       -3531.358
   8249903.743 6  38684554.232          41.000        -116.791
 -16128570.931 8  21902262.771          48.000       -2701.998
 -18295867.084 8  21748959.328          48.000         434.693
    777539.74515  25756188.625          32.000       -2145.942
  -4652103.991 7  24187529.972          42.000         365.188
  -5228427.127 6  23849879.619          40.000        3220.563
 -19254026.001 8  20964125.891          49.000       -1812.143
  -1133609.824 6  25310857.131          40.000       -1325.219
 -10484110.085 7  22538320.660          46.000        3196.935
 16  6 23  1 51 30.0000000  0 13G23G07G29G03S20G06G02G04G16G05G09G26
                                G30
 -11287160.597 7  22948466.181          47.000       -2748.303
 -23674105.622 8  21206620.905          49.000        1662.906
  -2919388.335 6  24874280.377          41.000          49.395
   3305223.158 6  25754737.291          39.000       -3532.377
   8253412.688 6  38685220.010          40.000        -116.239
 -16047303.768 7  21917727.259          47.000       -2715.799
 -18308628.028 7  21746530.310          47.000         416.020
    842155.77815  25768484.939          31.000       -2161.496
  -4662757.069 6  24185502.833          41.000         345.000
  -5324989.913 6  23831503.807          40.000        3217.047
 -19199509.885 8  20974499.592          49.000       -1822.105
  -1093577.025 6  25318474.553          40.000       -1342.769
 -10579871.461 7  22520097.328          46.000        3187.242
 16  6 23  1 52  0.0000000  0 13G23G07G29G03S20G06G02G04G16G05G09G26
                                G30
 -11204635.048 7  22964169.928          47.000       -2753.156
 -23723751.305 8  21197172.554          48.000        1646.639
  -2920591.427 7  24874053.245          42.000          31.433
   3411214.973 5  25774907.125          35.000       -3533.973
   8256914.041 6  38685887.621          40.000        -117.155
 -15965624.539 8  21933270.273          48.000       -2729.438
 -18320829.694 7  21744207.808          47.000         397.190
    907236.13414  25780867.229          28.000       -2177.756
  -4672817.433 6  24183586.973          41.000         324.942
  -5421451.986 6  23813149.581          41.000        3214.230
 -19144692.075 8  20984931.279          49.000       -1832.151
  -1053032.670 6  25326191.388          40.000       -1360.326
 -10675348.387 7  22501929.837          47.000        3177.555
 16  6 23  1 52 30.0000000  0 13G23G07G29G03S20G06G02G04G16G05G09G26
                                G30
 -11121944.102 7  22979905.522          47.000       -2758.887
 -23772896.095 8  21187819.988          48.000        1629.956
  -2921227.049 7  24873932.367          42.000          11.491
   3517266.911 6  25795088.651          40.000       -3536.607
   8260422.564 6  38686556.575          40.000        -116.266
 -15883520.803 8  21948893.872          48.000       -2743.336
 -18332456.691 8  21741996.237          48.000         378.404
    972793.84514  25793345.531          26.000       -2193.051
  -4682268.884 6  24181788.257          41.000         305.384
  -5517796.653 6  23794814.288          41.000        3209.985
 -19089558.962 8  20995422.752          49.000       -1842.868
  -1011963.053 6  25334005.648          40.000       -1377.369
 -10770523.536 8  22483819.372          48.000        3167.884
 16  6 23  1 53  0.0000000  0 13G23G07G29G03S20G06G02G04G16G05G09G26
                                G30
 -11039093.665 7  22995671.463          47.000       -2763.759
 -23821543.482 8  21178563.206          49.000        1613.926
  -2921299.710 7  24873917.639          42.000          -6.799
   3623373.58015  25815280.088          32.000       -3537.010
   8263931.010 6  38687225.075          40.000        -116.257
 -15800999.959 7  21964597.235          47.000       -2757.245
 -18343513.314 8  21739892.841          48.000         359.454
   1038841.50013  25805906.459          23.000       -2207.260
  -4691115.989 7  24180105.812          42.000         284.976
  -5614027.112 7  23776503.896          42.000        3206.361
 -19034116.716 8  21005972.560          49.000       -1852.846
   -970374.374 6  25341919.758          40.000       -1394.250
 -10865399.258 8  22465764.243          48.000        3158.245
 16  6 23  1 53 30.0000000  0 13G23G07G29G03S20G06G02G04G16G05G09G26
                                G30
 -10956100.012 7  23011464.817          47.000       -2768.957
 -23869707.422 8  21169398.980          49.000        1597.358
  -2920824.657 6  24874007.421          41.000         -25.040
   3729516.48415  25835477.092          32.000       -3537.984
   8267424.104 6  38687890.330          40.000        -116.464
 -15718079.408 7  21980377.101          47.000       -2770.795
 -18354013.753 8  21737894.093          48.000         340.566
   1105324.30913  25818563.800          22.000       -2230.821
  -4699372.539 7  24178535.257          43.000         265.184
  -5710156.839 7  23758211.217          42.000        3202.042
 -18978381.462 8  21016578.296          49.000       -1863.039
   -928282.681 6  25349929.548          40.000       -1411.060
 -10959987.927 7  22447763.541          47.000        3148.656
 16  6 23  1 54  0.0000000  0 12G23G07G29G03S20G06G02G16G05G09G26G30
 -10872955.924 7  23027287.261          47.000       -2774.375
 -23917377.670 8  21160327.519          49.000        1580.712
  -2919794.018 6  24874203.230          40.000         -43.423
   3835704.930 5  25855683.624          32.000       -3542.652
   8270913.805 6  38688554.939          41.000        -116.051
 -15634753.558 7  21996233.642          47.000       -2784.573
 -18363949.328 7  21736003.274          47.000         321.868
  -4707029.129 7  24177077.658          43.000         245.190
  -5806175.988 7  23739939.879          42.000        3198.414
 -18922346.301 8  21027241.549          49.000       -1872.707
   -885681.224 6  25358037.878          40.000       -1428.728
 -11054278.965 8  22429821.715          48.000        3137.852
 16  6 23  1 54 30.0000000  0 13G23G07G29G03S20G06G02G04G16G05G09G26
                                G30
 -10789661.887 7  23043137.765          47.000       -2779.463
 -23964552.641 8  21151349.399          49.000        1563.821
  -2918207.432 6  24874507.160          41.000         -62.969
   3941939.083 6  25875898.340          38.000       -3543.072
   8274398.794 6  38689217.384          40.000        -116.339
 -15551024.222 7  22012166.250          47.000       -2798.323
 -18373318.997 8  21734219.949          48.000         302.632
   1239407.25311  25844134.459          11.000       -2260.500
  -4714084.851 7  24175735.353          43.000         224.469
  -5902082.127 7  23721690.546          42.000        3194.941
 -18866011.873 8  21037962.264          48.000       -1883.607
   -842570.603 6  25366240.842          40.000       -1446.307
 -11148269.215 8  22411935.783          48.000        3127.333
 16  6 23  1 55  0.0000000  0 12G23G07G29G03S20G06G02G16G05G09G26G30
 -10706217.674 7  23059016.940          47.000       -2783.797
 -24011229.736 8  21142468.250          50.000        1547.737
  -2916063.657 6  24874914.221          41.000         -79.883
   4048221.27516  25896122.445          36.000       -3542.572
   8277879.860 6  38689880.597          41.000        -116.250
 -15466892.594 7  22028177.313          47.000       -2810.934
 -18382120.578 8  21732545.147          48.000         284.094
  -4720537.383 7  24174506.787          42.000         205.723
  -5997872.198 7  23703462.503          42.000        3191.112
 -18809378.005 8  21048738.664          48.000       -1892.207
   -798950.660 6  25374541.090          40.000       -1462.814
 -11241954.799 8  22394108.920          48.000        3117.457
 16  6 23  1 55 30.0000000  0 12G23G07G29G03S20G06G02G16G05G09G26G30
 -10622624.048 7  23074925.082          47.000       -2788.846
 -24057407.507 8  21133680.600          50.000        1531.138
  -2913362.768 6  24875427.799          41.000         -98.837
   4154544.40615  25916355.117          32.000       -3544.243
   8281355.527 6  38690542.135          41.000        -115.739
 -15382361.047 7  22044260.219          46.000       -2824.158
 -18390353.591 8  21730978.850          48.000         265.085
  -4726385.653 7  24173393.586          42.000         185.168
  -6093544.395 7  23685255.504          42.000        3187.411
 -18752445.875 8  21059573.015          48.000       -1902.479
   -754822.676 6  25382937.472          39.000       -1478.355
 -11335333.126 8  22376339.695          48.000        3107.858
 16  6 23  1 56  0.0000000  0 11G23G07G29S20G06G02G16G05G09G26G30
 -10538882.296 7  23090860.481          47.000       -2793.482
 -24103084.590 8  21124988.873          50.000        1514.931
  -2910105.436 6  24876047.037          41.000        -117.214
   8284829.202 6  38691204.283          41.000        -115.022
 -15297432.386 7  22060423.431          47.000       -2836.577
 -18398017.933 8  21729521.024          48.000         246.656
  -4731629.099 6  24172395.171          41.000         165.708
  -6189097.013 7  23667073.197          42.000        3183.194
 -18695216.877 8  21070463.557          48.000       -1912.154
   -710188.129 6  25391432.255          40.000       -1495.729
 -11428401.907 8  22358628.823          48.000        3097.833
 16  6 23  1 56 30.0000000  0 12G23G07G29G03S20G06G02G16G05G09G26G30
 -10454986.901 7  23106825.458          47.000       -2799.078
 -24148253.313 8  21116392.826          50.000        1496.941
  -2906285.594 6  24876773.769          40.000        -136.567
   4367297.57615  25956845.887          34.000       -3546.524
   8288307.601 6  38691866.344          41.000        -116.056
 -15212102.644 7  22076660.771          47.000       -2851.010
 -18405106.477 8  21728172.070          48.000         226.458
  -4736260.530 7  24171514.913          42.000         143.787
  -6284522.205 6  23648914.029          41.000        3178.763
 -18637685.793 8  21081411.422          48.000       -1922.717
   -665041.974 6  25400024.097          40.000       -1514.883
 -11521152.203 8  22340979.062          48.000        3085.984
 16  6 23  1 57  0.0000000  0 11G23G07G29S20G06G02G16G05G09G26G30
 -10370940.117 7  23122818.600          47.000       -2803.915
 -24192913.616 8  21107893.855          50.000        1480.339
  -2901904.602 6  24877607.505          40.000        -155.037
   8291786.346 6  38692529.034          41.000        -115.889
 -15126375.580 7  22092973.845          47.000       -2863.917
 -18411619.905 8  21726931.325          48.000         207.654
  -4740280.388 7  24170750.000          42.000         124.264
  -6379818.999 6  23630777.303          40.000        3174.851
 -18579855.073 8  21092415.355          48.000       -1932.486
   -619386.718 6  25408710.623          40.000       -1529.969
 -11613582.719 8  22323389.504          48.000        3075.725
 16  6 23  1 57 30.0000000  0 11G23G07G29S20G06G02G16G05G09G26G30
 -10286753.849 7  23138838.755          47.000       -2808.557
 -24237075.295 8  21099490.179          50.000        1463.763
  -2896973.710 6  24878546.624          40.000        -173.823
   8295254.754 6  38693189.490          41.000        -115.213
 -15040264.587 7  22109359.373          47.000       -2876.623
 -18417568.695 8  21725800.603          48.000         188.951
  -4743698.934 7  24170100.066          42.000         103.833
  -6474996.773 6  23612668.112          41.000        3169.773
 -18521736.725 7  21103474.395          47.000       -1942.895
   -573234.630 6  25417493.440          40.000       -1546.047
 -11705701.795 8  22305859.504          48.000        3065.763
 16  6 23  1 58  0.0000000  0 11G23G07G29S20G06G02G16G05G09G26G30
 -10202425.674 7  23154885.103          47.000       -2814.033
 -24280734.037 8  21091183.230          50.000        1446.032
  -2891490.286 6  24879590.723          41.000        -193.278
   8298719.315 6  38693848.410          41.000        -116.472
 -14953769.088 7  22125818.855          46.000       -2890.495
 -18422949.052 8  21724776.066          48.000         168.806
  -4746512.142 7  24169564.624          42.000          82.968
  -6570050.518 7  23594580.002          42.000        3166.826
 -18463328.852 7  21114588.596          47.000       -1952.581
   -526583.867 6  25426370.488          41.000       -1564.901
 -11797503.844 8  22288389.934          48.000        3054.332
 16  6 23  1 58 30.0000000  0 11G23G07G29S20G06G02G16G05G09G26G30
 -10117942.795 7  23170961.081          46.000       -2818.297
 -24323874.160 8  21082973.705          50.000        1429.679
  -2885440.658 6  24880741.634          41.000        -210.773
   8302192.949 6  38694508.744          41.000        -115.511
 -14866877.803 7  22142352.971          46.000       -2902.464
 -18427746.808 8  21723864.170          48.000         150.675
  -4748705.503 7  24169147.267          42.000          63.024
  -6664964.697 7  23576519.393          43.000        3162.446
 -18404618.781 8  21125762.180          48.000       -1961.687
   -479422.019 6  25435344.978          41.000       -1580.116
 -11888972.526 7  22270985.314          47.000        3043.752
 16  6 23  1 59  0.0000000  0 11G23G07G29S20G06G02G16G05G09G26G30
 -10033316.596 7  23187065.364          46.000       -2823.416
 -24366504.715 8  21074860.942          50.000        1412.726
  -2878835.324 6  24881997.806          41.000        -229.139
   8305663.675 6  38695169.007          41.000        -115.519
 -14779603.557 7  22158961.861          46.000       -2915.205
 -18431971.972 8  21723061.373          49.000         131.402
  -4750288.851 7  24168846.617          42.000          43.479
  -6759747.727 7  23558484.139          44.000        3157.946
 -18345618.013 8  21136989.283          48.000       -1970.983
   -431760.862 6  25444415.130          41.000       -1597.135
 -11980115.676 7  22253640.757          47.000        3032.621
 16  6 23  1 59 30.0000000  0 11G23G07G29S20G06G02G16G05G09G26G30
  -9948557.272 7  23203195.437          46.000       -2827.720
 -24408634.302 8  21066843.771          50.000        1395.945
  -2871684.054 6  24883358.835          41.000        -246.932
   8309122.146 6  38695827.055          41.000        -115.502
 -14691957.905 7  22175639.872          46.000       -2927.478
 -18435633.096 8  21722362.404          48.000         112.552
  -4751270.483 6  24168658.015          41.000          22.735
  -6854406.951 7  23540470.838          43.000        3152.712
 -18286336.706 8  21148269.610          48.000       -1980.164
   -383610.690 6  25453577.472          41.000       -1613.184
 -12070939.727 7  22236357.573          47.000        3022.133
 16  6 23  2  0  0.0000000  0 11G23G07G29S20G06G02G16G05G09G26G30
  -9863655.309 7  23219351.983          46.000       -2832.540
 -24450250.644 8  21058924.443          50.000        1378.852
  -2863977.038 6  24884824.846          40.000        -265.350
   8312576.559 6  38696483.375          41.000        -114.063
 -14603933.143 7  22192390.702          47.000       -2940.360
 -18438719.696 7  21721774.506          47.000          93.461
  -4751639.143 7  24168589.471          42.000           2.901
  -6948929.929 6  23522478.372          41.000        3148.410
 -18226765.755 8  21159605.882          48.000       -1990.091
   -334962.716 7  25462835.650          42.000       -1629.444
 -12161431.992 7  22219136.197          47.000        3010.915
 16  6 23  2  0 30.0000000  0 11G23G07G29S20G06G02G16G05G09G26G30
  -9778612.423 7  23235534.355          46.000       -2836.401
 -24491353.819 8  21051102.453          49.000        1361.608
  -2855715.746 6  24886396.849          40.000        -283.781
   8316025.555 6  38697140.411          41.000        -114.557
 -14515532.889 7  22209213.672          47.000       -2952.589
 -18441232.331 8  21721298.185          48.000          74.462
  -4751395.843 7  24168635.505          43.000         -17.762
  -7043316.167 7  23504519.184          44.000        3144.319
 -18166907.395 8  21170996.617          48.000       -1999.921
   -285819.423 6  25472186.837          41.000       -1645.317
 -12251590.967 7  22201979.859          47.000        2999.979
 16  6 23  2  1  0.0000000  0 11G23G07G29S20G06G02G16G05G09G26G30
  -9693439.655 7  23251742.118          45.000       -2842.156
 -24531952.396 8  21043377.451          50.000        1344.193
  -2846910.376 6  24888072.645          40.000        -303.404
   8319462.375 6  38697794.218          41.000        -115.504
 -14426769.468 7  22226103.825          47.000       -2965.415
 -18443180.237 8  21720926.792          48.000          54.928
  -4750549.606 7  24168796.762          43.000         -39.511
  -7137573.603 7  23486582.210          45.000        3139.277
 -18106772.546 8  21182439.545          48.000       -2009.659
   -236192.038 6  25481631.140          41.000       -1662.929
 -12341423.962 7  22184885.294          47.000        2988.629
 16  6 23  2  1 30.0000000  0 11G23G07G29S20G06G02G16G05G09G26G30
  -9608124.667 7  23267975.863          45.000       -2846.846
 -24572032.483 8  21035751.636          50.000        1327.372
  -2837548.197 6  24889853.632          40.000        -321.806
   8322900.796 6  38698448.706          41.000        -114.550
 -14337632.343 7  22243065.943          46.000       -2977.601
 -18444550.093 8  21720667.115          48.000          35.972
  -4749086.738 7  24169075.180          43.000         -59.412
  -7231687.116 7  23468674.814          46.000        3134.914
 -18046349.176 8  21193939.325          49.000       -2019.135
   -186068.836 6  25491169.149          41.000       -1679.148
 -12430915.390 7  22167856.150          47.000        2977.253
 16  6 23  2  2  0.0000000  0 11G23G07G29S20G06G02G16G05G09G26G30
  -9522673.842 7  23284236.674          45.000       -2850.637
 -24611597.916 8  21028222.530          50.000        1310.390
  -2827635.309 6  24891741.588          41.000        -339.275
   8326337.295 6  38699102.356          40.000        -114.709
 -14248129.648 7  22260097.442          46.000       -2989.404
 -18445347.330 8  21720516.206          48.000          17.316
  -4747012.335 7  24169468.875          42.000         -79.012
  -7325660.266 7  23450793.715          47.000        3130.217
 -17985644.119 8  21205490.043          49.000       -2028.020
   -135456.953 6  25500801.181          41.000       -1694.651
 -12520068.372 7  22150890.752          47.000        2965.908
 16  6 23  2  2 30.0000000  0 11G23G07G29S20G06G02G16G05G09G26G30
  -9437090.223 7  23300521.881          45.000       -2855.582
 -24650649.633 8  21020790.831          50.000        1293.024
  -2817174.415 6  24893733.461          41.000        -357.990
   8329769.699 6  38699756.146          41.000        -115.067
 -14158266.064 7  22277197.644          46.000       -3001.775
 -18445573.974 8  21720472.825          49.000          -2.332
  -4744327.710 7  24169980.759          42.000         -99.802
  -7419493.860 7  23432934.220          45.000        3125.250
 -17924660.490 8  21217095.154          49.000       -2037.423
    -84359.900 6  25510524.320          41.000       -1711.511
 -12608882.483 7  22133990.181          47.000        2954.456
 16  6 23  2  3  0.0000000  0 11G23G07G29S20G06G02G16G05G09G26G30
  -9351372.063 7  23316834.414          45.000       -2860.324
 -24689184.063 8  21013457.290          49.000        1275.265
  -2806163.240 7  24895828.133          42.000        -376.706
   8333198.842 6  38700406.865          41.000        -114.017
 -14068041.500 7  22294367.210          47.000       -3014.094
 -18445226.681 8  21720537.844          48.000         -21.829
  -4741030.053 6  24170607.292          41.000        -120.678
  -7513182.739 7  23415105.978          45.000        3120.293
 -17863396.848 8  21228754.377          49.000       -2046.948
    -32776.538 6  25520340.382          41.000       -1727.965
 -12697352.578 8  22117155.397          48.000        2943.233
 16  6 23  2  3 30.0000000  0 11G23G07G29S20G06G02G16G05G09G26G30
  -9265515.731 7  23333173.070          45.000       -2863.302
 -24727195.592 8  21006222.953          49.000        1258.589
  -2794597.829 7  24898028.797          42.000        -394.969
   8336628.854 6  38701058.962          41.000        -114.452
 -13977454.018 7  22311606.384          47.000       -3025.683
 -18444300.283 8  21720713.376          48.000         -40.349
  -4737114.278 6  24171351.334          40.000        -141.329
  -7606720.451 7  23397306.145          44.000        3115.608
 -17801849.706 8  21240466.003          50.000       -2056.342
     19296.150 6  25530248.999          40.000       -1743.294
 -12785471.676 8  22100387.727          48.000        2931.469
 16  6 23  2  4  0.0000000  0 11G23G07G29S20G06G02G16G05G09G26G30
  -9179535.212 7  23349535.686          46.000       -2868.276
 -24764696.302 8  20999086.948          49.000        1241.516
  -2782491.892 7  24900332.209          42.000        -412.771
   8340049.366 6  38701710.640          40.000        -112.743
 -13886519.186 7  22328910.736          47.000       -3036.747
 -18442808.125 8  21720996.994          48.000         -59.266
  -4732592.779 6  24172212.101          41.000        -160.604
  -7700118.516 7  23379534.739          45.000        3111.172
 -17740033.252 8  21252229.125          49.000       -2065.172
     71843.486 6  25540249.126          40.000       -1759.375
 -12873250.331 7  22083681.971          47.000        2920.625
 16  6 23  2  4 30.0000000  0 12G23G07G29G13S20G06G02G16G05G09G26G30
  -9093413.820 7  23365923.115          45.000       -2872.807
 -24801667.268 8  20992051.701          48.000        1223.820
  -2769828.748 7  24902741.019          42.000        -431.728
   -100340.54115  25763643.951          34.000        3355.259
   8343477.442 6  38702362.720          40.000        -114.507
 -13795222.313 7  22346283.544          47.000       -3048.591
 -18440732.540 8  21721393.359          48.000         -78.409
  -4727447.608 6  24173190.570          40.000        -181.856
  -7793357.316 7  23361789.647          45.000        3105.304
 -17677931.225 8  21264046.465          49.000       -2074.722
    124881.497 6  25550341.424          40.000       -1776.334
 -12960668.698 8  22067047.603          48.000        2908.020
 16  6 23  2  5  0.0000000  0 12G23G07G29G13S20G06G02G16G05G09G26G30
  -9007157.488 7  23382337.418          45.000       -2876.615
 -24838112.792 8  20985117.316          49.000        1206.550
  -2756614.046 6  24905255.334          41.000        -449.118
   -200985.814 5  25744492.093          34.000        3354.651
   8346906.865 6  38703013.805          40.000        -113.569
 -13703571.066 7  22363724.967          47.000       -3060.729
 -18438078.827 7  21721897.216          47.000         -97.574
  -4721684.393 6  24174288.346          41.000        -201.047
  -7886440.093 7  23344078.043          45.000        3100.560
 -17615549.890 8  21275917.115          49.000       -2083.961
    178403.394 6  25560525.319          38.000       -1791.924
 -13047729.471 8  22050480.070          48.000        2896.755
 16  6 23  2  5 30.0000000  0 12G23G07G29G13S20G06G02G16G05G09G26G30
  -8920775.047 7  23398774.913          45.000       -2881.355
 -24874039.530 8  20978280.722          49.000        1188.858
  -2742856.197 6  24907874.262          41.000        -467.729
   -301592.717 5  25725346.849          34.000        3353.911
   8350329.089 6  38703664.943          40.000        -114.126
 -13611575.851 7  22381231.165          47.000       -3072.450
 -18434854.273 8  21722511.569          48.000        -116.678
  -4715309.965 6  24175500.246          40.000        -222.890
  -7979372.669 7  23326392.160          45.000        3095.229
 -17552898.062 8  21287839.680          49.000       -2092.681
    232399.869 6  25570800.950          38.000       -1807.085
 -13134437.962 8  22033980.331          48.000        2884.476
 16  6 23  2  6  0.0000000  0 12G23G07G29G13S20G06G02G16G05G09G26G30
  -8834254.832 7  23415240.205          45.000       -2886.200
 -24909434.232 8  20971545.095          49.000        1170.726
  -2728543.401 6  24910597.299          41.000        -486.162
   -402148.111 5  25706210.346          34.000        3350.629
   8353754.562 6  38704314.963          40.000        -115.373
 -13519226.751 7  22398804.739          47.000       -3083.973
 -18431046.236 8  21723236.102          48.000        -136.570
  -4708311.576 6  24176833.704          40.000        -243.951
  -8072140.726 7  23308740.165          46.000        3089.518
 -17489964.383 8  21299815.450          49.000       -2102.597
    286881.731 6  25581169.363          38.000       -1824.909
 -13220779.247 8  22017552.469          49.000        2871.796
 16  6 23  2  6 30.0000000  0 12G23G07G29G13S20G06G02G16G05G09G26G30
  -8747598.778 7  23431730.190          46.000       -2890.932
 -24944296.702 8  20964910.784          49.000        1153.283
  -2713677.639 6  24913426.276          40.000        -504.635
   -502651.89415  25687081.243          31.000        3349.503
   8357182.346 6  38704966.991          40.000        -115.083
 -13426527.726 7  22416444.727          47.000       -3096.110
 -18426655.881 8  21724071.845          48.000        -156.187
  -4700690.245 6  24178281.357          39.000        -264.143
  -8164743.673 7  23291117.609          45.000        3084.226
 -17426751.253 8  21311843.920          48.000       -2111.718
    341846.192 6  25591627.872          37.000       -1839.630
 -13306752.171 8  22001190.481          48.000        2859.586
 16  6 23  2  7  0.0000000  0 12G23G07G29G13S20G06G02G16G05G09G26G30
  -8660816.281 7  23448243.558          45.000       -2894.506
 -24978634.414 8  20958376.498          49.000        1136.427
  -2698268.125 6  24916357.948          38.000        -522.355
   -603112.977 5  25667962.506          32.000        3347.912
   8360605.568 6  38705621.531          41.000        -113.209
 -13333489.711 7  22434149.753          47.000       -3107.021
 -18421691.605 8  21725015.622          48.000        -174.292
  -4692453.919 6  24179851.126          39.000        -284.652
  -8257187.692 7  23273527.057          46.000        3079.341
 -17363268.159 8  21323924.601          49.000       -2119.764
    397283.193 6  25602176.633          37.000       -1854.165
 -13392362.733 8  21984898.696          48.000        2847.989
 16  6 23  2  7 30.0000000  0 12G23G07G29G13S20G06G02G16G05G09G26G30
  -8573912.031 7  23464781.304          45.000       -2898.732
 -25012450.246 8  20951941.957          49.000        1118.331
  -2682319.182 6  24919392.663          38.000        -541.007
   -703532.583 5  25648856.332          32.000        3347.199
   8364022.475 6  38706273.401          41.000        -114.365
 -13240119.163 7  22451916.396          46.000       -3117.840
 -18416157.058 8  21726068.673          48.000        -194.272
  -4683606.260 6  24181533.589          39.000        -304.783
  -8349474.731 7  23255965.856          46.000        3073.521
 -17299519.958 8  21336056.481          49.000       -2129.554
    453187.86816  25612814.635          36.000       -1871.673
 -13477612.197 8  21968675.491          48.000        2835.688
 16  6 23  2  8  0.0000000  0 12G23G07G29G13S20G06G02G16G05G09G26G30
  -8486881.154 7  23481343.061          45.000       -2902.771
 -25045737.900 8  20945607.301          49.000        1100.883
  -2665826.067 5  24922529.392          35.000        -560.832
   -803904.843 5  25629755.812          35.000        3344.889
   8367440.044 6  38706924.591          41.000        -114.069
 -13146413.223 7  22469749.698          47.000       -3128.819
 -18410046.558 8  21727232.899          49.000        -213.225
  -4674141.584 6  24183335.551          40.000        -325.823
  -8441597.337 7  23238435.559          46.000        3068.589
 -17235502.256 8  21348239.141          49.000       -2138.118
    509562.578 6  25623543.814          37.000       -1887.387
 -13562492.719 8  21952523.464          48.000        2823.278
 16  6 23  2  8 30.0000000  0 12G23G07G29G13S20G06G02G16G05G09G26G30
  -8399721.830 7  23497929.214          44.000       -2908.048
 -25078493.613 8  20939374.013          49.000        1082.210
  -2648787.045 5  24925771.415          33.000        -577.863
   -904226.324 5  25610666.147          35.000        3341.489
   8370862.106 6  38707575.990          41.000        -115.915
 -13052371.924 7  22487643.727          46.000       -3141.135
 -18403357.445 8  21728505.404          49.000        -233.472
  -4664057.147 6  24185254.917          40.000        -347.013
  -8533550.815 7  23220937.597          45.000        3061.681
 -17171213.508 8  21360472.128          49.000       -2148.362
    566409.718 6  25634360.750          38.000       -1903.113
 -13646999.287 8  21936443.822          49.000        2809.738
 16  6 23  2  9  0.0000000  0 12G23G07G29G13S20G06G02G16G05G09G26G30
  -8312445.177 7  23514536.586          44.000       -2912.089
 -25110726.518 8  20933240.471          50.000        1065.074
  -2631213.125 5  24929115.435          34.000        -595.700
  -1004506.046 5  25591581.594          32.000        3338.964
   8374274.496 6  38708225.906          41.000        -113.509
 -12958008.066 7  22505601.013          47.000       -3151.599
 -18396100.015 8  21729886.257          49.000        -251.880
  -4653362.897 7  24187291.846          42.000        -367.189
  -8625343.421 7  23203468.551          45.000        3056.580
 -17106665.026 8  21372754.324          48.000       -2156.373
    623716.966 6  25645266.997          38.000       -1918.498
 -13731139.696 8  21920431.729          49.000        2798.088
 16  6 23  2  9 30.0000000  0 12G23G07G29G13S20G06G02G16G05G09G26G30
  -8225034.289 7  23531169.540          43.000       -2915.888
 -25142418.250 8  20927210.112          50.000        1047.330
  -2613087.301 6  24932568.066          36.000        -612.818
  -1104725.596 5  25572514.805          35.000        3339.985
   8377695.637 6  38708876.625          41.000        -113.635
 -12863306.694 7  22523622.255          46.000       -3162.767
 -18388256.573 8  21731379.630          49.000        -271.242
  -4642040.672 6  24189444.470          41.000        -387.849
  -8716955.600 7  23186035.050          45.000        3050.626
 -17041840.148 8  21385090.127          48.000       -2165.588
    681500.278 6  25656262.553          38.000       -1933.475
 -13814893.982 8  21904493.974          49.000        2785.728
 16  6 23  2 10  0.0000000  0 12G23G07G29G13S20G06G02G16G05G09G26G30
  -8137501.788 7  23547829.263          44.000       -2920.300
 -25173579.387 8  20921279.830          50.000        1029.793
  -2594422.364 6  24936121.349          39.000        -631.227
  -1204895.493 6  25553452.222          36.000        3337.250
   8381116.651 6  38709528.565          41.000        -114.320
 -12768281.974 7  22541703.943          46.000       -3173.208
 -18379839.093 8  21732981.717          49.000        -290.445
  -4630102.259 7  24191716.803          42.000        -408.379
  -8808396.621 7  23168634.269          46.000        3045.550
 -16976751.656 8  21397476.972          48.000       -2174.278
    739746.347 6  25667346.897          39.000       -1949.805
 -13898271.211 8  21888626.892          48.000        2772.693
 16  6 23  2 10 30.0000000  0 12G23G07G29G13S20G06G02G16G05G09G26G30
  -8049853.464 7  23564507.536          43.000       -2923.934
 -25204214.253 8  20915450.323          49.000        1012.726
  -2575224.025 6  24939773.365          39.000        -648.860
  -1305019.780 5  25534398.487          35.000        3336.976
   8384532.640 6  38710178.062          41.000        -114.448
 -12672941.763 7  22559847.493          46.000       -3182.851
 -18370852.645 8  21734691.838          49.000        -308.971
  -4617552.721 7  24194105.930          43.000        -428.638
  -8899669.857 7  23151266.364          46.000        3039.386
 -16911405.769 8  21409911.177          48.000       -2182.417
    798448.270 6  25678518.003          40.000       -1964.440
 -13981274.234 8  21872831.688          48.000        2760.529
 16  6 23  2 11  0.0000000  0 12G23G07G29G13S20G06G02G16G05G09G26G30
  -7962087.070 7  23581209.331          43.000       -2927.924
 -25234319.276 8  20909721.103          49.000         994.581
  -2555490.314 6  24943527.971          39.000        -666.391
  -1405094.502 6  25515355.989          37.000        3334.816
   8387944.408 6  38710825.884          41.000        -113.661
 -12577285.817 7  22578050.444          46.000       -3193.922
 -18361294.174 8  21736511.250          49.000        -328.458
  -4604389.361 7  24196609.826          43.000        -448.845
  -8990770.512 7  23133931.021          46.000        3033.748
 -16845800.614 8  21422395.395          48.000       -2191.221
    857607.251 6  25689775.487          39.000       -1978.104
 -14063897.767 8  21857108.414          48.000        2747.809
 16  6 23  2 11 30.0000000  0 12G23G07G29G13S20G06G02G16G05G09G26G30
  -7874195.860 7  23597934.161          43.000       -2931.575
 -25263885.812 8  20904095.571          50.000         976.412
  -2535214.366 6  24947387.122          39.000        -685.412
  -1505111.877 6  25496325.951          38.000        3332.654
   8391359.110 6  38711476.201          41.000        -114.293
 -12481309.129 7  22596313.301          46.000       -3204.166
 -18351156.317 8  21738439.307          49.000        -347.596
  -4590604.049 7  24199233.833          43.000        -469.596
  -9081688.778 7  23116629.392          46.000        3027.680
 -16779929.566 8  21434929.590          48.000       -2200.369
    917229.228 6  25701120.746          40.000       -1995.186
 -14146131.800 8  21841460.629          49.000        2734.469
 16  6 23  2 12  0.0000000  0 12G23G07G29G13S20G06G02G16G05G09G26G30
  -7786185.711 7  23614683.455          42.000       -2935.933
 -25292917.737 8  20898570.763          49.000         958.468
  -2514402.379 6  24951346.873          39.000        -703.407
  -1605075.196 6  25477300.711          36.000        3330.571
   8394769.411 6  38712125.297          41.000        -114.239
 -12385019.388 7  22614637.320          46.000       -3215.046
 -18340444.108 8  21740478.191          49.000        -367.093
  -4576201.932 7  24201973.238          43.000        -490.647
  -9172427.459 7  23099361.337          46.000        3021.586
 -16713798.715 7  21447513.605          47.000       -2209.201
    977307.393 6  25712552.349          37.000       -2010.912
 -14227978.972 8  21825885.995          49.000        2721.430
 16  6 23  2 12 30.0000000  0 12G23G07G29G13S20G06G02G16G05G09G26G30
  -7698060.012 6  23631451.823          41.000       -2938.852
 -25321417.355 8  20893147.444          49.000         941.255
  -2493057.522 6  24955407.870          39.000        -719.730
  -1704986.388 6  25458291.247          39.000        3329.090
   8398174.094 6  38712773.433          41.000        -112.836
 -12288422.022 7  22633020.025          46.000       -3224.246
 -18329160.503 8  21742624.881          49.000        -385.366
  -4561185.950 7  24204830.624          42.000        -511.086
  -9262987.510 7  23082128.427          45.000        3015.784
 -16647411.860 7  21460146.131          47.000       -2216.954
   1037837.241 6  25724071.377          40.000       -2024.378
 -14309439.730 8  21810383.937          49.000        2709.133
 16  6 23  2 13  0.0000000  0 12G23G07G29G13S20G06G02G16G05G09G26G30
  -7609810.319 6  23648243.644          41.000       -2943.380
 -25349374.455 8  20887827.396          50.000         922.693
  -2471172.420 6  24959571.806          38.000        -737.505
  -1804834.813 6  25439289.670          37.000        3327.625
   8401583.534 6  38713421.726          41.000        -114.386
 -12191510.509 7  22651463.510          47.000       -3235.468
 -18317296.549 8  21744883.533          49.000        -405.093
  -4545546.765 7  24207806.706          42.000        -531.581
  -9353357.595 7  23064931.988          45.000        3009.003
 -16580760.921 7  21472829.630          47.000       -2226.553
   1098826.209 6  25735676.610          40.000       -2040.431
 -14390502.545 8  21794956.933          49.000        2695.622
 16  6 23  2 13 30.0000000  0 12G23G07G29G13S20G06G02G16G05G09G26G30
  -7521446.110 6  23665058.377          40.000       -2947.799
 -25376796.917 8  20882609.886          50.000         904.869
  -2448756.487 6  24963835.942          37.000        -756.716
  -1904628.452 6  25420300.325          38.000        3324.568
   8404990.666 6  38714069.129          40.000        -114.045
 -12094296.158 7  22669960.706          46.000       -3245.965
 -18304860.913 8  21747248.003          49.000        -424.299
  -4529293.067 7  24210899.251          42.000        -552.425
  -9443544.295 7  23047770.466          46.000        3002.555
 -16513855.491 7  21485562.164          47.000       -2235.072
   1160263.801 6  25747367.924          41.000       -2055.034
 -14471173.660 8  21779606.744          49.000        2682.301
 16  6 23  2 14  0.0000000  0 12G23G07G29G13S20G06G02G16G05G09G26G30
  -7432971.276 6  23681893.894          40.000       -2950.334
 -25403687.214 8  20877491.441          49.000         887.817
  -2425813.424 6  24968204.377          38.000        -773.860
  -2004369.606 6  25401318.956          39.000        3323.491
   8408394.452 6  38714716.096          40.000        -113.095
 -11996784.715 7  22688516.185          46.000       -3254.722
 -18291856.893 8  21749722.182          49.000        -442.749
  -4512428.028 6  24214107.299          41.000        -571.693
  -9533548.575 7  23030644.125          47.000        2997.411
 -16446699.716 7  21498341.395          47.000       -2242.443
   1222145.143 6  25759144.046          39.000       -2069.627
 -14551453.911 8  21764330.056          49.000        2669.974
 16  6 23  2 14 30.0000000  0 12G23G07G29G13S20G06G02G16G05G09G26G30
  -7344385.373 6  23698749.618          39.000       -2953.981
 -25430043.487 8  20872476.178          49.000         869.933
  -2402343.405 6  24972671.266          40.000        -790.068
  -2104056.138 6  25382348.545          37.000        3322.521
   8411794.972 6  38715363.010          40.000        -112.710
 -11898977.804 7  22707127.191          45.000       -3264.789
 -18278283.704 8  21752306.856          49.000        -461.465
  -4494950.689 7  24217434.969          42.000        -593.143
  -9623367.081 7  23013552.282          47.000        2991.102
 -16379293.532 7  21511168.718          47.000       -2251.126
   1284469.669 6  25771003.389          38.000       -2085.256
 -14631339.869 8  21749129.642          50.000        2656.329
 16  6 23  2 15  0.0000000  0 12G23G07G29G13S20G06G02G16G05G09G26G30
  -7255683.257 6  23715629.667          40.000       -2959.337
 -25455859.188 8  20867563.558          49.000         851.572
  -2378341.692 6  24977239.244          40.000        -809.015
  -2203681.010 6  25363393.176          39.000        3319.896
   8415197.035 6  38716011.041          40.000        -113.576
 -11800872.184 7  22725793.881          44.000       -3275.086
 -18264135.968 8  21754999.424          49.000        -481.333
  -4476855.274 7  24220877.740          42.000        -613.119
  -9712991.928 7  22996497.800          47.000        2983.911
 -16311632.135 7  21524045.391          47.000       -2259.865
   1347241.277 6  25782949.145          39.000       -2100.447
 -14710823.381 8  21734004.247          50.000        2642.544
 16  6 23  2 15 30.0000000  0 12G23G07G29G13S20G06G02G16G05G09G26G30
  -7166865.484 6  23732529.051          39.000       -2962.623
 -25481132.936 8  20862754.330          49.000         833.098
  -2353808.432 7  24981908.940          42.000        -826.454
  -2303242.859 6  25344445.084          37.000        3317.905
   8418601.055 6  38716658.881          40.000        -113.095
 -11702470.158 7  22744520.495          45.000       -3285.045
 -18249412.900 8  21757800.917          49.000        -500.450
  -4458141.487 7  24224439.556          43.000        -634.225
  -9802420.911 7  22979479.336          47.000        2977.675
 -16243716.049 7  21536967.504          47.000       -2268.019
   1410458.703 6  25794979.116          41.000       -2115.096
 -14789901.771 8  21718955.354          50.000        2629.423
 16  6 23  2 16  0.0000000  0 12G23G07G29G13S20G06G02G16G05G09G26G30
  -7077936.904 6  23749452.464          39.000       -2967.236
 -25505868.563 8  20858047.221          49.000         814.824
  -2328749.652 7  24986677.334          42.000        -845.139
  -2402745.217 6  25325512.051          38.000        3315.691
   8422005.568 6  38717308.901          40.000        -113.559
 -11603778.843 7  22763301.414          45.000       -3294.971
 -18234119.669 8  21760710.933          49.000        -519.876
  -4438814.148 7  24228118.166          44.000        -654.945
  -9891656.458 7  22962498.477          47.000        2970.646
 -16175550.860 7  21549939.542          47.000       -2276.860
   1474115.555 6  25807092.690          41.000       -2129.956
 -14868577.092 8  21703982.701          49.000        2614.922
 16  6 23  2 16 30.0000000  0 12G23G07G29G13S20G06G02G16G05G09G26G30
  -6988886.711 6  23766400.691          40.000       -2970.184
 -25530053.824 8  20853444.552          49.000         796.894
  -2303154.532 6  24991546.870          40.000        -862.458
  -2502175.256 6  25306590.972          39.000        3312.832
   8425421.727 6  38717957.526          40.000        -114.137
 -11504789.349 7  22782139.360          45.000       -3305.117
 -18218245.242 8  21763732.194          49.000        -538.733
  -4418861.700 7  24231914.426          44.000        -675.375
  -9980684.610 7  22945556.409          46.000        2964.078
 -16107125.960 7  21562958.644          46.000       -2285.389
   1538221.465 6  25819292.207          40.000       -2144.854
 -14946835.500 8  21689092.534          50.000        2601.522
 16  6 23  2 17  0.0000000  0 12G23G07G29G13S20G06G02G16G05G09G26G30
  -6899724.276 6  23783366.299          40.000       -2973.210
 -25553696.641 8  20848945.135          48.000         779.336
  -2277033.077 6  24996515.872          39.000        -879.990
  -2601540.951 6  25287681.113          38.000        3311.595
   8428838.730 6  38718607.355          40.000        -113.880
 -11405512.947 7  22801030.478          45.000       -3313.552
 -18201798.113 8  21766861.105          49.000        -557.748
  -4398293.101 7  24235828.790          44.000        -695.784
 -10069511.789 7  22928652.418          46.000        2957.516
 -16038450.887 7  21576027.548          46.000       -2293.049
   1602766.182 6  25831574.002          39.000       -2158.831
 -15024683.365 8  21674278.015          50.000        2588.158
 16  6 23  2 17 30.0000000  0 12G23G07G29G13S20G06G02G16G05G09G26G30
  -6810460.937 6  23800353.982          40.000       -2978.129
 -25576806.706 8  20844547.768          49.000         761.057
  -2250396.204 6  25001585.893          39.000        -896.977
  -2700851.351 6  25268784.674          39.000        3308.755
   8432246.155 6  38719257.148          40.000        -113.672
 -11305962.846 7  22819975.987          46.000       -3323.435
 -18184789.425 8  21770096.672          48.000        -576.648
  -4377119.030 7  24239857.609          44.000        -716.279
 -10158146.446 7  22911785.893          45.000        2950.969
 -15969537.228 7  21589141.840          46.000       -2301.259
   1667737.148 6  25843938.685          41.000       -2173.488
 -15102128.904 8  21659542.231          51.000        2574.613
 16  6 23  2 18  0.0000000  0 12G23G07G29G13S20G06G02G16G05G09G26G30
  -6721092.350 6  23817360.632          41.000       -2979.941
 -25599378.690 8  20840253.531          49.000         743.677
  -2223241.110 6  25006753.199          38.000        -912.772
  -2800100.714 6  25249897.780          39.000        3308.035
   8435647.122 6  38719903.330          40.000        -113.312
 -11206136.913 7  22838973.184          46.000       -3331.673
 -18167214.556 8  21773440.849          48.000        -594.931
  -4355334.767 7  24244003.012          44.000        -735.922
 -10246581.583 7  22894957.339          45.000        2944.745
 -15900381.045 7  21602303.248          46.000       -2309.187
   1733137.496 6  25856383.692          41.000       -2186.764
 -15179165.043 8  21644881.937          51.000        2560.998
 16  6 23  2 18 30.0000000  0 12G23G07G29G13S20G06G02G16G05G09G26G30
  -6631603.906 6  23834390.614          41.000       -2985.315
 -25621396.784 8  20836062.722          49.000         725.077
  -2195553.294 6  25012021.856          38.000        -932.068
  -2899272.846 6  25231026.661          40.000        3304.419
   8439056.436 6  38720552.635          40.000        -113.543
 -11106022.371 7  22858022.644          46.000       -3341.693
 -18149058.625 7  21776895.992          47.000        -614.690
  -4332925.283 7  24248267.654          44.000        -757.594
 -10334799.266 7  22878170.596          46.000        2936.642
 -15830967.908 7  21615512.103          47.000       -2317.844
   1798980.599 6  25868913.926          40.000       -2202.588
 -15255774.033 8  21630302.507          50.000        2546.546
 16  6 23  2 19  0.0000000  0 12G23G07G29G13S20G06G02G16G05G09G26G30
  -6542008.717 7  23851440.262          42.000       -2988.276
 -25642872.500 8  20831976.125          49.000         707.189
  -2167346.457 6  25017390.590          38.000        -948.504
  -2998379.120 6  25212163.499          37.000        3303.101
   8442464.704 6  38721200.195          40.000        -112.682
 -11005634.349 7  22877125.590          46.000       -3350.534
 -18130334.377 7  21780459.536          47.000        -633.198
  -4309903.405 7  24252648.060          44.000        -777.152
 -10422810.440 7  22861421.545          45.000        2930.450
 -15761311.278 7  21628767.079          46.000       -2325.487
   1865252.445 6  25881524.081          40.000       -2216.493
 -15331966.120 8  21615803.435          50.000        2533.229
 16  6 23  2 19 30.0000000  0 12G23G07G29G13S20G06G02G16G05G09G26G30
  -6452313.697 7  23868509.419          42.000       -2991.358
 -25663811.640 8  20827991.699          49.000         689.288
  -2138627.691 6  25022855.004          38.000        -965.512
  -3097424.432 6  25193317.368          39.000        3300.373
   8445866.831 6  38721848.558          40.000        -112.986
 -10904981.751 7  22896279.664          46.000       -3359.244
 -18111048.373 7  21784127.258          47.000        -652.132
  -4286275.667 7  24257146.028          44.000        -797.182
 -10510618.995 7  22844712.386          45.000        2923.500
 -15691418.327 7  21642066.466          47.000       -2333.592
   1931944.540 6  25894215.206          41.000       -2230.234
 -15407745.237 8  21601383.936          50.000        2519.128
 16  6 23  2 20  0.0000000  0 12G23G07G29G13S20G06G02G16G05G09G26G30
  -6362508.318 7  23885598.313          42.000       -2994.875
 -25684202.808 8  20824111.713          49.000         671.070
  -2109387.250 6  25028419.232          39.000        -983.048
  -3196396.893 5  25174481.115          35.000        3298.528
   8449275.767 6  38722496.554          40.000        -113.796
 -10804056.301 7  22915484.606          45.000       -3367.964
 -18091190.189 7  21787908.162          47.000        -670.988
  -4262031.708 7  24261758.766          43.000        -817.958
 -10598211.881 7  22828043.921          45.000        2916.991
 -15621279.060 7  21655413.370          47.000       -2342.003
   1999066.207 7  25906989.899          42.000       -2244.549
 -15483098.279 8  21587045.232          50.000        2505.082
 16  6 23  2 20 30.0000000  0 12G23G07G29G13S20G06G02G16G05G09G26G30
  -6272595.699 7  23902707.483          42.000       -2998.166
 -25704047.360 8  20820335.067          49.000         652.913
  -2079629.299 6  25034082.509          39.000       -1000.839
  -3295297.966 6  25155663.777          38.000        3295.186
   8452689.139 6  38723148.355          41.000        -113.479
 -10702862.920 7  22934741.637          45.000       -3376.526
 -18070762.499 8  21791796.122          48.000        -689.876
  -4237173.897 7  24266488.124          43.000        -838.594
 -10685588.803 7  22811416.027          46.000        2909.649
 -15550896.645 7  21668807.599          47.000       -2349.595
   2066613.251 6  25919842.927          39.000       -2257.551
 -15558025.214 8  21572785.908          49.000        2491.143
 16  6 23  2 21  0.0000000  0 12G23G07G29G13S20G06G02G16G05G09G26G30
  -6182590.086 7  23919835.186          42.000       -3001.967
 -25723358.215 8  20816660.156          49.000         634.864
  -2049368.085 6  25039841.115          39.000       -1017.368
  -3394140.059 5  25136851.343          34.000        3293.274
   8456092.336 6  38723795.252          41.000        -113.377
 -10601417.833 7  22954043.986          45.000       -3385.769
 -18049779.307 7  21795787.441          47.000        -709.042
  -4211716.098 7  24271332.217          43.000        -858.214
 -10772761.228 7  22794829.874          47.000        2902.339
 -15480285.582 7  21682244.284          47.000       -2357.255
   2134570.242 6  25932774.620          40.000       -2273.045
 -15632537.329 8  21558607.641          50.000        2476.882
 16  6 23  2 21 30.0000000  0 12G23G07G29G13S20G06G02G16G05G09G26G30
  -6092481.892 7  23936982.817          43.000       -3005.359
 -25742124.843 8  20813089.161          49.000         616.329
  -2018594.745 6  25045696.239          37.000       -1034.392
  -3492911.686 6  25118058.697          38.000        3291.035
   8459494.287 6  38724442.882          40.000        -114.264
 -10499713.439 7  22973397.656          45.000       -3395.036
 -18028231.170 7  21799887.788          47.000        -727.812
  -4185648.588 7  24276294.623          43.000        -879.017
 -10859716.636 7  22778283.683          47.000        2894.728
 -15409436.604 8  21695726.845          48.000       -2365.662
   2202945.455 5  25945785.695          35.000       -2287.091
 -15706622.222 8  21544508.930          49.000        2461.978
 16  6 23  2 22  0.0000000  0 12G23G07G29G13S20G06G02G16G05G09G26G30
  -6002260.763 7  23954150.498          43.000       -3009.349
 -25760336.198 8  20809623.792          49.000         597.531
  -1987299.817 6  25051650.253          36.000       -1050.975
  -3591601.286 5  25099278.075          35.000        3288.637
   8462907.028 6  38725091.681          41.000        -113.883
 -10397741.727 7  22992803.572          46.000       -3403.761
 -18006107.558 8  21804099.695          48.000        -747.264
  -4158961.159 7  24281371.764          43.000        -900.006
 -10946442.129 7  22761779.232          46.000        2886.789
 -15338339.866 8  21709256.488          48.000       -2374.086
   2271748.312 6  25958878.384          38.000       -2300.499
 -15780266.951 8  21530494.538          49.000        2447.585
 16  6 23  2 22 30.0000000  0 12G23G07G29G13S20G06G02G16G05G09G26G30
  -5911943.800 7  23971337.008          43.000       -3012.174
 -25778007.883 8  20806260.489          49.000         580.207
  -1955500.791 6  25057700.069          37.000       -1068.208
  -3690223.983 5  25080507.923          34.000        3285.568
   8466314.244 6  38725740.742          41.000        -113.504
 -10295521.779 7  23012253.864          45.000       -3411.060
 -17983425.370 8  21808414.942          48.000        -765.186
  -4131670.486 7  24286565.228          42.000        -919.501
 -11032951.942 7  22745315.824          45.000        2880.591
 -15267012.762 8  21722829.180          48.000       -2381.225
   2340959.759 6  25972048.290          39.000       -2313.577
 -15853485.749 8  21516563.331          50.000        2433.803
 16  6 23  2 23  0.0000000  0 12G23G07G29G13S20G06G02G16G05G09G26G30
  -5821534.980 7  23988541.789          43.000       -3015.079
 -25795142.807 8  20803000.230          49.000         561.957
  -1923202.192 6  25063849.125          38.000       -1085.375
  -3788781.866 5  25061754.087          34.000        3283.436
   8469713.198 6  38726388.983          41.000        -113.062
 -10193059.436 7  23031752.842          46.000       -3419.118
 -17960188.687 8  21812838.101          48.000        -783.965
  -4103780.588 7  24291871.438          42.000        -939.802
 -11119247.052 7  22728895.064          46.000        2872.641
 -15195459.340 8  21736445.864          48.000       -2389.145
   2410574.861 6  25985295.448          37.000       -2326.574
 -15926279.599 8  21502711.435          50.000        2419.181
 16  6 23  2 23 30.0000000  0 12G23G07G29G13S20G06G02G16G05G09G26G30
  -5731035.167 7  24005764.578          44.000       -3017.434
 -25811740.684 8  20799841.305          50.000         544.456
  -1890406.239 6  25070090.457          38.000       -1101.156
  -3887274.238 5  25043013.059          35.000        3281.979
   8473103.537 6  38727033.855          41.000        -112.432
 -10090357.768 7  23051297.836          46.000       -3427.323
 -17936398.226 7  21817363.623          47.000        -801.967
  -4075292.143 7  24297293.866          42.000        -959.025
 -11205325.772 7  22712514.108          46.000        2865.801
 -15123680.875 8  21750103.940          48.000       -2396.228
   2480591.91415  25998620.015          30.000       -2342.937
 -15998646.674 8  21488938.903          49.000        2405.517
 16  6 23  2 24  0.0000000  0 12G23G07G29G13S20G06G02G16G05G09G26G30
  -5640432.759 7  24023004.573          43.000       -3021.971
 -25827789.268 8  20796788.459          50.000         525.413
  -1857101.935 6  25076426.334          37.000       -1118.929
  -3985688.882 5  25024283.252          34.000        3277.597
   8476494.112 6  38727678.903          41.000        -113.354
  -9987407.691 7  23070887.572          46.000       -3435.955
 -17912043.054 7  21821998.471          47.000        -821.714
  -4046193.976 7  24302831.082          43.000        -980.308
 -11291173.914 7  22696178.297          47.000        2857.575
 -15051666.577 7  21763807.387          47.000       -2404.945
   2551027.46813  26012022.516          20.000       -2344.787
 -16070573.143 8  21475251.197          49.000        2389.648
 16  6 23  2 24 30.0000000  0 11G23G07G29G13S20G06G02G16G05G09G30
  -5549734.585 7  24040264.723          44.000       -3024.509
 -25843293.385 8  20793837.610          50.000         507.887
  -1823296.061 6  25082859.706          36.000       -1135.563
  -4084029.544 5  25005572.709          34.000        3276.901
   8479880.620 6  38728324.002          41.000        -111.935
  -9884217.087 7  23090524.512          46.000       -3443.272
 -17887128.699 7  21826740.445          47.000        -839.524
  -4016491.914 7  24308483.382          43.000        -999.870
 -11376794.348 7  22679885.185          47.000        2850.439
 -14979422.571 8  21777555.471          48.000       -2411.754
 -16142062.018 8  21461648.386          50.000        2376.083
 16  6 23  2 25  0.0000000  0 11G23G07G29G13S20G06G02G16G05G09G30
  -5458943.067 7  24057542.532          44.000       -3027.533
 -25858255.014 8  20790990.135          50.000         489.964
  -1788992.464 6  25089387.047          37.000       -1149.408
  -4182297.585 5  24986870.857          35.000        3274.234
   8483262.652 6  38728965.717          41.000        -111.929
  -9780791.097 7  23110206.822          46.000       -3450.866
 -17861658.493 7  21831587.871          47.000        -857.743
  -3986188.946 7  24314249.300          42.000       -1019.699
 -11462187.479 8  22663636.485          48.000        2843.211
 -14906952.151 8  21791345.959          48.000       -2419.039
 -16213113.574 8  21448128.062          50.000        2361.276
 16  6 23  2 25 30.0000000  0 11G23G07G29G13S20G06G02G16G05G09G30
  -5368047.801 7  24074837.426          43.000       -3031.941
 -25872663.096 8  20788248.898          50.000         470.701
  -1754181.443 6  25096013.139          38.000       -1168.437
  -4280480.709 5  24968188.968          35.000        3271.467
   8486652.617 6  38729609.682          41.000        -113.456
  -9677121.227 7  23129932.583          45.000       -3460.112
 -17835621.907 7  21836541.709          47.000        -877.279
  -3955274.511 7  24320132.781          43.000       -1040.130
 -11547339.897 7  22647432.282          47.000        2834.457
 -14834245.125 8  21805183.057          48.000       -2427.537
 -16283714.691 8  21434692.825          50.000        2345.615
 16  6 23  2 26  0.0000000  0 11G23G07G29G13S20G06G02G16G05G09G30
  -5277058.022 7  24092152.893          43.000       -3034.238
 -25886525.430 8  20785610.861          50.000         453.184
  -1718873.394 6  25102729.885          38.000       -1184.965
  -4378587.082 6  24949521.057          37.000        3269.606
   8490039.128 6  38730252.618          40.000        -112.203
  -9573219.083 7  23149704.657          45.000       -3466.991
 -17809028.605 7  21841600.527          46.000        -895.291
  -3923758.150 7  24326129.862          43.000       -1060.131
 -11632258.258 7  22631271.217          46.000        2826.788
 -14761311.229 8  21819061.512          48.000       -2434.406
 -16353871.944 8  21421341.506          50.000        2331.305
 16  6 23  2 26 30.0000000  0 11G23G07G29G13S20G06G02G16G05G09G30
  -5185982.720 7  24109483.995          44.000       -3036.974
 -25899850.272 8  20783075.153          50.000         435.348
  -1683077.772 6  25109542.328          39.000       -1200.910
  -4476623.487 6  24930864.436          36.000        3266.482
   8493414.450 6  38730895.466          40.000        -112.667
  -9469095.456 7  23169518.594          45.000       -3474.490
 -17781887.253 7  21846766.943          47.000        -913.924
  -3891648.557 7  24332239.777          43.000       -1080.362
 -11716948.240 7  22615153.585          45.000        2819.510
 -14688159.467 7  21832980.329          47.000       -2442.298
 -16423591.392 8  21408074.560          50.000        2316.810
 16  6 23  2 27  0.0000000  0 11G23G07G29G13S20G06G02G16G05G09G30
  -5094812.579 7  24126832.897          44.000       -3040.806
 -25912627.472 8  20780643.395          50.000         416.735
  -1646786.411 6  25116447.449          38.000       -1218.965
  -4574579.054 6  24912223.258          36.000        3263.440
   8496790.078 6  38731538.647          40.000        -112.957
  -9364743.137 7  23189376.837          46.000       -3482.641
 -17754188.774 8  21852037.799          48.000        -932.750
  -3858936.678 7  24338464.514          42.000       -1101.096
 -11801397.718 7  22599084.395          46.000        2810.802
 -14614780.951 8  21846944.290          48.000       -2449.656
 -16492861.170 8  21394893.084          50.000        2301.515
 16  6 23  2 27 30.0000000  0 11G23G07G29G13S20G06G02G16G05G09G30
  -5003559.106 7  24144197.295          43.000       -3043.718
 -25924867.643 8  20778314.123          50.000         399.110
  -1610011.730 6  25123445.091          38.000       -1234.061
  -4672463.991 6  24893595.482          36.000        3261.321
   8500156.100 6  38732179.244          41.000        -111.840
  -9260176.040 7  23209275.966          46.000       -3488.900
 -17725945.098 8  21857413.077          48.000        -950.499
  -3825634.737 7  24344801.386          42.000       -1119.533
 -11885615.706 7  22583059.389          46.000        2803.393
 -14541187.666 7  21860947.845          47.000       -2456.601
 -16561690.340 8  21381796.312          50.000        2286.990
 16  6 23  2 28  0.0000000  0 11G23G07G29G13S20G06G02G16G05G09G30
  -4912218.966 7  24161578.968          43.000       -3045.499
 -25936566.643 8  20776088.644          50.000         381.346
  -1572750.933 6  25130537.697          39.000       -1249.885
  -4770273.011 5  24874983.028          35.000        3258.801
   8503514.183 6  38732817.747          41.000        -111.425
  -9155392.743 7  23229214.096          45.000       -3496.189
 -17697153.029 7  21862890.159          47.000        -968.779
  -3791739.042 7  24351250.742          42.000       -1140.129
 -11969595.721 7  22567077.729          47.000        2795.426
 -14467376.441 8  21874995.096          48.000       -2463.763
 -16630072.757 8  21368782.271          50.000        2272.017
 16  6 23  2 28 30.0000000  0 11G23G07G29G13S20G06G02G16G05G09G30
  -4820791.348 7  24178977.760          43.000       -3048.992
 -25947722.634 8  20773965.476          50.000         362.801
  -1535004.614 6  25137720.800          40.000       -1266.218
  -4868003.87316  24856385.947          36.000        3257.070
   8506865.868 6  38733456.408          40.000        -111.180
  -9050394.618 7  23249196.044          45.000       -3503.332
 -17667812.240 8  21868475.730          48.000        -987.149
  -3757248.902 7  24357816.020          43.000       -1159.630
 -12053334.230 7  22551143.796          47.000        2787.280
 -14393346.901 8  21889081.941          48.000       -2471.302
 -16698005.083 8  21355854.608          50.000        2256.844
 16  6 23  2 29  0.0000000  0 11G23G07G29G13S20G06G02G16G05G09G30
  -4729279.672 7  24196392.484          43.000       -3052.266
 -25958337.959 8  20771945.386          50.000         345.013
  -1496776.882 6  25144996.197          40.000       -1281.640
  -4965658.391 6  24837800.802          36.000        3254.977
   8510210.985 6  38734092.189          40.000        -110.952
  -8945187.004 7  23269216.103          45.000       -3510.355
 -17637925.916 8  21874161.866          48.000       -1005.184
  -3722168.308 7  24364490.903          43.000       -1179.231
 -12136831.679 7  22535253.401          47.000        2778.999
 -14319102.430 8  21903211.662          48.000       -2478.071
 -16765487.870 8  21343013.709          50.000        2241.870
 16  6 23  2 29 30.0000000  0 11G23G07G29G13S20G06G02G16G05G09G30
  -4637685.766 7  24213822.529          43.000       -3054.255
 -25968414.005 8  20770027.904          50.000         326.764
  -1458070.928 6  25152360.817          40.000       -1298.302
  -5063236.385 5  24819233.718          35.000        3251.202
   8513548.917 6  38734727.517          40.000        -110.643
  -8839773.824 7  23289275.285          45.000       -3516.968
 -17607496.340 8  21879952.895          48.000       -1023.204
  -3686499.063 7  24371278.880          43.000       -1198.543
 -12220087.167 8  22519411.936          48.000        2771.175
 -14244645.293 8  21917380.314          48.000       -2485.444
 -16832520.437 8  21330258.297          50.000        2226.853
 16  6 23  2 30  0.0000000  0 11G23G07G29G13S20G06G02G16G05G09G30
  -4545997.889 7  24231269.083          43.000       -3057.325
 -25977938.017 8  20768215.437          50.000         308.659
  -1418875.532 6  25159818.674          39.000       -1314.153
  -5160725.167 6  24800684.311          36.000        3249.006
   8516888.871 6  38735362.670          41.000        -111.300
  -8734145.730 7  23309374.725          44.000       -3524.105
 -17576512.173 7  21885848.137          47.000       -1041.994
  -3650229.796 7  24378180.598          43.000       -1218.816
 -12303085.871 7  22503617.116          47.000        2762.825
 -14169964.218 8  21931591.265          48.000       -2492.660
 -16899088.701 8  21317591.184          51.000        2211.722
 16  6 23  2 30 30.0000000  0 11G23G07G29G13S20G06G02G16G05G09G30
  -4454224.100 7  24248732.911          43.000       -3060.387
 -25986917.614 8  20766506.712          50.000         290.407
  -1379200.085 6  25167369.383          39.000       -1329.624
  -5258131.021 6  24782146.491          36.000        3246.044
   8520225.183 6  38735999.830          41.000        -110.690
  -8628312.920 7  23329515.365          45.000       -3530.907
 -17544982.035 7  21891848.621          47.000       -1059.869
  -3613368.625 7  24385194.905          44.000       -1238.595
 -12385833.465 7  22487871.121          47.000        2754.508
 -14095067.529 8  21945842.492          48.000       -2499.931
 -16965198.092 8  21305009.874          50.000        2196.069
 16  6 23  2 31  0.0000000  0 11G23G07G29G13S20G06G02G16G05G09G30
  -4362375.357 7  24266210.509          42.000       -3062.582
 -25995362.791 8  20764899.704          50.000         272.773
  -1339056.387 6  25175010.223          40.000       -1345.489
  -5355462.514 6  24763625.894          36.000        3242.629
   8523548.446 6  38736632.173          41.000        -111.023
  -8522288.294 7  23349691.237          44.000       -3536.745
 -17512916.724 8  21897951.032          48.000       -1077.623
  -3575926.951 7  24392320.196          44.000       -1257.167
 -12468337.623 7  22472171.771          47.000        2746.166
 -14019966.407 7  21960133.033          47.000       -2506.351
 -17030856.907 8  21292514.925          50.000        2181.335
 16  6 23  2 31 30.0000000  0 11G23G07G29G13S20G06G02G16G05G09G30
  -4270437.796 7  24283705.678          42.000       -3065.771
 -26003259.119 8  20763397.031          50.000         254.206
  -1298431.743 6  25182738.366          38.000       -1361.705
  -5452704.593 6  24745121.509          36.000        3240.039
   8526874.212 6  38737265.930          41.000        -110.968
  -8416060.086 7  23369904.313          44.000       -3543.940
 -17480302.910 7  21904156.923          47.000       -1096.359
  -3537891.542 7  24399557.761          43.000       -1277.725
 -12550581.768 7  22456519.798          47.000        2737.266
 -13944647.207 7  21974466.956          47.000       -2514.324
 -17096048.745 8  21280110.350          50.000        2165.251
 16  6 23  2 32  0.0000000  0 11G23G07G29G13S20G06G02G16G05G09G30
  -4178420.936 7  24301216.343          42.000       -3067.895
 -26010615.353 8  20761996.703          50.000         236.717
  -1257337.087 6  25190559.693          37.000       -1377.441
  -5549865.682 6  24726629.932          36.000        3238.891
   8530191.252 6  38737895.621          41.000        -109.150
  -8309640.245 7  23390156.547          44.000       -3549.990
 -17447150.997 7  21910464.897          47.000       -1113.696
  -3499272.324 7  24406908.491          44.000       -1296.282
 -12632572.847 8  22440918.623          48.000        2729.213
 -13869120.028 8  21988840.020          48.000       -2520.217
 -17160780.896 8  21267792.242          51.000        2150.534
 16  6 23  2 32 30.0000000  0 11G23G07G29G13S20G06G02G16G05G09G30
  -4086337.220 6  24318738.526          41.000       -3071.261
 -26017443.017 8  20760697.744          49.000         218.303
  -1215785.247 6  25198466.282          36.000       -1392.737
  -5646956.071 6  24708157.044          37.000        3234.494
   8533487.607 6  38738521.438          41.000        -110.291
  -8203043.024 7  23410441.308          44.000       -3556.868
 -17413473.216 7  21916872.966          46.000       -1132.044
  -3460081.767 7  24414364.096          43.000       -1316.683
 -12714319.676 8  22425362.242          48.000        2720.338
 -13793397.284 7  22003249.310          47.000       -2527.723
 -17225062.990 8  21255560.040          51.000        2134.693
 16  6 23  2 33  0.0000000  0 11G23G07G29G13S20G06G02G16G05G09G30
  -3994163.215 6  24336280.218          41.000       -3073.999
 -26023718.695 8  20759503.224          50.000         200.359
  -1173754.898 5  25206463.664          35.000       -1408.485
  -5743950.75416  24689698.989          36.000        3232.016
   8536789.424 6  38739150.432          41.000        -109.563
  -8096247.564 7  23430763.291          44.000       -3562.736
 -17379247.196 7  21923386.818          46.000       -1149.851
  -3420297.301 7  24421935.117          42.000       -1335.571
 -12795796.734 7  22409857.131          47.000        2712.135
 -13717456.292 7  22017700.778          47.000       -2534.902
 -17288869.535 8  21243417.324          51.000        2119.348
 16  6 23  2 33 30.0000000  0 11G23G07G29G13S20G06G02G16G05G09G30
  -3901905.508 6  24353834.212          41.000       -3077.124
 -26029447.736 8  20758413.284          50.000         181.998
  -1131252.921 6  25214552.207          36.000       -1424.127
  -5840855.925 6  24671257.546          36.000        3227.762
   8540091.892 6  38739777.697          41.000        -110.389
  -7989262.256 7  23451122.739          44.000       -3569.217
 -17344479.567 7  21930004.918          47.000       -1168.048
  -3379925.766 7  24429617.035          42.000       -1355.305
 -12877007.450 7  22394404.265          47.000        2702.688
 -13641303.566 7  22032190.322          46.000       -2541.858
 -17352204.336 8  21231365.191          51.000        2103.162
 16  6 23  2 34  0.0000000  0 11G23G07G29G13S20G06G02G16G05G09G30
  -3809572.873 6  24371405.866          41.000       -3079.386
 -26034638.390 8  20757425.095          50.000         164.379
  -1088289.908 6  25222726.988          36.000       -1439.688
  -5937677.302 6  24652834.654          39.000        3225.725
   8543386.515 6  38740404.980          41.000        -110.391
  -7882098.081 7  23471514.400          43.000       -3574.988
 -17309179.700 7  21936720.233          46.000       -1185.417
  -3338976.403 7  24437410.005          42.000       -1374.637
 -12957957.757 7  22378998.270          47.000        2693.908
 -13564948.271 7  22046719.932          46.000       -2548.631
 -17415073.790 8  21219401.584          51.000        2087.673
 16  6 23  2 34 30.0000000  0 11G23G07G29G13S20G06G02G16G05G09G30
  -3717157.462 6  24388991.724          41.000       -3080.844
 -26039282.784 8  20756541.695          50.000         146.047
  -1044859.222 6  25230993.715          37.000       -1455.460
  -6034406.029 6  24634428.548          40.000        3223.334
   8546681.180 6  38741031.443          41.000        -108.939
  -7774749.539 7  23491941.486          42.000       -3580.678
 -17273340.625 7  21943537.771          45.000       -1203.162
  -3297442.027 7  24445313.436          42.000       -1393.733
 -13038637.110 7  22363645.394          47.000        2685.251
 -13488383.053 7  22061289.450          46.000       -2555.635
 -17477467.853 8  21207529.241          51.000        2072.141
 16  6 23  2 35  0.0000000  0 11G23G07G29G13S20G06G02G16G05G09G30
  -3624669.980 6  24406592.520          41.000       -3084.569
 -26043390.512 8  20755760.118          50.000         127.552
  -1000972.324 6  25239343.434          39.000       -1470.835
  -6131051.181 6  24616034.884          38.000        3219.359
   8549966.655 6  38741656.196          41.000        -110.054
  -7667229.444 7  23512403.314          43.000       -3586.984
 -17236973.315 7  21950459.331          45.000       -1221.300
  -3255334.004 7  24453326.942          43.000       -1413.505
 -13119053.365 8  22348344.433          48.000        2675.802
 -13411618.875 7  22075898.895          46.000       -2562.919
 -17539394.749 8  21195744.603          51.000        2055.948
 16  6 23  2 35 30.0000000  0 11G23G07G29G13S20G06G02G16G05G09G30
  -3532111.154 6  24424205.705          41.000       -3086.167
 -26046961.907 8  20755080.344          50.000         110.416
   -956631.597 6  25247782.011          38.000       -1485.258
  -6227612.106 6  24597659.944          38.000        3217.196
   8553243.349 6  38742278.627          41.000        -108.079
  -7559540.519 7  23532894.232          42.000       -3592.068
 -17200079.093 7  21957481.717          46.000       -1238.776
  -3212653.242 7  24461449.233          44.000       -1431.925
 -13199204.067 7  22333089.836          47.000        2667.192
 -13334656.567 7  22090543.763          46.000       -2568.774
 -17600852.684 8  21184048.769          51.000        2040.741
 16  6 23  2 36  0.0000000  0 11G23G07G29G13S20G06G02G16G05G09G30
  -3439468.044 6  24441835.555          41.000       -3088.919
 -26049983.529 8  20754506.110          50.000          92.084
   -911825.095 6  25256307.925          38.000       -1501.260
  -6324073.830 6  24579304.409          38.000        3214.507
   8556522.564 6  38742903.659          40.000        -108.959
  -7451672.090 6  23553420.418          41.000       -3598.224
 -17162645.429 7  21964605.280          46.000       -1256.248
  -3169387.833 7  24469681.426          43.000       -1451.513
 -13279073.673 7  22317893.523          47.000        2657.823
 -13257483.602 7  22105229.744          46.000       -2575.689
 -17661826.435 8  21172445.386          50.000        2025.007
 16  6 23  2 36 30.0000000  0 11G23G07G29G13S20G06G02G16G05G09G30
  -3346752.562 6  24459478.860          40.000       -3091.586
 -26052466.969 8  20754033.331          50.000          73.708
   -866566.017 6  25264920.847          36.000       -1515.521
  -6420447.026 6  24560965.068          38.000        3211.050
   8559792.701 6  38743523.316          40.000        -107.820
  -7343638.266 6  23573977.350          41.000       -3603.585
 -17124685.526 7  21971828.291          46.000       -1273.846
  -3125550.224 7  24478024.096          44.000       -1470.687
 -13358671.387 8  22302747.380          48.000        2648.754
 -13180112.260 7  22119953.941          46.000       -2582.056
 -17722325.709 8  21160933.478          51.000        2008.754
 16  6 23  2 37  0.0000000  0 11G23G07G29G13S20G06G02G16G05G09G30
  -3253970.648 6  24477133.192          40.000       -3093.677
 -26054417.256 8  20753661.938          50.000          56.184
   -820861.567 5  25273617.704          35.000       -1529.565
  -6516735.981 6  24542643.194          38.000        3208.425
   8563051.063 6  38744142.520          40.000        -108.608
  -7235447.142 6  23594565.117          41.000       -3609.342
 -17086205.461 7  21979151.345          46.000       -1291.342
  -3081146.986 7  24486473.491          44.000       -1489.456
 -13437999.981 8  22287649.539          48.000        2640.330
 -13102548.677 7  22134712.986          46.000       -2588.387
 -17782353.930 8  21149510.792          51.000        1993.203
 16  6 23  2 37 30.0000000  0 11G23G07G29G13S20G06G02G16G05G09G30
  -3161106.434 6  24494805.551          39.000       -3097.275
 -26055818.686 8  20753395.055          49.000          37.583
   -774697.76515  25282399.055          33.000       -1546.782
  -6612923.430 6  24524342.034          40.000        3204.345
   8566315.323 6  38744764.271          40.000        -108.861
  -7127085.258 6  23615187.418          41.000       -3614.835
 -17047190.388 7  21986575.348          46.000       -1309.293
  -3036162.909 7  24495035.231          45.000       -1509.453
 -13517041.217 8  22272609.999          48.000        2630.083
 -13024777.607 7  22149512.376          47.000       -2596.149
 -17841893.269 8  21138180.610          51.000        1976.333
 16  6 23  2 38  0.0000000  0 11G23G07G29G13S20G06G02G16G05G09G30
  -3068173.959 6  24512488.485          38.000       -3099.004
 -26056684.488 8  20753230.028          49.000          19.911
   -728089.51415  25291263.277          30.000       -1559.399
  -6709021.904 6  24506052.636          39.000        3201.851
   8569568.580 6  38745383.510          40.000        -107.297
  -7018568.460 7  23635837.988          42.000       -3619.311
 -17007654.763 7  21994097.265          46.000       -1326.292
  -2990612.805 7  24503702.877          44.000       -1527.742
 -13595805.901 8  22257621.902          48.000        2621.060
 -12946813.017 7  22164348.447          46.000       -2601.835
 -17900955.150 8  21126941.151          50.000        1960.644
 16  6 23  2 38 30.0000000  0 11G23G07G29G13S20G06G02G16G05G09G30
  -2975179.925 6  24530183.756          38.000       -3100.492
 -26057021.026 8  20753166.509          50.000           2.495
   -681044.84415  25300218.711          32.000       -1576.180
  -6805036.308 6  24487780.233          39.000        3198.962
   8572805.400 6  38745998.735          40.000        -107.091
  -6909905.774 7  23656515.641          42.000       -3624.299
 -16967606.068 7  22001719.659          46.000       -1343.484
  -2944504.110 7  24512476.968          44.000       -1545.833
 -13674297.675 8  22242684.184          48.000        2612.138
 -12868661.989 7  22179221.075          47.000       -2607.733
 -17959544.077 8  21115792.068          51.000        1944.755
 16  6 23  2 39  0.0000000  0 11G23G07G29G13S20G06G02G16G05G09G30
  -2882101.180 6  24547894.419          37.000       -3104.864
 -26056805.152 8  20753207.133          50.000         -15.860
   -633542.31215  25309256.772          30.000       -1591.405
  -6900942.376 6  24469530.080          38.000        3195.320
   8576051.887 6  38746616.437          40.000        -108.466
  -6801076.551 7  23677226.624          42.000       -3630.349
 -16927022.365 7  22009441.381          45.000       -1361.056
  -2897814.490 7  24521361.415          44.000       -1565.232
 -13752491.418 8  22227806.233          49.000        2601.939
 -12790302.052 7  22194132.391          47.000       -2614.896
 -18017635.028 8  21104738.035          50.000        1928.482
 16  6 23  2 39 30.0000000  0 11G23G07G29G13S20G06G02G16G05G09G30
  -2788953.767 6  24565621.327          37.000       -3105.170
 -26056052.264 8  20753351.220          50.000         -33.991
   -585599.38016  25318386.464          36.000       -1605.298
  -6996754.336 6  24451293.416          37.000        3192.511
   8579292.624 6  38747233.966          40.000        -108.121
  -6692098.741 6  23697963.887          41.000       -3635.613
 -16885919.994 7  22017263.964          45.000       -1378.693
  -2850560.612 7  24530351.924          43.000       -1584.263
 -13830399.784 8  22212979.272          48.000        2592.153
 -12711749.272 7  22209080.666          47.000       -2621.580
 -18075241.536 8  21093775.512          51.000        1912.322
 16  6 23  2 40  0.0000000  0 11G23G07G29G13S20G06G02G16G05G09G30
  -2695747.285 6  24583360.486          38.000       -3108.107
 -26054771.222 8  20753594.825          50.000         -51.278
   -537226.225 6  25327593.914          37.000       -1619.252
  -7092479.945 6  24433080.606          39.000        3189.675
   8582522.172 6  38747848.964          41.000        -106.917
  -6582983.746 7  23718729.873          42.000       -3639.376
 -16844309.104 7  22025182.733          46.000       -1395.557
  -2802752.579 7  24539450.852          44.000       -1602.976
 -13908029.295 8  22198206.319          48.000        2583.309
 -12633013.186 7  22224062.970          46.000       -2627.441
 -18132370.644 8  21082903.852          50.000        1896.407
 16  6 23  2 40 30.0000000  0 11G23G07G29G13S20G06G02G16G05G09G30
  -2602477.135 6  24601108.125          38.000       -3111.593
 -26052957.658 8  20753940.025          50.000         -69.347
   -488420.394 6  25336881.583          38.000       -1634.968
  -7188113.407 6  24414878.965          38.000        3186.168
   8585744.913 6  38748463.613          40.000        -107.743
  -6473729.600 6  23739517.689          41.000       -3645.339
 -16802186.425 7  22033199.084          46.000       -1412.837
  -2754387.192 7  24548654.428          43.000       -1621.681
 -13985372.436 8  22183489.434          49.000        2573.089
 -12554089.911 7  22239081.220          47.000       -2633.933
 -18189015.959 8  21072125.009          51.000        1879.863
 16  6 23  2 41  0.0000000  0 11G23G07G29G13S20G06G02G16G05G09G30
  -2509129.954 6  24618875.134          38.000       -3112.858
 -26050597.748 8  20754388.792          50.000         -87.632
   -439170.075 6  25346253.642          37.000       -1648.127
  -7283639.737 6  24396706.884          40.000        3182.576
   8588973.012 6  38749078.209          41.000        -106.790
  -6364325.098 6  23760337.893          41.000       -3648.607
 -16759539.430 7  22041313.540          46.000       -1429.556
  -2705451.874 7  24557966.004          43.000       -1640.626
 -14062413.548 8  22168828.406          49.000        2562.574
 -12474966.352 7  22254138.001          47.000       -2641.144
 -18245161.920 8  21061441.654          51.000        1863.231
 16  6 23  2 41 30.0000000  0 11G23G07G29G13S20G06G02G16G05G09G30
  -2415717.725 6  24636650.484          38.000       -3114.420
 -26047703.070 8  20754940.027          50.000        -105.087
   -389488.610 6  25355705.552          37.000       -1661.907
  -7379069.502 6  24378548.344          39.000        3179.743
   8592194.213 6  38749692.230          41.000        -107.096
  -6254784.483 6  23781182.404          41.000       -3653.245
 -16716380.817 7  22049526.398          46.000       -1446.961
  -2655959.434 7  24567383.956          42.000       -1658.481
 -14139161.550 8  22154222.766          48.000        2553.555
 -12395654.893 7  22269230.485          46.000       -2646.671
 -18300818.474 8  21050851.274          51.000        1846.872
 16  6 23  2 42  0.0000000  0 11G23G07G29G13S20G06G02G16G05G09G30
  -2322246.802 6  24654435.187          37.000       -3115.877
 -26044279.560 8  20755591.479          50.000        -123.095
   -339383.343 6  25365240.456          38.000       -1677.504
  -7474407.114 6  24360402.264          37.000        3176.234
   8595400.678 6  38750301.208          41.000        -105.958
  -6145116.004 7  23802053.371          42.000       -3657.728
 -16672717.725 7  22057835.947          46.000       -1463.461
  -2605916.881 7  24576907.395          42.000       -1676.986
 -14215619.632 8  22139673.856          48.000        2543.793
 -12316161.897 7  22284358.061          47.000       -2652.470
 -18355989.575 8  21040351.391          51.000        1830.763
 16  6 23  2 42 30.0000000  0 11G23G07G29G13S20G06G02G16G05G09G30
  -2228705.843 6  24672237.516          39.000       -3118.683
 -26040316.218 8  20756345.258          50.000        -141.298
   -288845.139 6  25374858.405          39.000       -1692.148
  -7569640.390 6  24342279.707          40.000        3172.565
   8598605.816 6  38750911.739          41.000        -106.460
  -6035310.873 7  23822948.017          42.000       -3662.292
 -16628540.006 7  22066241.508          45.000       -1481.473
  -2555314.034 7  24586536.809          42.000       -1696.011
 -14291774.109 8  22125182.777          49.000        2533.321
 -12236476.779 7  22299521.934          47.000       -2659.792
 -18410662.043 8  21029947.362          51.000        1813.901
 16  6 23  2 43  0.0000000  0 11G23G07G29G13S20G06G02G16G05G09G30
  -2135100.826 6  24690050.227          39.000       -3121.625
 -26035818.714 8  20757201.122          50.000        -158.547
   -237881.339 6  25384555.509          37.000       -1705.539
  -7664773.491 6  24324177.096          41.000        3169.769
   8601805.281 6  38751518.797          41.000        -106.562
  -5925377.039 6  23843866.047          41.000       -3666.575
 -16583854.526 7  22074746.011          45.000       -1498.102
  -2504157.851 7  24596271.779          42.000       -1713.762
 -14367627.964 8  22110747.328          48.000        2523.680
 -12156605.272 7  22314721.423          47.000       -2665.274
 -18464839.576 8  21019637.407          51.000        1797.916
 16  6 23  2 43 30.0000000  0 11G23G07G29G13S20G06G02G16G05G09G30
  -2041437.948 6  24707873.234          38.000       -3122.970
 -26030792.784 8  20758157.586          50.000        -176.539
   -186499.480 6  25394333.441          37.000       -1719.069
  -7759810.977 6  24306092.807          41.000        3166.161
   8604994.301 6  38752127.024          41.000        -106.719
  -5815323.013 6  23864807.286          41.000       -3671.359
 -16538668.372 7  22083343.681          45.000       -1515.408
  -2452455.523 7  24606110.875          42.000       -1732.324
 -14443184.585 8  22096369.344          48.000        2513.365
 -12076554.198 7  22329954.381          47.000       -2671.879
 -18518526.427 8  21009421.927          51.000        1781.011
 16  6 23  2 44  0.0000000  0 11G23G07G29G13S20G06G02G16G05G09G30
  -1947699.362 6  24725711.457          38.000       -3124.689
 -26025220.608 8  20759217.826          50.000        -194.301
   -134683.605 6  25404192.116          36.000       -1731.585
  -7854733.735 6  24288031.029          40.000        3163.061
   8608188.685 6  38752734.396          41.000        -105.392
  -5705133.113 6  23885776.759          41.000       -3675.042
 -16492964.795 7  22092039.875          44.000       -1531.863
  -2400190.317 7  24616056.156          42.000       -1750.844
 -14518423.516 8  22082051.405          48.000        2503.227
 -11996306.033 7  22345225.503          47.000       -2677.754
 -18571702.736 8  20999302.127          51.000        1764.885
 16  6 23  2 44 30.0000000  0 11G23G07G29G13S20G06G02G16G05G09G30
  -1853900.107 6  24743560.464          37.000       -3127.409
 -26019116.749 8  20760379.766          50.000        -212.712
    -82449.98816  25414131.795          36.000       -1748.343
  -7949555.347 6  24269986.038          39.000        3158.831
   8611375.777 6  38753338.889          41.000        -106.124
  -5594824.504 6  23906766.578          41.000       -3679.188
 -16446759.500 7  22100832.725          44.000       -1548.698
  -2347378.106 7  24626106.434          42.000       -1769.455
 -14593356.367 8  22067793.844          49.000        2492.550
 -11915875.919 7  22360528.855          46.000       -2684.147
 -18624381.325 8  20989278.390          52.000        1747.506
 16  6 23  2 45  0.0000000  0 11G23G07G29G13S20G06G02G16G05G09G30
  -1760047.098 6  24761417.342          36.000       -3129.109
 -26012488.402 8  20761640.230          49.000        -230.330
    -29807.158 6  25424150.943          38.000       -1761.338
  -8044280.867 6  24251957.659          38.000        3156.174
   8614549.278 6  38753943.435          41.000        -105.378
  -5484406.413 6  23927778.944          41.000       -3682.737
 -16400060.766 7  22109720.558          45.000       -1565.245
  -2294027.014 7  24636258.552          42.000       -1787.845
 -14667987.511 8  22053591.182          49.000        2482.489
 -11835271.256 7  22375867.928          47.000       -2690.474
 -18676567.267 8  20979346.965          52.000        1731.266
 16  6 23  2 45 30.0000000  0 11G23G07G29G13S20G06G02G16G05G09G30
  -1666125.023 5  24779290.030          35.000       -3130.986
 -26005319.766 8  20763003.441          49.000        -247.657
     23259.126 6  25434250.605          39.000       -1775.670
  -8138893.255 6  24233954.497          40.000        3152.364
   8617727.154 6  38754548.364          41.000        -106.260
  -5373865.475 6  23948814.728          41.000       -3686.988
 -16352854.042 7  22118703.598          45.000       -1581.582
  -2240122.144 7  24646516.855          42.000       -1805.668
 -14742298.643 8  22039450.590          49.000        2472.310
 -11754476.773 7  22391242.512          46.000       -2696.094
 -18728243.006 8  20969513.541          52.000        1714.164
 16  6 23  2 46  0.0000000  0 11G23G07G29G13S20G06G02G16G05G09G30
  -1572137.191 5  24797172.227          33.000       -3134.398
 -25997614.340 8  20764469.835          49.000        -265.552
     76742.853 6  25444427.590          39.000       -1789.538
  -8233394.896 7  24215974.647          42.000        3148.665
   8620909.010 6  38755153.328          41.000        -105.826
  -5263207.459 6  23969872.255          41.000       -3690.506
 -16305144.017 7  22127782.214          46.000       -1598.709
  -2185668.848 7  24656879.178          42.000       -1823.709
 -14816290.600 8  22025369.660          49.000        2461.115
 -11673496.341 7  22406653.044          46.000       -2702.191
 -18779410.179 8  20959777.436          52.000        1697.229
 16  6 23  2 46 30.0000000  0 11G23G07G29G13S20G06G02G16G05G09G30
  -1478097.959 5  24815066.117          33.000       -3134.887
 -25989386.820 8  20766035.696          49.000        -282.805
    130628.060 6  25454682.123          40.000       -1802.679
  -8327798.920 7  24198008.479          42.000        3145.538
   8624079.686 6  38755757.385          40.000        -105.321
  -5152449.141 7  23990949.395          42.000       -3693.810
 -16256946.497 7  22136953.018          46.000       -1614.675
  -2130682.672 7  24667342.852          42.000       -1842.170
 -14889975.007 8  22011347.293          49.000        2451.167
 -11592344.815 7  22422095.928          46.000       -2707.532
 -18830081.371 8  20950134.411          52.000        1680.833
 16  6 23  2 47  0.0000000  0 11G23G07G29G13S20G06G02G16G05G09G30
  -1383991.370 5  24832974.700          34.000       -3138.041
 -25980620.755 8  20767704.129          49.000        -300.931
    184929.408 6  25465015.880          38.000       -1816.260
  -8422087.632 7  24180066.462          43.000        3141.539
   8627253.927 6  38756361.372          40.000        -104.752
  -5041576.614 7  24012050.687          43.000       -3697.074
 -16208246.322 7  22146219.189          44.000       -1631.432
  -2075148.409 6  24677909.674          41.000       -1860.271
 -14963333.216 8  21997388.934          49.000        2440.315
 -11511006.431 7  22437573.957          46.000       -2713.791
 -18880238.574 8  20940590.224          52.000        1663.459
 16  6 23  2 47 30.0000000  0 11G23G07G29G13S20G06G02G16G05G09G30
  -1289832.457 5  24850895.602          34.000       -3138.394
 -25971330.699 8  20769472.324          49.000        -317.772
    239630.441 6  25475424.167          38.000       -1829.876
  -8516273.898 7  24162142.593          43.000        3138.171
   8630418.716 6  38756962.322          40.000        -104.730
  -4930606.649 7  24033164.247          42.000       -3700.070
 -16159059.309 7  22155580.480          44.000       -1646.770
  -2019081.763 7  24688578.929          42.000       -1877.337
 -15036376.517 8  21983489.417          49.000        2429.970
 -11429495.995 7  22453085.281          46.000       -2719.542
 -18929894.374 8  20931140.268          52.000        1647.077
 16  6 23  2 48  0.0000000  0 11G23G07G29G13S20G06G02G16G05G09G30
  -1195632.124 5  24868824.392          35.000       -3141.263
 -25961528.081 8  20771337.508          49.000        -335.468
    294718.896 6  25485907.193          37.000       -1843.907
  -8610367.748 7  24144238.076          43.000        3135.116
   8633559.975 6  38757561.999          40.000        -104.842
  -4819552.718 7  24054301.294          43.000       -3703.225
 -16109397.806 7  22165032.042          44.000       -1663.582
  -1962495.148 7  24699347.825          43.000       -1894.595
 -15109113.821 8  21969647.991          49.000        2419.386
 -11347825.043 7  22468625.433          45.000       -2725.018
 -18979058.183 8  20921785.852          52.000        1630.365
 16  6 23  2 48 30.0000000  0 11G23G07G29G13S20G06G02G16G05G09G30
  -1101369.405 5  24886761.174          35.000       -3143.093
 -25951192.125 8  20773305.125          49.000        -353.592
    350213.329 5  25496466.756          35.000       -1857.045
  -8704346.725 6  24126354.342          41.000        3131.137
   8636699.519 6  38758157.139          40.000        -104.222
  -4708396.172 7  24075450.260          42.000       -3706.679
 -16059242.017 7  22174574.554          43.000       -1680.559
  -1905369.420 7  24710218.805          43.000       -1912.853
 -15181521.358 8  21955870.242          50.000        2408.405
 -11265973.172 7  22484200.991          45.000       -2730.915
 -19027707.384 8  20912527.866          52.000        1613.266
 16  6 23  2 49  0.0000000  0 11G23G07G29G13S20G06G02G16G05G09G30
  -1007045.431 5  24904711.201          35.000       -3145.242
 -25940323.824 8  20775372.871          49.000        -370.914
    406110.889 6  25507102.751          36.000       -1869.678
  -8798210.349 6  24108493.277          40.000        3125.728
   8639840.167 6  38758757.042          40.000        -104.876
  -4597140.258 7  24096620.742          42.000       -3709.837
 -16008594.251 7  22184214.682          44.000       -1696.492
  -1847706.409 7  24721191.240          43.000       -1930.668
 -15253597.238 8  21942153.481          50.000        2397.181
 -11183941.591 7  22499810.682          45.000       -2736.933
 -19075841.029 8  20903368.142          52.000        1595.876
 16  6 23  2 49 30.0000000  0 11G23G07G29G13S20G06G02G16G05G09G30
   -912674.253 5  24922670.162          35.000       -3146.240
 -25928937.248 8  20777539.473          49.000        -387.873
    462395.927 6  25517813.433          36.000       -1882.665
  -8891971.115 6  24090650.412          40.000        3124.492
   8642967.822 6  38759352.339          41.000        -103.827
  -4485801.082 7  24117811.204          43.000       -3712.344
 -15957469.820 7  22193941.748          44.000       -1712.294
  -1789521.460 7  24732264.118          44.000       -1947.986
 -15325352.406 8  21928499.942          50.000        2386.724
 -11101744.500 7  22515453.860          45.000       -2742.315
 -19123471.273 8  20894304.289          52.000        1579.608
 16  6 23  2 50  0.0000000  0 11G23G07G29G13S20G06G02G16G05G09G30
   -818241.218 5  24940638.721          34.000       -3148.629
 -25917017.468 8  20779807.826          49.000        -406.456
    519081.253 5  25528600.582          35.000       -1896.712
  -8985612.849 6  24072830.633          41.000        3119.222
   8646096.303 6  38759947.549          40.000        -103.881
  -4374366.164 7  24139015.453          42.000       -3716.127
 -15905855.231 7  22203763.044          45.000       -1728.465
  -1730800.724 7  24743438.086          44.000       -1965.858
 -15396769.690 8  21914909.799          50.000        2374.863
 -11019367.602 7  22531130.490          45.000       -2748.955
 -19170581.620 8  20885339.711          52.000        1562.001
 16  6 23  2 50 30.0000000  0 11G23G07G29G13S20G06G02G16G05G09G30
   -723760.427 5  24958614.959          33.000       -3153.027
 -25904579.143 8  20782174.634          49.000        -423.378
    576151.271 5  25539459.608          33.000       -1908.993
  -9079148.290 7  24055031.586          42.000        3115.592
   8649212.036 6  38760540.298          40.000        -103.529
  -4262851.937 7  24160234.551          42.000       -3718.330
 -15853765.601 7  22213675.954          46.000       -1744.336
  -1671560.254 7  24754711.101          44.000       -1983.998
 -15467860.449 8  21901380.541          50.000        2363.908
 -10936825.307 7  22546838.897          46.000       -2754.009
 -19217184.523 8  20876471.458          52.000        1544.801
 16  6 23  2 51  0.0000000  0 11G23G07G29G13S20G06G02G16G05G09G30
   -629228.175 5  24976606.691          32.000       -3151.017
 -25891618.780 8  20784640.263          48.000        -440.981
    633607.973 5  25550391.524          32.000       -1921.890
  -9172572.438 7  24037252.588          42.000        3111.687
   8652320.655 6  38761133.308          40.000        -103.516
  -4151256.958 6  24181470.576          41.000       -3721.998
 -15801199.376 7  22223679.065          46.000       -1760.562
  -1611797.610 7  24766084.124          44.000       -2001.054
 -15538618.161 8  21887916.110          49.000        2352.489
 -10854114.334 7  22562576.585          45.000       -2760.409
 -19263274.544 8  20867700.036          51.000        1527.120
 16  6 23  2 51 30.0000000  0 11G23G07G29G13S20G06G02G16G05G09G30
   -534630.46815  24994606.521          32.000       -3153.826
 -25878122.210 8  20787209.371          49.000        -458.636
    691463.06714  25561396.643          29.000       -1933.819
  -9265869.932 7  24019499.522          42.000        3107.932
   8655438.425 6  38761724.120          40.000        -103.666
  -4039569.482 7  24202725.116          42.000       -3724.515
 -15748143.195 7  22233777.297          46.000       -1776.799
  -1551500.384 7  24777557.991          45.000       -2018.780
 -15609026.234 8  21874515.931          49.000        2340.877
 -10771221.021 7  22578351.250          46.000       -2766.062
 -19308836.005 8  20859030.192          51.000        1510.077
 16  6 23  2 52  0.0000000  0 11G23G07G29G13S20G06G02G16G05G09G30
   -439976.55415  25012623.313          33.000       -3155.210
 -25864098.786 8  20789877.405          48.000        -475.836
    749705.91615  25572483.116          30.000       -1947.923
  -9359048.423 6  24001767.972          41.000        3103.936
   8658558.413 6  38762318.422          41.000        -104.677
  -3927800.823 7  24223994.104          42.000       -3727.173
 -15694607.729 7  22243964.228          46.000       -1792.656
  -1490678.794 7  24789131.743          45.000       -2035.836
 -15679090.787 8  21861184.034          49.000        2329.873
 -10688154.782 7  22594157.623          46.000       -2771.840
 -19353876.293 8  20850459.675          51.000        1492.857
 16  6 23  2 52 30.0000000  0 11G23G07G29G13S20G06G02G16G05G09G30
   -345275.016 5  25030642.634          33.000       -3158.389
 -25849557.427 8  20792645.288          49.000        -493.371
    808325.82914  25583640.139          29.000       -1961.105
  -9452114.862 6  23984057.781          40.000        3099.454
   8661671.835 6  38762909.775          40.000        -103.098
  -3815961.831 7  24245274.889          42.000       -3729.010
 -15640603.124 7  22254238.986          44.000       -1807.663
  -1429342.900 7  24800803.408          44.000       -2053.279
 -15748817.905 8  21847915.656          49.000        2318.632
 -10604924.588 7  22609994.969          45.000       -2777.058
 -19398402.370 8  20841986.233          51.000        1475.506
 16  6 23  2 53  0.0000000  0 11G23G07G29G13S20G06G02G16G05G09G30
   -250511.909 5  25048675.009          32.000       -3158.039
 -25834484.600 8  20795513.092          48.000        -510.996
    867335.51315  25594870.803          33.000       -1974.465
  -9545054.015 6  23966371.741          39.000        3096.086
   8664792.181 6  38763504.461          40.000        -103.957
  -3704040.862 7  24266574.834          43.000       -3731.755
 -15586116.626 7  22264607.608          44.000       -1823.860
  -1367480.297 7  24812574.523          43.000       -2070.631
 -15818191.129 8  21834714.427          49.000        2306.792
 -10521516.815 7  22625868.019          46.000       -2783.175
 -19442398.685 8  20833614.142          51.000        1457.742
 16  6 23  2 53 30.0000000  0 11G23G07G29G13S20G06G02G16G05G09G30
   -155704.01015  25066717.225          32.000       -3161.949
 -25818897.018 8  20798478.966          49.000        -528.054
    926716.07315  25606170.621          31.000       -1985.087
  -9637880.815 6  23948706.920          40.000        3092.553
   8667902.704 6  38764095.971          40.000        -103.346
  -3592056.434 7  24287883.714          42.000       -3733.869
 -15531166.245 7  22275064.459          45.000       -1839.076
  -1305108.473 7  24824443.881          44.000       -2087.286
 -15887223.339 8  21821576.734          49.000        2295.581
 -10437948.102 7  22641768.186          45.000       -2787.880
 -19485879.901 8  20825339.982          51.000        1441.112
 16  6 23  2 54  0.0000000  0 11G23G07G29G13S20G06G02G16G05G09G30
    -60852.25615  25084766.561          33.000       -3163.457
 -25802796.444 8  20801543.504          48.000        -545.958
    986464.189 6  25617540.101          36.000       -1998.110
  -9730595.511 6  23931062.883          40.000        3088.321
   8671004.895 6  38764687.063          40.000        -104.217
  -3480012.534 7  24309206.903          43.000       -3736.456
 -15475755.109 7  22285611.127          47.000       -1855.368
  -1242231.011 7  24836410.019          44.000       -2105.213
 -15955913.952 8  21808505.352          49.000        2283.491
 -10354220.550 7  22657702.783          45.000       -2794.402
 -19528846.167 8  20817163.944          51.000        1423.034
 16  6 23  2 54 30.0000000  0 11G23G07G29G13S20G06G02G16G05G09G30
     34052.312 5  25102830.922          33.000       -3164.990
 -25786172.780 8  20804706.652          49.000        -562.770
   1046587.972 6  25628983.012          37.000       -2008.996
  -9823186.215 7  23913444.061          42.000        3083.790
   8674110.259 6  38765279.480          40.000        -102.681
  -3367901.051 7  24330539.026          43.000       -3737.873
 -15419874.169 7  22296242.148          46.000       -1870.668
  -1178838.894 7  24848472.465          43.000       -2121.338
 -16024249.806 8  21795501.240          49.000        2271.781
 -10270324.162 7  22673668.790          46.000       -2799.237
 -19571285.580 8  20809087.966          51.000        1405.892
 16  6 23  2 55  0.0000000  0 11G23G07G29G13S20G06G02G16G05G09G30
    129006.333 5  25120894.794          32.000       -3165.886
 -25769030.985 8  20807967.993          48.000        -580.172
   1107080.672 6  25640495.409          39.000       -2022.733
  -9915656.360 6  23895848.885          41.000        3080.392
   8677212.742 6  38765866.732          40.000        -102.986
  -3255728.784 6  24351882.981          41.000       -3741.019
 -15363529.472 7  22306966.023          47.000       -1886.468
  -1114938.088 7  24860632.003          43.000       -2138.707
 -16092232.892 8  21782564.643          48.000        2259.784
 -10186263.744 7  22689663.624          45.000       -2805.133
 -19613201.054 8  20801111.297          51.000        1388.490
 16  6 23  2 55 30.0000000  0 11G23G07G29G13S20G06G02G16G05G09G30
    223999.06115  25138971.667          31.000       -3166.569
 -25751382.226 8  20811327.003          49.000        -597.106
   1167929.713 6  25652072.931          36.000       -2035.057
 -10008015.512 6  23878272.327          39.000        3076.411
   8680300.599 6  38766456.515          40.000        -102.814
  -3143508.783 7  24373239.866          42.000       -3741.706
 -15306733.527 7  22317773.379          46.000       -1901.280
  -1050541.101 7  24872887.291          43.000       -2154.960
 -16159871.080 8  21769693.607          49.000        2248.332
 -10102050.507 7  22705688.718          45.000       -2809.952
 -19654601.987 8  20793233.553          51.000        1370.982
 16  6 23  2 56  0.0000000  0 11G23G07G29G13S20G06G02G16G05G09G30
    319041.44915  25157055.240          30.000       -3167.376
 -25733214.697 8  20814784.048          48.000        -614.496
   1229145.824 6  25663720.864          36.000       -2046.910
 -10100250.195 6  23860720.811          39.000        3072.129
   8683385.063 6  38767042.284          40.000        -102.774
  -3031231.376 7  24394605.110          42.000       -3743.854
 -15249475.829 7  22328669.836          47.000       -1916.347
   -985637.694 7  24885238.241          44.000       -2171.865
 -16227150.189 8  21756892.267          49.000        2236.405
 -10017672.882 7  22721744.768          45.000       -2815.799
 -19695474.871 8  20785455.083          50.000        1353.678
