     2.11           OBSERVATION DATA    M (MIXED)           RINEX VERSION / TYPE
teqc  2015Nov6      anonyme             20160628 13:39:53UTCPGM / RUN BY / DATE
Linux 2.4.21-27.ELsmp|Opteron|gcc|Linux x86_64|=+           COMMENT
-Unknown-                                                   MARKER NAME
-Unknown-           -Unknown-                               OBSERVER / AGENCY
-Unknown-           U-BLOX              -Unknown-           REC # / TYPE / VERS
-Unknown-           UBLOX           NONE                    ANT # / TYPE
        0.0000        0.0000        0.0000                  APPROX POSITION XYZ
        0.0000        0.0000        0.0000                  ANTENNA: DELTA H/E/N
     1     0                                                WAVELENGTH FACT L1/2
     4    L1    C1    S1    D1                              # / TYPES OF OBSERV
 SNR is mapped to RINEX snr flag value [0-9]                COMMENT
  L1 & L2: min(max(int(snr_dBHz/6), 0), 9)                  COMMENT
  2016     6    24     0     0   30.0010000     GPS         TIME OF FIRST OBS
    17                                                      LEAP SECONDS
                                                            END OF HEADER
 16  6 24  0  0 30.0010000  0 13G17G07G22S20G03G19G04G02G06G31G09G01
                                G23
  -7559207.455 7  24035596.807          43.000       -3158.580
   -344718.847 6  24886662.877          40.000        3524.944
   8999359.376 5  23967583.693          33.000       -3013.268
  23933255.244 6  38671073.153          40.000        -133.487
 -12681080.847 7  22106238.803          46.000       -2458.463
  -6972111.159 7  23338961.290          45.000       -2577.446
    431140.693 6  25670699.869          39.000        1735.468
  -8542620.156 6  24390951.715          40.000        3173.881
 -24756266.581 7  21064665.949          47.000        1216.256
   2030291.911 6  25241012.408          41.000       -3018.299
 -24600357.718 8  20591926.218          51.000        1178.283
   4298391.027 5  25503175.754          35.000       -3865.743
 -26849832.989 8  20821116.069          50.000        -626.553
 16  6 24  0  1  0.0010000  0 13G17G07G22S20G03G19G04G02G06G31G09G01
                                G23
  -7464350.907 7  24053648.220          44.000       -3165.172
   -450459.902 6  24866541.712          41.000        3524.463
   9089841.919 5  23984801.561          33.000       -3017.657
  23937258.294 6  38671836.583          40.000        -133.871
 -12607188.486 7  22120301.026          46.000       -2467.605
  -6894565.634 7  23353717.473          43.000       -2591.924
    379298.153 6  25660835.540          36.000        1719.488
  -8637750.000 6  24372848.632          39.000        3168.338
 -24792486.564 7  21057773.339          47.000        1197.954
   2121011.132 7  25258277.147          42.000       -3030.289
 -24635459.586 8  20585246.589          51.000        1161.806
   4414399.399 6  25525254.485          37.000       -3867.181
 -26830807.543 8  20824736.029          50.000        -641.974
 16  6 24  0  1 30.0010000  0 13G17G07G22S20G03G19G04G02G06G31G09G01
                                G23
  -7369291.335 7  24071738.232          44.000       -3171.737
   -556189.377 6  24846417.300          38.000        3524.393
   9180461.555 5  24002044.715          32.000       -3022.895
  23941276.373 6  38672601.252          41.000        -134.020
 -12533044.681 7  22134408.602          45.000       -2475.804
  -6816609.807 7  23368549.513          42.000       -2605.196
    327915.867 6  25651057.363          39.000        1705.206
  -8732707.652 6  24354777.152          39.000        3161.297
 -24828165.900 7  21050983.146          47.000        1180.550
   2212069.293 6  25275604.236          40.000       -3040.676
 -24670069.710 8  20578660.109          51.000        1145.362
   4530447.35616  25547336.026          36.000       -3868.061
 -26811331.377 8  20828442.351          50.000        -656.519
 16  6 24  0  2  0.0010000  0 13G17G07G22S20G03G19G04G02G06G31G09G01
                                G23
  -7274035.798 7  24089863.110          43.000       -3178.389
   -661909.239 6  24826302.382          40.000        3523.615
   9271213.489 5  24019316.330          33.000       -3027.113
  23945308.421 6  38673369.637          41.000        -134.108
 -12458654.122 7  22148565.074          45.000       -2483.595
  -6738250.767 7  23383460.619          42.000       -2618.698
    276991.656 6  25641366.733          39.000        1689.491
  -8827495.236 6  24336740.764          40.000        3156.407
 -24863306.886 7  21044295.175          47.000        1162.349
   2303459.844 6  25292995.577          40.000       -3051.548
 -24704191.730 8  20572166.586          51.000        1129.660
   4646528.95916  25569427.129          36.000       -3871.556
 -26791409.888 8  20832232.852          50.000        -671.223
 16  6 24  0  2 30.0010000  0 13G17G07G22S20G03G19G04G02G06G31G09G01
                                G23
  -7178588.253 7  24108027.007          44.000       -3185.235
   -767617.848 6  24806185.160          39.000        3523.058
   9362096.038 5  24036612.881          34.000       -3031.612
  23949352.775 6  38674139.593          41.000        -134.708
 -12384018.652 7  22162767.457          45.000       -2492.098
  -6659492.385 7  23398451.264          43.000       -2631.794
    226527.496 6  25631763.739          40.000        1674.092
  -8922111.151 7  24318739.590          42.000        3150.732
 -24897908.980 7  21037711.121          47.000        1144.063
   2395178.877 6  25310447.854          39.000       -3063.096
 -24737826.441 8  20565766.544          51.000        1112.760
   4762641.343 6  25591522.054          36.000       -3871.389
 -26771045.007 8  20836108.755          50.000        -686.531
 16  6 24  0  3  0.0010000  0 13G17G07G22S20G03G19G04G02G06G31G09G01
                                G23
  -7082930.256 7  24126229.730          44.000       -3192.457
   -873290.959 6  24786074.988          39.000        3521.590
   9453130.555 5  24053936.846          34.000       -3036.545
  23953429.110 6  38674916.424          41.000        -136.413
 -12309117.098 7  22177021.790          45.000       -2501.085
  -6580316.102 7  23413518.427          44.000       -2646.294
    176547.337 6  25622252.899          40.000        1657.458
  -9016531.771 7  24300770.037          42.000        3144.044
 -24931948.692 7  21031234.071          47.000        1125.062
   2487245.555 6  25327969.042          40.000       -3075.475
 -24770951.816 8  20559462.444          51.000        1095.499
   4878804.65415  25613628.234          35.000       -3872.915
 -26750215.719 8  20840072.345          50.000        -702.176
 16  6 24  0  3 30.0010000  0 13G17G07G22S20G03G19G04G02G06G31G09G01
                                G23
  -6987075.840 7  24144469.885          43.000       -3197.915
   -978936.874 6  24765970.784          39.000        3521.403
   9544305.082 5  24071290.198          35.000       -3042.058
  23957525.842 6  38675696.624          41.000        -137.131
 -12233961.437 7  22191322.505          46.000       -2508.962
  -6500735.850 7  23428663.558          45.000       -2659.332
    127042.496 6  25612832.434          37.000        1642.976
  -9110765.900 6  24282836.814          41.000        3138.050
 -24965435.592 8  21024862.508          48.000        1106.964
   2579646.127 6  25345551.009          38.000       -3085.406
 -24803578.694 8  20553253.813          51.000        1079.433
   4995005.77116  25635738.689          36.000       -3873.027
 -26728934.614 8  20844122.122          50.000        -716.579
 16  6 24  0  4  0.0010000  0 13G17G07G22S20G03G19G04G02G06G31G09G01
                                G23
  -6891056.615 7  24162740.350          42.000       -3203.444
  -1084581.705 6  24745865.324          37.000        3520.790
   9635590.563 5  24088658.400          34.000       -3044.493
  23961614.646 6  38676475.095          41.000        -136.617
 -12158580.549 7  22205667.683          45.000       -2516.154
  -6420782.918 7  23443877.252          45.000       -2671.030
     77987.232 6  25603496.445          40.000        1627.978
  -9204839.506 6  24264936.398          41.000        3133.284
 -24998396.312 8  21018590.306          48.000        1090.239
   2672349.765 6  25363193.179          39.000       -3094.617
 -24835735.122 8  20547134.406          51.000        1064.323
   5111214.494 5  25657852.268          34.000       -3871.631
 -26707230.804 8  20848251.943          50.000        -730.275
 16  6 24  0  4 30.0010000  0 14G17G07G26G22S20G03G19G04G02G06G31G09
                                G01G23
  -6794845.396 7  24181050.916          44.000       -3210.574
  -1190192.819 6  24725766.425          37.000        3519.244
    -60562.11416  25999308.776          39.000        2020.499
   9727016.430 5  24106057.314          34.000       -3049.999
  23965725.884 6  38677256.690          41.000        -136.861
 -12082945.208 7  22220061.390          46.000       -2526.021
  -6340430.421 7  23459167.569          45.000       -2685.584
     29413.858 6  25594253.850          37.000        1610.646
  -9298720.455 6  24247072.384          41.000        3125.622
 -25030799.190 8  21012423.993          48.000        1070.382
   2765383.392 6  25380896.285          38.000       -3107.371
 -24867390.779 8  20541110.905          51.000        1046.156
   5227459.25815  25679971.658          32.000       -3875.493
 -26685075.116 8  20852468.125          50.000        -746.676
 16  6 24  0  5  0.0010000  0 14G17G07G26G22S20G03G19G04G02G06G31G09
                                G01G23
  -6698446.823 7  24199395.352          43.000       -3215.797
  -1295769.174 6  24705677.700          38.000        3518.589
   -121002.274 6  25987807.477          39.000        2009.423
   9818580.51815  24123480.937          32.000       -3053.231
  23969857.538 6  38678041.566          41.000        -137.429
 -12007057.590 7  22234500.172          46.000       -2533.068
  -6259682.635 7  23474532.101          44.000       -2697.910
    -18676.583 6  25585103.549          37.000        1595.558
  -9392407.918 6  24229243.077          41.000        3120.327
 -25062644.250 8  21006364.387          48.000        1052.528
   2858743.284 6  25398661.793          37.000       -3117.228
 -24898547.006 8  20535183.136          51.000        1030.684
   5343736.57215  25702097.766          32.000       -3878.033
 -26662470.228 8  20856769.481          50.000        -760.579
 16  6 24  0  5 30.0010000  0 14G17G07G26G22S20G03G19G04G02G06G31G09
                                G01G23
  -6601875.564 7  24217769.891          42.000       -3221.737
  -1401319.909 6  24685589.899          38.000        3517.688
   -181109.597 6  25976369.138          39.000        1998.621
   9910271.15315  24140929.201          33.000       -3057.955
  23973998.873 6  38678829.304          40.000        -137.827
 -11930930.057 7  22248986.575          46.000       -2541.292
  -6178554.202 7  23489969.384          43.000       -2710.632
    -66293.277 6  25576041.826          36.000        1579.758
  -9485911.574 7  24211451.446          43.000        3113.740
 -25093941.499 8  21000408.890          49.000        1034.226
   2952414.717 6  25416485.987          38.000       -3126.748
 -24929215.242 8  20529347.242          51.000        1014.252
   5460033.18515  25724229.249          34.000       -3875.851
 -26639428.926 8  20861153.744          50.000        -775.133
 16  6 24  0  6  0.0010000  0 14G17G07G26G22S20G03G19G04G02G06G31G09
                                G01G23
  -6505140.392 7  24236179.870          43.000       -3227.146
  -1506847.752 6  24665513.336          40.000        3516.921
   -240886.08416  25964993.062          37.000        1985.257
  10002081.02215  24158399.277          32.000       -3062.402
  23978141.167 6  38679617.199          40.000        -137.486
 -11854568.842 7  22263519.046          47.000       -2549.358
  -6097053.533 7  23505480.691          44.000       -2722.670
   -113439.631 6  25567069.761          36.000        1563.927
  -9579234.428 7  24193691.941          43.000        3107.522
 -25124694.893 8  20994556.645          49.000        1016.026
   3046389.866 6  25434369.982          38.000       -3138.425
 -24959400.766 8  20523602.299          51.000         998.320
   5576341.404 5  25746360.366          33.000       -3877.297
 -26615957.766 8  20865620.598          50.000        -789.436
 16  6 24  0  6 30.0010000  0 14G17G07G26G22S20G03G19G04G02G06G31G09
                                G01G23
  -6408248.545 7  24254617.230          42.000       -3232.536
  -1612354.824 6  24645436.913          40.000        3516.922
   -300333.61816  25953679.021          37.000        1974.775
  10094005.71315  24175893.539          33.000       -3067.129
  23982280.599 6  38680405.617          41.000        -138.274
 -11777978.935 7  22278094.463          47.000       -2556.627
  -6015188.528 7  23521060.263          44.000       -2735.172
   -160117.480 5  25558184.425          31.000        1547.420
  -9672378.435 7  24175968.662          44.000        3101.796
 -25154907.233 8  20988806.659          49.000         997.656
   3140661.701 6  25452309.783          39.000       -3146.972
 -24989107.747 8  20517948.742          51.000         982.010
   5692655.54614  25768494.571          28.000       -3879.502
 -26592061.940 8  20870168.003          50.000        -803.903
 16  6 24  0  7  0.0010000  0 14G17G07G26G22S20G03G19G04G02G06G31G09
                                G01G23
  -6311204.201 7  24273086.470          43.000       -3237.261
  -1717839.617 6  24625363.142          40.000        3516.220
   -359450.82716  25942430.227          36.000        1967.362
  10186043.19015  24193408.549          33.000       -3070.394
  23986418.337 6  38681194.315          40.000        -137.137
 -11701162.236 7  22292712.510          47.000       -2563.911
  -5932962.872 7  23536704.837          43.000       -2746.197
   -206325.51615  25549393.860          35.000        1532.685
  -9765342.726 7  24158278.783          45.000        3096.190
 -25184578.117 8  20983161.670          49.000         980.310
   3235226.228 6  25470305.564          39.000       -3156.639
 -25018337.094 8  20512387.061          50.000         966.767
   5808972.65815  25790632.633          32.000       -3877.177
 -26567743.794 8  20874795.417          50.000        -817.184
 16  6 24  0  7 30.0010000  0 14G17G07G26G22S20G03G19G04G02G06G31G09
                                G01G23
  -6213996.665 7  24291581.415          42.000       -3242.370
  -1823285.476 6  24605297.678          40.000        3514.529
   -418220.98616  25931247.307          38.000        1953.538
  10278207.02015  24210949.089          34.000       -3072.070
  23990567.666 6  38681981.128          40.000        -138.456
 -11624105.586 7  22307375.597          47.000       -2571.976
  -5850366.043 7  23552420.817          43.000       -2758.715
   -252047.851 5  25540692.675          33.000        1515.947
  -9858110.957 7  24140624.241          44.000        3089.613
 -25213692.235 8  20977620.092          49.000         961.598
   3330094.693 6  25488358.146          40.000       -3167.815
 -25047074.834 8  20506919.105          51.000         950.202
   5925304.57915  25812767.571          33.000       -3876.799
 -26542990.552 8  20879505.963          50.000        -831.855
 16  6 24  0  8  0.0010000  0 14G17G07G26G22S20G03G19G04G02G06G31G09
                                G01G23
  -6116628.383 6  24310109.114          41.000       -3248.033
  -1928688.798 7  24585242.858          42.000        3512.752
   -476719.08316  25920130.070          41.000        1941.675
  10370495.89915  24228510.500          33.000       -3078.094
  23994733.734 6  38682774.362          40.000        -139.107
 -11546808.760 7  22322084.193          47.000       -2580.927
  -5767399.983 7  23568209.756          44.000       -2771.173
   -297281.01715  25532085.862          35.000        1500.186
  -9950679.945 7  24123007.164          43.000        3082.251
 -25242247.223 8  20972186.495          48.000         942.479
   3425265.148 6  25506468.418          39.000       -3176.998
 -25075319.887 8  20501543.531          50.000         932.985
   6041650.37815  25834908.512          33.000       -3878.331
 -26517802.401 8  20884299.399          50.000        -847.147
 16  6 24  0  8 30.0010000  0 12G17G07G26S20G03G19G04G02G06G31G09G23
  -6019102.644 7  24328667.508          42.000       -3253.292
  -2034047.840 6  24565192.889          41.000        3511.119
   -534785.55615  25909081.256          35.000        1930.146
  23998914.072 6  38683568.888          40.000        -139.768
 -11469272.844 7  22336838.422          47.000       -2588.245
  -5684068.340 7  23584069.509          45.000       -2783.506
   -342023.315 5  25523571.464          34.000        1482.597
 -10043047.876 7  24105431.619          44.000        3075.461
 -25270241.757 8  20966859.851          49.000         924.079
   3520734.788 6  25524634.706          40.000       -3186.813
 -25103072.460 8  20496261.734          51.000         917.121
 -26492180.682 8  20889174.553          50.000        -861.079
 16  6 24  0  9  0.0010000  0 11G17G07S20G03G19G04G02G06G31G09G23
  -5921422.657 7  24347261.203          44.000       -3259.042
  -2139360.174 7  24545152.955          42.000        3509.633
  24003106.293 6  38684365.647          40.000        -140.215
 -11391499.342 7  22351638.510          47.000       -2596.704
  -5600374.143 7  23599994.944          44.000       -2795.893
   -386272.967 6  25515151.455          36.000        1466.247
 -10135213.303 7  24087893.609          43.000        3068.522
 -25297675.247 8  20961638.711          49.000         905.236
   3616500.319 6  25542858.963          40.000       -3196.868
 -25130333.211 8  20491075.232          51.000         900.155
 -26466127.314 8  20894132.003          50.000        -875.650
 16  6 24  0  9 30.0010000  0 13G17G07G26G22S20G03G19G04G02G06G31G09
                                G23
  -5823595.924 7  24365876.206          43.000       -3263.721
  -2244627.098 7  24525121.797          42.000        3508.211
   -649911.51016  25887182.018          39.000        1906.883
  10648083.90914  24281333.879          29.000       -3089.774
  24007307.515 6  38685164.518          40.000        -140.151
 -11313492.530 7  22366482.468          47.000       -2604.068
  -5516324.952 7  23615988.819          44.000       -2807.362
   -430031.419 6  25506825.101          37.000        1450.233
 -10227177.429 7  24070393.152          44.000        3061.557
 -25324549.900 8  20956524.977          49.000         886.639
   3712555.233 6  25561137.316          41.000       -3206.211
 -25157105.639 8  20485980.606          51.000         884.240
 -26439646.983 8  20899171.172          50.000        -889.502
 16  6 24  0 10  0.0010000  0 12G17G07G26S20G03G19G04G02G06G31G09G23
  -5725612.139 7  24384520.908          42.000       -3268.448
  -2349832.990 7  24505101.843          42.000        3505.980
   -706901.23215  25876338.574          35.000        1891.941
  24011531.728 6  38685966.687          39.000        -142.363
 -11235240.037 7  22381372.774          47.000       -2612.549
  -5431910.354 7  23632052.407          44.000       -2820.112
   -473283.555 6  25498594.706          38.000        1432.954
 -10318924.989 7  24052934.261          44.000        3054.526
 -25350851.154 8  20951520.482          49.000         867.153
   3808910.003 6  25579473.778          41.000       -3216.899
 -25183376.601 8  20480981.608          51.000         867.047
 -26412727.737 8  20904294.329          50.000        -904.549
 16  6 24  0 10 30.0010000  0 13G17G07G26S20G03G19G04G02G06G31G09G01
                                G23
  -5627490.191 7  24403192.013          42.000       -3273.045
  -2454991.034 7  24485088.328          42.000        3503.765
   -763535.67815  25865560.378          34.000        1880.769
  24015764.105 6  38686772.643          39.000        -142.174
 -11156758.409 7  22396309.078          47.000       -2620.850
  -5347149.314 7  23648181.207          44.000       -2831.271
   -516042.564 6  25490457.756          37.000        1416.807
 -10410469.489 7  24035514.774          43.000        3047.742
 -25376593.385 8  20946621.769          49.000         848.142
   3905546.022 7  25597863.149          42.000       -3225.755
 -25209161.782 8  20476074.659          51.000         851.122
   6522852.83015  25945634.157          30.000       -3879.752
 -26385386.462 8  20909497.199          50.000        -918.815
 16  6 24  0 11  0.0010000  0 14G17G07G26G22S20G03G19G04G02G06G31G09
                                G01G23
  -5529219.722 7  24421893.708          43.000       -3278.658
  -2560085.183 7  24465088.529          42.000        3502.178
   -819797.37716  25854856.327          39.000        1869.195
  10902020.19913  24334370.099          23.000       -3102.771
  24020016.193 6  38687581.443          39.000        -142.438
 -11078034.782 7  22411289.514          47.000       -2628.310
  -5262031.320 7  23664378.936          44.000       -2843.312
   -558292.846 6  25482417.952          39.000        1400.112
 -10501794.943 7  24018134.339          43.000        3040.701
 -25401761.709 8  20941832.627          49.000         829.288
   4002474.325 6  25616308.046          41.000       -3235.553
 -25234447.584 8  20471262.482          51.000         834.898
   6639248.31515  25967781.589          34.000       -3879.916
 -26357610.698 8  20914782.503          50.000        -933.105
 16  6 24  0 11 30.0010000  0 14G17G07G26G22S20G03G19G04G02G06G31G09
                                G01G23
  -5430818.990 7  24440620.322          43.000       -3281.919
  -2665128.673 6  24445097.018          40.000        3500.415
   -875699.651 6  25844218.203          39.000        1856.891
  10995167.62514  24352088.440          24.000       -3106.375
  24024270.981 6  38688391.395          39.000        -141.121
 -10999085.286 7  22426313.384          47.000       -2635.340
  -5176574.770 7  23680642.260          44.000       -2854.018
   -600047.642 6  25474471.403          38.000        1383.372
 -10592914.376 7  24000795.611          44.000        3033.617
 -25426370.131 8  20937149.460          49.000         810.790
   4099676.753 7  25634806.150          42.000       -3244.785
 -25259249.335 8  20466543.158          51.000         818.690
   6755635.76114  25989930.174          29.000       -3877.714
 -26329417.053 8  20920147.608          50.000        -946.889
 16  6 24  0 12  0.0010000  0 14G17G07G26G22S20G03G19G04G02G06G31G09
                                G01G23
  -5332317.559 6  24459360.024          41.000       -3285.044
  -2770144.504 6  24425113.709          40.000        3500.167
   -931266.398 6  25833644.313          39.000        1846.137
  11088400.10214  24369836.725          25.000       -3109.060
  24028500.591 6  38689195.920          39.000        -141.161
 -10919937.034 7  22441374.545          47.000       -2641.687
  -5090809.497 7  23696962.436          45.000       -2863.751
   -641331.145 6  25466615.140          38.000        1367.804
 -10683852.305 7  23983491.452          45.000        3028.153
 -25450443.704 8  20932568.498          49.000         793.132
   4197124.198 7  25653349.187          42.000       -3251.718
 -25283593.411 8  20461910.858          51.000         803.573
   6871988.32215  26012072.406          31.000       -3880.874
 -26300833.146 8  20925587.207          50.000        -959.748
 16  6 24  0 12 30.0010000  0 13G17G07G26G22S20G03G19G04G02G06G31G09
                                G23
  -5233696.133 6  24478127.296          41.000       -3290.148
  -2875107.861 6  24405142.040          41.000        3497.976
   -986472.902 6  25823138.305          36.000        1833.063
  11181739.33014  24387598.551          26.000       -3113.208
  24032727.298 6  38690001.265          40.000        -141.000
 -10840568.614 7  22456477.499          47.000       -2649.815
  -5004716.055 7  23713344.962          45.000       -2875.790
   -682119.309 6  25458854.348          39.000        1351.120
 -10774583.947 7  23966225.072          45.000        3020.712
 -25473958.924 8  20928093.460          49.000         774.073
   4294836.021 6  25671941.696          41.000       -3261.245
 -25307457.657 8  20457369.282          51.000         787.142
 -26271838.105 8  20931105.001          50.000        -974.035
 16  6 24  0 13  0.0010000  0 14G17G07G26G22S20G03G19G04G02G06G31G09
                                G01G23
  -5134959.578 7  24496917.883          42.000       -3292.859
  -2980018.217 7  24385179.026          42.000        3496.409
  -1041318.18115  25812698.241          34.000        1821.489
  11275183.71314  24405387.058          29.000       -3116.293
  24036951.817 6  38690805.929          40.000        -141.895
 -10760982.285 7  22471622.037          47.000       -2656.761
  -4918299.181 7  23729789.803          44.000       -2885.499
   -722411.451 6  25451187.839          40.000        1335.532
 -10865108.442 7  23948998.130          44.000        3014.090
 -25496916.068 8  20923724.815          48.000         755.792
   4392808.226 7  25690585.718          42.000       -3270.234
 -25330843.626 8  20452918.133          51.000         771.487
   7095169.75515  26056346.016          32.000       -3877.180
 -26242434.462 8  20936699.698          49.000        -986.737
 16  6 24  0 13 30.0010000  0 14G17G07G26G22S20G03G19G04G02G06G31G09
                                G01G23
  -5036111.988 7  24515728.589          42.000       -3296.696
  -3084873.533 7  24365227.354          42.000        3494.018
  -1095800.67415  25802330.578          35.000        1811.831
  11368731.08314  24423181.168          27.000       -3119.021
  24041173.451 6  38691609.268          40.000        -140.829
 -10681179.668 7  22486808.926          47.000       -2664.091
  -4831562.977 7  23746294.167          44.000       -2896.600
   -762206.469 6  25443614.392          40.000        1318.350
 -10955424.773 7  23931810.503          44.000        3006.941
 -25519314.717 8  20919462.146          48.000         737.188
   4491036.971 7  25709278.706          42.000       -3278.114
 -25353752.240 8  20448559.731          52.000         755.550
   7211469.65816  26078478.564          36.000       -3875.988
 -26212624.135 8  20942372.345          49.000       -1000.313
 16  6 24  0 14  0.0010000  0 14G17G07G26G22S20G03G19G04G02G06G31G09
                                G01G23
  -4937151.683 6  24534559.433          41.000       -3300.629
  -3189666.931 7  24345284.931          42.000        3492.025
  -1149913.02715  25792034.321          31.000        1799.173
  11462384.99514  24441008.868          28.000       -3126.326
  24045398.713 6  38692414.665          40.000        -142.025
 -10601157.097 7  22502035.829          47.000       -2670.699
  -4744506.163 7  23762861.456          44.000       -2907.186
   -801497.564 6  25436138.596          40.000        1301.328
 -11045525.889 7  23914666.118          44.000        2999.566
 -25541149.120 8  20915307.825          49.000         718.627
   4589524.408 7  25728019.873          42.000       -3286.943
 -25376179.033 8  20444292.438          52.000         739.715
   7327752.13616  26100605.475          40.000       -3876.099
 -26182404.071 8  20948123.186          49.000       -1014.120
 16  6 24  0 14 30.0010000  0 14G17G07G26G22S20G03G19G04G02G06G31G09
                                G01G23
  -4838075.155 6  24553412.684          41.000       -3304.388
  -3294389.162 6  24325354.741          41.000        3489.316
  -1203646.88815  25781810.291          35.000        1785.119
  11556152.15315  24458854.473          31.000       -3125.627
  24049634.976 6  38693220.150          40.000        -141.274
 -10520908.240 7  22517307.789          47.000       -2679.185
  -4657124.717 7  23779489.402          44.000       -2918.366
   -840275.610 6  25428758.184          38.000        1283.494
 -11135402.389 7  23897563.089          44.000        2991.385
 -25562411.054 8  20911261.154          49.000         698.775
   4688274.813 7  25746812.239          44.000       -3296.123
 -25398117.027 8  20440117.665          52.000         722.452
   7444025.45415  26122730.641          35.000       -3876.169
 -26151768.379 8  20953953.164          49.000       -1028.431
 16  6 24  0 15  0.0010000  0 14G17G07G26G22S20G03G19G04G02G06G31G09
                                G01G23
  -4738871.605 7  24572293.819          43.000       -3308.876
  -3399023.478 6  24305441.844          41.000        3486.337
  -1256984.818 5  25771660.302          34.000        1771.316
  11650045.26615  24476720.250          30.000       -3131.808
  24053893.719 6  38694030.991          40.000        -142.834
 -10440420.224 7  22532624.386          46.000       -2687.414
  -4569408.151 7  23796181.425          44.000       -2929.810
   -878525.135 6  25421477.360          38.000        1265.433
 -11225038.651 7  23880505.152          44.000        2983.890
 -25583085.678 8  20907326.584          49.000         679.387
   4787298.837 7  25765655.613          43.000       -3305.352
 -25419552.718 8  20436038.293          51.000         705.926
   7560296.939 5  26144857.081          33.000       -3874.455
 -26120704.675 8  20959864.373          49.000       -1042.639
 16  6 24  0 15 30.0010000  0 14G17G07G26G22S20G03G19G04G02G06G31G09
                                G01G23
  -4639529.661 7  24591196.576          43.000       -3312.980
  -3503552.915 6  24285551.143          41.000        3482.768
  -1309910.62415  25761586.204          34.000        1757.628
  11744077.84414  24494614.419          29.000       -3134.939
  24058188.128 6  38694847.627          40.000        -142.683
 -10359679.447 7  22547988.953          46.000       -2695.223
  -4481345.481 7  23812938.607          44.000       -2940.708
   -916229.621 6  25414304.849          38.000        1247.693
 -11314417.833 7  23863498.676          45.000        2974.774
 -25603157.422 8  20903508.022          49.000         659.093
   4886608.021 7  25784553.937          43.000       -3314.821
 -25440471.838 8  20432057.182          51.000         688.832
   7676560.17512  26166983.852          13.000       -3867.122
 -26089199.623 8  20965859.326          49.000       -1057.471
 16  6 24  0 16  0.0010000  0 14G17G07G26G22S20G03G19G04G02G06G31G09
                                G01G23
  -4540075.758 6  24610119.976          40.000       -3316.978
  -3607998.912 7  24265677.439          42.000        3480.157
  -1362444.89915  25751591.086          33.000        1743.636
  11838225.89615  24512529.389          32.000       -3141.001
  24062498.212 6  38695668.311          40.000        -144.497
 -10278710.219 7  22563396.990          46.000       -2702.834
  -4392963.208 7  23829757.895          44.000       -2951.092
   -953410.616 6  25407228.367          39.000        1230.818
 -11403561.268 7  23846532.946          44.000        2967.958
 -25622648.637 8  20899798.542          49.000         639.891
   4986176.300 7  25803501.296          44.000       -3323.685
 -25460897.975 8  20428170.251          52.000         672.795
   7792824.58814  26189111.252          25.000       -3874.637
 -26057278.262 8  20971933.624          49.000       -1071.062
 16  6 24  0 16 30.0010000  0 13G17G07G26G22S20G03G19G04G02G06G31G09
                                G23
  -4440507.564 6  24629067.405          41.000       -3320.954
  -3712352.750 7  24245820.016          43.000        3476.738
  -1414580.676 6  25741671.004          36.000        1730.641
  11932494.41815  24530469.015          30.000       -3145.910
  24066829.306 6  38696491.891          40.000        -145.430
 -10197507.478 7  22578849.419          45.000       -2711.059
  -4304258.844 7  23846637.456          44.000       -2962.099
   -990060.681 6  25400254.562          39.000        1212.571
 -11492460.686 7  23829615.274          43.000        2958.368
 -25641552.382 8  20896201.163          49.000         620.209
   5086006.958 7  25822498.929          43.000       -3332.499
 -25480825.490 8  20424378.807          52.000         655.728
 -26024935.918 8  20978088.334          49.000       -1085.365
 16  6 24  0 17  0.0010000  0 13G17G07G26G22S20G03G19G04G02G06G31G09
                                G23
  -4340834.749 6  24648032.423          41.000       -3324.633
  -3816618.730 7  24225979.014          43.000        3473.694
  -1466320.860 5  25731825.573          35.000        1717.555
  12026876.17115  24548432.531          32.000       -3148.174
  24071171.880 6  38697320.323          40.000        -145.358
 -10116078.790 7  22594343.450          45.000       -2718.087
  -4215242.205 7  23863576.766          43.000       -2972.788
  -1026184.753 6  25393380.171          38.000        1195.123
 -11581120.599 7  23812744.317          43.000        2951.171
 -25659874.321 8  20892715.970          49.000         600.785
   5186090.471 7  25841544.097          45.000       -3340.441
 -25500261.311 8  20420679.955          52.000         639.324
 -25992180.845 8  20984321.970          49.000       -1098.955
 16  6 24  0 17 30.0010000  0 13G17G07G26G22S20G03G19G04G02G06G31G09
                                G23
  -4241060.274 6  24667021.174          41.000       -3327.537
  -3920794.503 7  24206153.647          43.000        3471.194
  -1517663.831 6  25722054.673          36.000        1704.757
  12121369.78915  24566414.719          33.000       -3151.040
  24075525.632 6  38698148.824          40.000        -145.684
 -10034425.184 7  22609881.578          45.000       -2725.283
  -4125916.905 7  23880576.472          45.000       -2982.092
  -1061780.677 6  25386607.933          40.000        1177.980
 -11669539.133 7  23795917.595          42.000        2943.341
 -25677613.583 8  20889339.231          49.000         581.960
   5286423.583 7  25860636.781          42.000       -3348.666
 -25519205.848 8  20417074.286          51.000         623.176
 -25959014.410 8  20990633.068          49.000       -1112.429
 16  6 24  0 18  0.0010000  0 13G17G07G26G22S20G03G19G04G02G06G31G09
                                G23
  -4141194.445 6  24686021.862          39.000       -3330.481
  -4024884.164 7  24186349.378          44.000        3468.298
  -1568613.758 6  25712361.147          38.000        1691.279
  12215967.75915  24584413.554          31.000       -3153.522
  24079880.983 6  38698978.390          40.000        -144.736
  -9952554.082 7  22625461.115          45.000       -2732.209
  -4036292.839 7  23897632.751          45.000       -2992.123
  -1096853.521 6  25379934.063          40.000        1161.058
 -11757720.629 7  23779139.979          44.000        2935.170
 -25694775.773 8  20886073.493          49.000         562.662
   5386997.434 7  25879775.657          43.000       -3356.027
 -25537665.900 8  20413562.011          52.000         607.285
 -25925444.449 8  20997020.302          48.000       -1125.607
 16  6 24  0 18 30.0010000  0 13G17G07G26G22S20G03G19G04G02G06G31G09
                                G23
  -4041241.274 6  24705043.559          40.000       -3333.173
  -4128886.496 7  24166557.847          44.000        3465.339
  -1619169.316 6  25702740.824          36.000        1677.651
  12310668.75515  24602432.527          31.000       -3157.183
  24084237.952 6  38699808.043          41.000        -145.222
  -9870467.333 7  22641082.078          45.000       -2739.795
  -3946373.691 7  23914741.380          43.000       -3002.301
  -1131402.357 6  25373360.199          41.000        1143.148
 -11845663.947 7  23762404.958          45.000        2927.619
 -25711360.832 8  20882917.551          49.000         543.168
   5487808.206 7  25898960.391          43.000       -3364.095
 -25555642.718 8  20410140.896          51.000         591.212
 -25891473.073 8  21003485.241          48.000       -1138.738
 16  6 24  0 19  0.0010000  0 13G17G07G26G22S20G03G19G04G02G06G31G09
                                G23
  -3941207.101 7  24724083.090          42.000       -3335.865
  -4232801.620 7  24146782.981          44.000        3462.324
  -1669331.338 5  25693193.077          35.000        1664.973
  12405468.80615  24620475.685          32.000       -3162.173
  24088595.489 6  38700638.726          41.000        -146.194
  -9788168.882 7  22656742.986          45.000       -2747.659
  -3856166.295 7  23931905.868          43.000       -3011.458
  -1165428.478 6  25366884.109          39.000        1125.074
 -11933369.794 7  23745714.261          45.000        2919.421
 -25727370.930 8  20879871.284          49.000         523.774
   5588850.044 7  25918187.006          43.000       -3372.090
 -25573139.700 8  20406810.975          51.000         574.833
 -25857105.163 8  21010025.303          48.000       -1152.611
 16  6 24  0 19 30.0010000  0 13G17G07G26G22S20G03G19G04G02G06G31G09
                                G23
  -3841077.135 6  24743136.546          41.000       -3338.518
  -4336608.626 7  24127027.607          43.000        3458.942
  -1719079.325 6  25683725.619          36.000        1650.727
  12500384.86115  24638540.325          34.000       -3165.586
  24092970.825 6  38701470.403          41.000        -145.140
  -9705641.307 7  22672446.908          45.000       -2754.127
  -3765655.765 7  23949129.983          43.000       -3021.965
  -1198912.026 6  25360512.808          40.000        1107.503
 -12020817.619 7  23729074.239          45.000        2910.802
 -25742786.851 8  20876936.977          49.000         504.519
   5690138.193 7  25937462.063          42.000       -3380.022
 -25590138.852 8  20403576.665          51.000         559.176
 -25822323.769 8  21016643.630          48.000       -1165.664
 16  6 24  0 20  0.0010000  0 13G17G07G26G22S20G03G19G04G02G06G31G09
                                G23
  -3740874.714 7  24762205.359          42.000       -3340.675
  -4440326.273 6  24107287.240          41.000        3456.252
  -1768431.34915  25674333.842          33.000        1638.871
  12595395.71015  24656621.194          34.000       -3167.656
  24097347.183 6  38702303.180          41.000        -145.471
  -9622906.293 7  22688191.210          45.000       -2760.873
  -3674866.251 7  23966403.361          42.000       -3030.660
  -1231872.200 6  25354240.397          39.000        1089.505
 -12108026.445 7  23712478.960          45.000        2902.888
 -25757628.488 8  20874113.235          49.000         485.575
   5791649.364 7  25956778.948          44.000       -3386.930
 -25606661.318 8  20400432.641          51.000         542.957
 -25787150.873 8  21023336.923          48.000       -1178.635
 16  6 24  0 20 30.0010000  0 13G17G07G26G22S20G03G19G04G02G06G31G09
                                G23
  -3640607.015 6  24781283.787          41.000       -3342.524
  -4543955.566 7  24087567.255          42.000        3453.104
  -1817390.296 5  25665017.362          32.000        1624.370
  12690496.549 5  24674718.204          34.000       -3172.566
  24101719.068 6  38703134.788          40.000        -145.686
  -9539968.363 7  22703973.483          45.000       -2767.840
  -3583804.555 7  23983736.400          43.000       -3040.210
  -1264310.465 6  25348068.011          40.000        1072.402
 -12194997.386 7  23695926.207          44.000        2895.048
 -25771898.584 8  20871397.353          49.000         466.180
   5893376.970 6  25976137.958          39.000       -3393.981
 -25622711.048 8  20397378.435          51.000         527.025
 -25751591.724 8  21030104.152          49.000       -1191.491
 16  6 24  0 21  0.0010000  0 13G17G07G26G22S20G03G19G04G02G06G31G09
                                G23
  -3540276.491 6  24800376.820          41.000       -3345.518
  -4647493.522 7  24067867.058          42.000        3449.791
  -1865951.683 5  25655777.385          35.000        1611.891
  12785687.336 5  24692832.943          34.000       -3174.632
  24106085.857 6  38703965.174          41.000        -145.827
  -9456827.952 7  22719792.612          44.000       -2775.078
  -3492473.336 7  24001116.259          44.000       -3049.097
  -1296225.068 6  25341996.242          40.000        1054.330
 -12281727.445 7  23679421.826          44.000        2886.822
 -25785595.817 8  20868790.518          49.000         446.633
   5995319.369 6  25995536.335          40.000       -3401.366
 -25638287.955 8  20394414.637          51.000         510.978
 -25715647.224 8  21036944.271          48.000       -1204.794
 16  6 24  0 21 30.0010000  0 13G17G07G26G22S20G03G19G04G02G06G31G09
                                G23
  -3439867.785 6  24819483.238          41.000       -3347.549
  -4750919.196 7  24048184.731          42.000        3445.793
  -1914095.823 5  25646615.497          35.000        1597.570
  12880985.707 5  24710966.581          35.000       -3178.375
  24110464.216 6  38704796.991          40.000        -145.892
  -9373467.609 7  22735656.971          44.000       -2781.855
  -3400856.872 7  24018548.084          43.000       -3058.140
  -1327595.999 6  25336026.226          40.000        1037.056
 -12368196.259 7  23662968.295          45.000        2878.624
 -25798700.999 8  20866296.358          49.000         427.270
   6097492.579 7  26014978.565          42.000       -3408.959
 -25653374.050 8  20391542.733          51.000         495.101
 -25679300.174 8  21043861.328          49.000       -1217.703
 16  6 24  0 22  0.0010000  0 13G17G07G26G22S20G03G19G04G02G06G31G09
                                G23
  -3339393.775 6  24838604.140          41.000       -3350.026
  -4854239.518 7  24028525.298          44.000        3442.121
  -1961829.600 5  25637530.530          35.000        1584.134
  12976381.754 5  24729119.694          35.000       -3181.381
  24114847.894 6  38705632.193          40.000        -145.944
  -9289897.360 7  22751560.000          45.000       -2789.065
  -3308968.959 7  24036037.111          44.000       -3067.901
  -1358430.761 6  25330157.858          40.000        1018.539
 -12454410.856 7  23646562.612          45.000        2869.569
 -25811222.461 8  20863914.002          49.000         407.741
   6199883.962 6  26034463.653          38.000       -3415.896
 -25667978.881 8  20388763.960          51.000         478.951
 -25642561.325 8  21050852.653          48.000       -1230.848
 16  6 24  0 22 30.0010000  0 13G17G07G26G22S20G03G19G04G02G06G31G09
                                G23
  -3238856.962 7  24857735.843          42.000       -3353.396
  -4957451.670 7  24008885.340          44.000        3437.915
  -2009150.505 5  25628525.834          35.000        1569.604
  13071874.319 6  24747294.165          36.000       -3185.261
  24119237.676 6  38706465.964          40.000        -146.786
  -9206117.934 7  22767502.345          45.000       -2796.688
  -3216812.430 7  24053571.194          43.000       -3076.436
  -1388727.626 6  25324391.852          41.000        1000.515
 -12540369.093 7  23630204.604          45.000        2860.019
 -25823159.263 8  20861642.420          49.000         387.347
   6302491.16814  26053988.806          26.000       -3424.200
 -25682102.682 8  20386076.661          51.000         461.814
 -25605432.113 8  21057917.618          48.000       -1244.962
 16  6 24  0 23  0.0010000  0 13G17G07G26G22S20G03G19G04G02G06G31G09
                                G23
  -3138268.282 6  24876876.359          41.000       -3353.937
  -5060561.072 7  23989264.786          44.000        3434.453
  -2056064.119 5  25619599.925          35.000        1556.102
  13167455.055 5  24765481.358          35.000       -3187.494
  24123622.049 6  38707301.289          40.000        -145.993
  -9122137.810 7  22783484.039          45.000       -2802.124
  -3124398.094 7  24071156.233          43.000       -3085.047
  -1418492.848 6  25318728.262          41.000         983.420
 -12626076.418 7  23613895.665          45.000        2852.860
 -25834518.245 8  20859480.460          49.000         368.877
   6405304.02912  26073554.741          16.000       -3430.192
 -25695753.499 8  20383479.301          51.000         447.214
 -25567921.327 8  21065055.629          48.000       -1256.778
 16  6 24  0 23 30.0010000  0 13G17G07G26G22S20G03G19G04G02G06G31G09
                                G23
  -3037619.542 7  24896030.241          42.000       -3356.053
  -5163552.998 7  23969664.073          43.000        3431.158
  -2102556.598 5  25610753.363          34.000        1542.744
  13263134.667 5  24783686.664          35.000       -3191.485
  24128013.308 6  38708138.690          40.000        -146.085
  -9037946.124 7  22799506.149          46.000       -2810.032
  -3031717.501 7  24088796.623          44.000       -3093.871
  -1447712.950 6  25313168.395          40.000         963.910
 -12711518.490 7  23597637.681          46.000        2843.859
 -25845286.863 8  20857431.874          50.000         348.834
   6508357.41713  26093159.676          21.000       -3438.124
 -25708919.902 8  20380973.607          51.000         430.680
 -25530018.905 7  21072267.386          47.000       -1270.003
 16  6 24  0 24  0.0010000  0 12G17G07G26G22S20G03G19G04G02G06G09G23
  -2936896.156 7  24915197.089          42.000       -3358.655
  -5266407.855 7  23950091.525          43.000        3425.911
  -2148608.377 5  25601989.794          35.000        1527.156
  13358929.991 5  24801917.326          35.000       -3195.290
  24132425.296 6  38708977.661          40.000        -147.117
  -8953526.448 7  22815571.412          46.000       -2817.590
  -2938756.686 7  24106484.163          43.000       -3103.012
  -1476368.848 7  25307715.673          42.000         945.741
 -12796675.961 7  23581434.055          46.000        2834.384
 -25855447.069 8  20855497.814          50.000         328.987
 -25721585.060 8  20378562.842          51.000         414.045
 -25491708.797 7  21079557.092          47.000       -1283.271
 16  6 24  0 24 30.0010000  0 12G17G07G26G22S20G03G19G04G02G06G09G23
  -2836111.227 6  24934374.320          41.000       -3360.255
  -5369133.147 6  23930542.151          41.000        3421.527
  -2194227.399 5  25593309.532          35.000        1513.296
  13454829.885 6  24820164.617          36.000       -3197.311
  24136848.529 6  38709819.983          40.000        -147.071
  -8868889.769 7  22831677.475          47.000       -2824.583
  -2845528.894 7  24124224.369          43.000       -3111.478
  -1504469.292 6  25302367.583          41.000         927.487
 -12881556.523 7  23565281.697          46.000        2825.007
 -25865008.216 8  20853678.891          50.000         308.693
 -25733759.495 8  20376246.744          51.000         397.473
 -25453002.528 7  21086922.689          47.000       -1296.810
 16  6 24  0 25  0.0010000  0 12G17G07G26G22S20G03G19G04G02G06G09G23
  -2735278.513 6  24953563.574          41.000       -3361.207
  -5471737.060 6  23911015.951          41.000        3418.665
  -2239422.051 6  25584708.756          37.000        1498.627
  13550822.998 6  24838431.662          36.000       -3201.388
  24141275.540 6  38710661.904          40.000        -147.061
  -8784047.468 7  22847822.573          47.000       -2831.729
  -2752048.045 7  24142014.988          44.000       -3120.158
  -1532023.164 6  25297124.264          41.000         909.415
 -12966168.746 7  23549178.514          46.000        2816.039
 -25873980.092 8  20851971.213          50.000         289.116
 -25745454.150 8  20374021.336          51.000         381.634
 -25413911.895 7  21094361.543          47.000       -1309.491
 16  6 24  0 25 30.0010000  0 12G17G07G26G22S20G03G19G04G02G06G09G23
  -2634400.104 6  24972759.983          41.000       -3363.619
  -5574215.790 7  23891515.769          42.000        3414.665
  -2284189.004 6  25576190.833          36.000        1485.314
  13646909.736 6  24856714.970          36.000       -3204.918
  24145706.380 6  38711504.924          40.000        -147.577
  -8698999.226 7  22864006.254          47.000       -2838.509
  -2658316.379 7  24159851.344          44.000       -3128.180
  -1559028.094 6  25291985.367          41.000         891.662
 -13050508.910 7  23533129.147          46.000        2807.079
 -25882360.843 8  20850376.664          50.000         269.796
 -25756668.343 8  20371886.982          51.000         365.776
 -25374437.326 8  21101873.268          48.000       -1322.089
 16  6 24  0 26  0.0010000  0 12G17G07G26G22S20G03G19G04G02G06G09G23
  -2533471.752 7  24991966.216          42.000       -3365.328
  -5676559.511 7  23872039.790          42.000        3408.831
  -2328518.540 6  25567755.241          37.000        1469.869
  13743096.903 5  24875015.886          33.000       -3208.971
  24150152.108 6  38712349.986          40.000        -148.419
  -8613738.287 7  22880230.647          46.000       -2845.531
  -2564329.620 7  24177736.823          44.000       -3136.797
  -1585474.495 6  25286952.933          41.000         872.125
 -13134567.189 7  23517133.213          45.000        2797.100
 -25890142.142 8  20848897.636          51.000         249.298
 -25767394.851 8  20369845.516          51.000         349.406
 -25334572.815 8  21109459.244          48.000       -1335.404
 16  6 24  0 26 30.0010000  0 12G17G07G26G22S20G03G19G04G02G06G09G23
  -2432493.485 7  25011181.331          42.000       -3366.484
  -5778763.004 7  23852595.187          43.000        3404.347
  -2372406.363 6  25559402.886          37.000        1455.417
  13839386.025 5  24893339.191          32.000       -3209.863
  24154613.209 6  38713200.632          40.000        -149.002
  -8528263.371 7  22896495.174          46.000       -2852.480
  -2470088.573 7  24195670.586          44.000       -3145.459
  -1611358.972 6  25282026.545          41.000         853.163
 -13218339.434 7  23501193.504          46.000        2787.356
 -25897321.169 8  20847529.678          50.000         229.263
 -25777631.977 8  20367897.705          51.000         333.173
 -25294317.402 8  21117118.947          48.000       -1348.126
 16  6 24  0 27  0.0010000  0 12G17G07G26G22S20G03G19G04G02G06G09G23
  -2331481.198 7  25030402.432          42.000       -3368.128
  -5880836.087 7  23833170.303          44.000        3400.152
  -2415862.422 6  25551132.408          37.000        1440.860
  13935764.19715  24911679.544          34.000       -3214.878
  24159075.934 6  38714050.021          40.000        -148.783
  -8442587.426 7  22912799.384          46.000       -2859.315
  -2375608.845 7  24213649.423          44.000       -3153.719
  -1636692.396 6  25277205.887          40.000         835.276
 -13301835.424 7  23485303.754          46.000        2778.639
 -25903909.365 8  20846276.159          50.000         209.652
 -25787392.295 8  20366040.304          51.000         317.333
 -25253684.500 8  21124851.750          48.000       -1361.063
 16  6 24  0 27 30.0010000  0 12G17G07G26G22S20G03G19G04G02G06G09G23
  -2230436.029 7  25049632.118          42.000       -3368.789
  -5982774.159 7  23813774.002          44.000        3395.663
  -2458882.956 5  25542944.190          35.000        1427.357
  14032231.93615  24930032.654          30.000       -3217.837
  24163542.102 6  38714900.893          40.000        -148.923
  -8356709.583 7  22929140.536          45.000       -2866.226
  -2280891.795 7  24231672.374          43.000       -3161.283
  -1661471.740 6  25272490.821          41.000         816.500
 -13385050.965 7  23469468.031          46.000        2769.222
 -25909904.409 8  20845134.374          50.000         189.989
 -25796674.568 8  20364274.325          51.000         301.347
 -25212673.849 8  21132656.464          48.000       -1373.186
 16  6 24  0 28  0.0010000  0 12G17G07G26G22S20G03G19G04G02G06G09G23
  -2129360.738 7  25068865.679          42.000       -3369.417
  -6084574.953 7  23794401.136          44.000        3391.057
  -2501465.630 6  25534843.258          37.000        1412.204
  14128788.98415  24948411.275          32.000       -3216.943
  24168013.723 6  38715750.946          40.000        -148.291
  -8270630.393 7  22945520.915          45.000       -2872.121
  -2185940.571 7  24249742.459          44.000       -3168.581
  -1685694.712 6  25267882.498          39.000         798.795
 -13467983.505 7  23453686.350          45.000        2760.149
 -25915305.319 8  20844107.342          50.000         170.567
 -25805478.948 8  20362599.051          51.000         285.874
 -25171286.725 8  21140532.515          49.000       -1385.226
 16  6 24  0 28 30.0010000  0 12G17G07G26G22S20G03G19G04G02G06G09G23
  -2028261.112 7  25088106.132          43.000       -3370.521
  -6186238.324 7  23775053.836          44.000        3386.506
  -2543610.959 6  25526822.893          36.000        1396.809
  14225431.86015  24966803.107          31.000       -3224.245
  24172488.181 6  38716601.208          40.000        -149.539
  -8184353.426 7  22961938.080          45.000       -2879.293
  -2090761.495 7  24267854.720          44.000       -3176.556
  -1709362.850 6  25263377.794          39.000         779.500
 -13550633.627 7  23437958.609          45.000        2749.696
 -25920114.258 8  20843192.566          50.000         150.332
 -25813808.631 8  20361013.420          51.000         269.653
 -25129527.072 8  21148478.908          49.000       -1398.361
 16  6 24  0 29  0.0010000  0 12G17G07G26G22S20G03G19G04G02G06G09G23
  -1927143.050 7  25107346.916          42.000       -3371.581
  -6287764.384 7  23755734.054          44.000        3381.148
  -2585319.864 6  25518887.494          38.000        1382.377
  14322156.96115  24985210.452          34.000       -3225.768
  24176960.179 6  38717450.458          40.000        -149.565
  -8097882.324 7  22978393.077          45.000       -2885.605
  -1995360.185 7  24286007.065          43.000       -3184.156
  -1732477.864 6  25258978.297          39.000         761.364
 -13633001.806 7  23422284.003          45.000        2740.203
 -25924333.418 8  20842388.984          49.000         130.428
 -25821666.931 8  20359518.215          51.000         253.768
 -25087399.329 8  21156494.735          48.000       -1410.755
 16  6 24  0 29 30.0010000  0 12G17G07G26G22S20G03G19G04G02G06G09G23
  -1826003.601 7  25126594.820          43.000       -3371.826
  -6389144.656 7  23736442.995          44.000        3377.361
  -2626584.188 5  25511033.727          34.000        1368.467
  14418969.331 5  25003634.339          33.000       -3228.330
  24181435.240 6  38718301.923          40.000        -149.458
  -8011211.905 7  22994886.691          44.000       -2891.972
  -1899734.197 7  24304204.257          43.000       -3191.379
  -1755032.338 6  25254687.149          38.000         742.265
 -13715079.623 7  23406663.755          44.000        2731.377
 -25927956.235 8  20841700.154          49.000         110.671
 -25829048.365 8  20358113.577          52.000         238.237
 -25044898.852 8  21164582.213          48.000       -1422.916
 16  6 24  0 30  0.0010000  0 12G17G07G26G22S20G03G19G04G02G06G09G23
  -1724852.350 7  25145842.009          42.000       -3371.357
  -6490383.389 7  23717177.292          44.000        3373.060
  -2667408.785 6  25503265.850          37.000        1352.891
  14515861.52515  25022072.972          32.000       -3230.733
  24185904.231 6  38719151.295          40.000        -148.220
  -7924349.915 7  23011414.246          44.000       -2898.550
  -1803893.648 7  24322443.364          44.000       -3197.560
  -1777031.713 6  25250500.231          38.000         724.812
 -13796871.798 7  23391101.354          45.000        2722.180
 -25930989.082 8  20841123.197          50.000          91.822
 -25835960.341 8  20356798.250          52.000         223.233
 -25002034.062 8  21172739.440          48.000       -1434.375
 16  6 24  0 30 30.0010000  0 12G17G07G26G22S20G03G19G04G02G06G09G23
  -1623707.530 7  25165089.128          42.000       -3371.461
  -6591492.917 7  23697936.245          44.000        3367.639
  -2707806.332 6  25495576.795          36.000        1338.290
  14612817.89115  25040522.232          31.000       -3233.436
  24190352.457 6  38719998.399          40.000        -148.089
  -7837311.895 7  23027977.609          44.000       -2904.894
  -1707856.277 7  24340718.576          44.000       -3204.915
  -1798489.515 6  25246415.798          38.000         705.813
 -13878390.615 7  23375587.884          44.000        2712.429
 -25933446.079 8  20840655.933          49.000          71.923
 -25842418.062 8  20355568.760          52.000         207.315
 -24958820.776 8  21180962.087          48.000       -1446.311
 16  6 24  0 31  0.0010000  0 12G17G07G26G22S20G03G19G04G02G06G09G23
  -1522565.541 7  25184336.492          42.000       -3371.352
  -6692464.734 7  23678722.038          44.000        3363.406
  -2747768.771 6  25487973.980          38.000        1324.720
  14709843.33915  25058988.402          33.000       -3235.623
  24194787.815 6  38720841.436          40.000        -148.022
  -7750092.700 7  23044575.733          44.000       -2909.952
  -1611619.554 7  24359032.440          44.000       -3210.926
  -1819398.311 6  25242437.183          39.000         686.995
 -13959628.016 7  23360130.934          45.000        2703.102
 -25935320.817 8  20840297.854          49.000          52.792
 -25848416.114 8  20354427.743          52.000         192.247
 -24915254.501 8  21189253.000          49.000       -1458.118
 16  6 24  0 31 30.0010000  0 12G17G07G26G22S20G03G19G04G02G06G09G23
  -1421439.329 7  25203581.900          42.000       -3370.790
  -6793306.419 7  23659532.714          45.000        3359.229
  -2787303.970 6  25480451.522          38.000        1310.420
  14806927.705 5  25077461.987          32.000       -3236.888
  24199201.768 6  38721682.711          40.000        -147.405
  -7662702.951 7  23061205.947          44.000       -2915.854
  -1515196.435 7  24377379.721          43.000       -3217.411
  -1839766.525 6  25238562.293          39.000         669.995
 -14040591.278 7  23344724.032          45.000        2694.064
 -25936622.511 8  20840051.545          49.000          33.492
 -25853964.768 8  20353372.650          52.000         177.226
 -24871346.577 8  21197608.810          49.000       -1469.392
 16  6 24  0 32  0.0010000  0 12G17G07G26G22S20G03G19G04G02G06G09G23
  -1320334.772 7  25222819.998          43.000       -3369.500
  -6894016.893 7  23640367.995          45.000        3355.287
  -2826412.533 6  25473007.853          38.000        1295.662
  14904067.621 5  25095947.317          31.000       -3239.943
  24203588.025 6  38722516.500          39.000        -146.051
  -7575146.015 7  23077867.520          44.000       -2921.652
  -1418593.008 7  24395762.949          43.000       -3222.811
  -1859596.041 6  25234788.474          40.000         652.105
 -14121280.648 7  23329368.364          45.000        2685.418
 -25937353.288 8  20839912.711          49.000          14.950
 -25859067.189 8  20352401.842          52.000         162.617
 -24827100.981 8  21206028.609          49.000       -1480.272
 16  6 24  0 32 30.0010000  0 12G17G07G26G22S20G03G19G04G02G06G09G23
  -1219241.580 7  25242058.566          42.000       -3369.730
  -6994581.229 7  23621232.295          45.000        3349.500
  -2865079.565 6  25465651.033          39.000        1281.301
  15001275.025 5  25114444.932          31.000       -3239.623
  24207960.049 6  38723347.671          39.000        -145.250
  -7487409.830 7  23094563.958          44.000       -2928.029
  -1321799.168 7  24414182.160          43.000       -3229.504
  -1878872.108 6  25231120.456          39.000         633.819
 -14201681.345 7  23314068.816          45.000        2674.981
 -25937499.805 8  20839883.743          49.000          -4.675
 -25863710.987 8  20351517.587          52.000         146.931
 -24782506.388 8  21214515.313          49.000       -1492.225
 16  6 24  0 33  0.0010000  0 12G17G07G26G22S20G03G19G04G02G06G09G23
  -1118155.219 7  25261293.627          42.000       -3369.987
  -7094989.906 7  23602124.132          45.000        3344.343
  -2903295.209 6  25458378.375          38.000        1266.712
  15098556.84315  25132956.088          32.000       -3243.348
  24212327.719 6  38724179.227          39.000        -145.723
  -7399487.395 7  23111294.267          44.000       -2933.915
  -1224810.816 7  24432636.917          42.000       -3236.200
  -1897586.097 6  25227559.145          39.000         613.611
 -14281782.739 7  23298824.899          44.000        2664.870
 -25937053.738 8  20839968.988          49.000         -24.770
 -25867888.922 8  20350722.608          52.000         131.397
 -24737556.065 8  21223068.415          49.000       -1504.360
 16  6 24  0 33 30.0010000  0 12G17G07G26G22S20G03G19G04G02G06G09G23
  -1017085.035 7  25280526.821          42.000       -3369.012
  -7195245.486 7  23583047.135          46.000        3339.710
  -2941064.013 6  25451190.212          38.000        1251.872
  15195905.86314  25151481.658          28.000       -3246.047
  24216685.178 6  38725007.990          39.000        -145.541
  -7311385.957 7  23128059.075          44.000       -2939.282
  -1127637.370 7  24451129.018          42.000       -3242.704
  -1915743.155 6  25224104.857          40.000         595.573
 -14361589.035 7  23283637.451          43.000        2655.605
 -25936021.146 8  20840165.861          49.000         -43.748
 -25871607.977 8  20350014.757          52.000         116.611
 -24692258.085 8  21231688.492          50.000       -1515.268
 16  6 24  0 34  0.0010000  0 12G17G07G26G22S20G03G19G04G02G06G09G23
   -916032.034 7  25299756.106          42.000       -3368.132
  -7295343.479 7  23563999.350          46.000        3333.986
  -2978382.223 6  25444089.265          38.000        1236.607
  15293323.36114  25170013.475          26.000       -3248.870
  24221036.341 6  38725835.479          39.000        -144.483
  -7223104.609 7  23144859.202          44.000       -2945.303
  -1030280.051 7  24469656.961          43.000       -3248.286
  -1933340.082 6  25220754.939          39.000         577.659
 -14441096.268 7  23268508.915          43.000        2645.452
 -25934399.904 8  20840474.363          49.000         -63.770
 -25874866.998 8  20349395.135          52.000         100.937
 -24646611.980 8  21240374.425          49.000       -1527.305
 16  6 24  0 34 30.0010000  0 12G17G07G26G22S20G03G19G04G02G06G09G23
   -814987.143 7  25318985.164          42.000       -3368.289
  -7395270.297 7  23544983.255          46.000        3328.284
  -3015236.440 6  25437077.087          38.000        1220.820
  15390820.09514  25188568.955          28.000       -3250.823
  24225392.073 6  38726665.010          39.000        -145.089
  -7134632.652 7  23161694.806          44.000       -2951.481
   -932730.790 7  24488219.647          43.000       -3255.069
  -1950364.499 6  25217515.638          40.000         558.422
 -14520290.600 7  23253437.598          43.000        2634.952
 -25932178.071 8  20840897.008          49.000         -83.697
 -25877655.060 8  20348864.194          52.000          85.070
 -24600607.818 8  21249128.937          50.000       -1539.227
 16  6 24  0 35  0.0010000  0 13G17G07G26G22S20G03G19G04G02G06G09G16
                                G23
   -713959.440 6  25338207.573          41.000       -3367.807
  -7495029.168 7  23525999.076          46.000        3322.510
  -3051630.189 6  25430151.514          38.000        1204.594
  15488389.76714  25207139.808          27.000       -3254.739
  24229744.759 6  38727495.763          40.000        -144.640
  -7045976.336 7  23178565.729          44.000       -2959.042
   -834998.400 7  24506817.461          43.000       -3261.387
  -1966820.727 6  25214384.126          40.000         539.079
 -14599175.036 7  23238426.118          42.000        2624.054
 -25929360.744 8  20841433.166          49.000        -103.796
 -25879978.149 8  20348421.622          52.000          69.735
    -75935.76914  25643997.266          29.000        2534.976
 -24554252.261 8  21257949.865          50.000       -1551.181
 16  6 24  0 35 30.0010000  0 13G17G07G26G22S20G03G19G04G02G06G09G16
                                G23
   -612957.351 7  25357430.733          43.000       -3366.559
  -7594622.296 7  23507047.057          46.000        3316.973
  -3087566.885 6  25423310.976          38.000        1190.253
  15586014.86114  25225708.515          25.000       -3255.454
  24234088.187 6  38728321.542          40.000        -145.089
  -6957141.849 7  23195471.343          44.000       -2963.499
   -737091.616 7  24525447.314          43.000       -3266.493
  -1982712.877 6  25211359.864          40.000         520.564
 -14677752.841 7  23223471.142          42.000        2613.958
 -25925952.975 8  20842081.947          49.000        -123.410
 -25881842.305 8  20348066.824          52.000          54.356
   -151841.94215  25629554.123          30.000        2525.236
 -24507552.251 8  21266836.895          49.000       -1562.411
 16  6 24  0 36  0.0010000  0 13G17G07G26G22S20G03G19G04G02G06G09G16
                                G23
   -511995.067 6  25376639.863          40.000       -3364.599
  -7694059.327 7  23488125.018          46.000        3312.003
  -3123056.681 6  25416558.998          39.000        1175.184
  15683705.18714  25244306.852          25.000       -3255.799
  24238408.777 6  38729143.936          40.000        -142.761
  -6868141.973 7  23212406.203          44.000       -2968.741
   -639025.877 7  24544108.734          42.000       -3271.228
  -1998051.896 6  25208440.704          39.000         503.019
 -14756033.393 7  23208574.694          42.000        2604.893
 -25921966.421 8  20842840.438          49.000        -142.319
 -25883260.078 8  20347797.113          52.000          39.937
   -227500.38014  25615154.936          25.000        2514.516
 -24460521.077 8  21275786.396          50.000       -1573.248
 16  6 24  0 36 30.0010000  0 13G17G07G26G22S20G03G19G04G02G06G09G16
                                G23
   -411063.219 6  25395847.230          41.000       -3363.587
  -7793324.958 7  23469235.908          47.000        3306.287
  -3158084.925 6  25409893.766          39.000        1160.253
  15781461.41314  25262905.434          26.000       -3259.940
  24242719.264 6  38729965.579          40.000        -142.327
  -6778964.690 7  23229375.772          44.000       -2975.422
   -540790.982 7  24562803.344          42.000       -3277.096
  -2012824.151 6  25205630.713          39.000         483.475
 -14834001.797 7  23193739.356          43.000        2594.320
 -25917387.930 8  20843710.733          49.000        -162.055
 -25884219.252 8  20347615.718          52.000          24.758
   -302906.52914  25600804.435          27.000        2509.674
 -24413147.367 8  21284801.492          49.000       -1584.219
 16  6 24  0 37  0.0010000  0 13G17G07G26G22S20G03G19G04G02G06G09G16
                                G23
   -310163.709 6  25415048.036          39.000       -3362.414
  -7892415.680 7  23450379.046          46.000        3300.168
  -3192648.787 6  25403316.831          39.000        1144.855
  15879284.11714  25281524.066          28.000       -3261.902
  24247022.379 6  38730784.117          40.000        -143.505
  -6689609.964 7  23246378.514          44.000       -2980.568
   -442389.184 6  24581527.462          41.000       -3283.144
  -2027027.640 6  25202926.627          38.000         462.741
 -14911654.935 7  23178963.053          44.000        2583.373
 -25912216.339 8  20844696.164          49.000        -182.253
 -25884719.617 8  20347520.091          52.000           8.995
   -378052.69414  25586505.988          29.000        2499.058
 -24365431.699 8  21293881.399          49.000       -1595.886
 16  6 24  0 37 30.0010000  0 13G17G07G26G22S20G03G19G04G02G06G09G16
                                G23
   -209310.785 6  25434240.816          38.000       -3361.655
  -7991340.080 7  23431555.426          47.000        3294.569
  -3226758.097 6  25396825.455          39.000        1129.521
  15977160.49814  25300153.081          27.000       -3263.251
  24251307.864 6  38731600.002          40.000        -142.759
  -6600090.182 7  23263415.249          44.000       -2987.258
   -343835.626 7  24600282.450          42.000       -3288.187
  -2040672.683 6  25200331.623          37.000         445.695
 -14989002.178 7  23164245.522          44.000        2572.935
 -25906463.051 8  20845791.026          49.000        -201.809
 -25884773.379 8  20347508.993          52.000          -5.811
   -452946.63214  25572254.151          29.000        2492.586
 -24317387.062 8  21303024.161          49.000       -1607.131
 16  6 24  0 38  0.0010000  0 13G17G07G26G22S20G03G19G04G02G06G09G16
                                G23
   -108498.227 6  25453422.304          38.000       -3359.636
  -8090087.031 7  23412763.147          47.000        3288.569
  -3260402.381 6  25390423.598          40.000        1113.814
  16075098.33214  25318781.659          27.000       -3265.138
  24255580.237 6  38732412.292          40.000        -142.285
  -6510397.480 7  23280482.382          44.000       -2992.473
   -245124.804 7  24619066.406          42.000       -3292.841
  -2053749.685 6  25197841.826          37.000         426.251
 -15066031.827 7  23149587.862          44.000        2562.553
 -25900119.156 8  20846997.464          49.000        -221.202
 -25884372.534 8  20347585.058          52.000         -20.745
   -527576.29915  25558051.925          31.000        2484.760
 -24269006.145 8  21312229.797          48.000       -1618.090
 16  6 24  0 38 30.0010000  0 13G17G07G26G22S20G03G19G04G02G06G09G16
                                G23
     -7720.133 6  25472598.872          36.000       -3357.791
  -8188644.319 7  23394008.927          47.000        3281.573
  -3293569.889 6  25384110.947          39.000        1097.658
  16173106.98914  25337440.427          28.000       -3267.683
  24259850.230 6  38733225.385          40.000        -142.973
  -6420522.857 7  23297584.189          44.000       -2999.027
   -146249.936 7  24637881.649          42.000       -3299.026
  -2066248.302 6  25195463.274          37.000         406.686
 -15142732.091 7  23134992.343          44.000        2551.202
 -25893174.536 8  20848319.615          49.000        -241.658
 -25883507.867 8  20347750.225          52.000         -36.783
   -601928.78315  25543905.016          30.000        2473.957
 -24220280.648 8  21321502.267          49.000       -1630.167
 16  6 24  0 39  0.0010000  0 12G17G07G26S20G03G19G04G02G06G09G16G23
     93016.830 6  25491768.687          37.000       -3356.242
  -8287013.504 7  23375288.316          46.000        3276.457
  -3326263.271 6  25377890.258          39.000        1082.140
  24264115.581 6  38734037.326          40.000        -142.212
  -6330471.386 7  23314720.355          43.000       -3003.715
    -47218.316 7  24656726.994          42.000       -3303.076
  -2078171.563 6  25193196.002          38.000         388.882
 -15219104.936 7  23120459.627          45.000        2540.593
 -25885633.352 8  20849754.127          49.000        -260.761
 -25882184.375 8  20348002.136          52.000         -51.255
   -676004.85315  25529808.503          32.000        2463.271
 -24171216.184 8  21330839.425          48.000       -1640.468
 16  6 24  0 39 30.0010000  0 13G17G07G26G22S20G03G19G04G02G06G09G16
                                G23
    193702.455 6  25510928.240          36.000       -3356.671
  -8385199.494 7  23356604.612          46.000        3269.409
  -3358488.411 6  25371757.781          38.000        1065.990
  16369226.71715  25374779.024          31.000       -3272.420
  24268369.335 6  38734846.405          40.000        -142.012
  -6240251.624 7  23331889.013          44.000       -3010.497
     51958.389 7  24675600.330          43.000       -3309.250
  -2089526.099 6  25191034.583          38.000         368.639
 -15295155.822 7  23105987.237          45.000        2529.027
 -25877503.110 8  20851300.723          49.000        -280.823
 -25880410.456 8  20348340.635          52.000         -66.729
   -749809.241 5  25515764.027          35.000        2455.533
 -24121821.736 8  21340238.740          48.000       -1652.410
 16  6 24  0 40  0.0010000  0 13G17G07G26G22S20G03G19G04G02G06G09G16
                                G23
    294344.919 6  25530080.465          38.000       -3354.410
  -8483189.320 7  23337956.943          46.000        3263.289
  -3390232.479 6  25365716.445          39.000        1049.897
  16467412.63715  25393467.230          30.000       -3274.821
  24272624.185 6  38735656.322          40.000        -141.313
  -6149853.340 7  23349090.670          43.000       -3016.586
    151288.643 7  24694503.296          43.000       -3313.337
  -2100300.256 6  25188984.619          39.000         351.039
 -15370871.263 7  23091578.557          45.000        2518.234
 -25868772.631 8  20852961.826          49.000        -301.065
 -25878175.693 8  20348765.391          52.000         -82.093
   -823327.968 5  25501773.664          33.000        2446.789
 -24072088.065 8  21349702.238          48.000       -1663.344
 16  6 24  0 40 30.0010000  0 13G17G07G26G22S20G03G19G04G02G06G09G16
                                G23
    394951.399 6  25549223.773          36.000       -3351.966
  -8580969.431 7  23319350.282          46.000        3255.970
  -3421483.678 6  25359770.615          40.000        1033.063
  16565688.91115  25412165.522          30.000       -3276.784
  24276890.511 6  38736470.340          41.000        -143.070
  -6059267.245 7  23366328.885          44.000       -3022.498
    250779.227 6  24713432.262          41.000       -3319.809
  -2110482.984 6  25187048.552          40.000         329.408
 -15446239.195 7  23077236.468          44.000        2506.207
 -25859431.751 8  20854740.492          49.000        -321.702
 -25875470.772 8  20349279.754          52.000         -98.098
   -896547.904 5  25487839.473          32.000        2436.021
 -24022006.610 8  21359232.081          48.000       -1675.604
 16  6 24  0 41  0.0010000  0 13G17G07G26G22S20G03G19G04G02G06G09G16
                                G23
    495515.19916  25568362.212          37.000       -3352.121
  -8678541.589 7  23300782.238          46.000        3249.078
  -3452244.170 6  25353917.376          39.000        1018.200
  16664036.83814  25430879.572          25.000       -3279.350
  24281161.845 6  38737281.059          41.000        -142.403
  -5968498.029 7  23383602.036          44.000       -3028.635
    350422.825 7  24732394.855          42.000       -3323.533
  -2120077.176 6  25185222.823          40.000         310.326
 -15521260.754 7  23062957.775          44.000        2495.198
 -25849484.165 8  20856632.986          49.000        -341.473
 -25872300.199 8  20349882.659          52.000        -113.284
   -969469.303 5  25473962.397          31.000        2427.026
 -23971582.250 8  21368826.978          48.000       -1686.182
 16  6 24  0 41 30.0010000  0 13G17G07G26G22S20G03G19G04G02G06G09G16
                                G23
    596028.624 6  25587489.256          37.000       -3350.088
  -8775908.045 7  23282255.446          46.000        3242.274
  -3482517.184 6  25348155.785          39.000        1001.094
  16762452.84113  25449602.661          22.000       -3283.723
  24285433.164 6  38738094.711          40.000        -141.843
  -5877551.432 7  23400908.464          43.000       -3034.522
    450211.625 7  24751386.032          43.000       -3328.390
  -2129087.202 6  25183506.786          40.000         291.232
 -15595938.921 7  23048749.301          45.000        2484.047
 -25838934.795 8  20858639.621          49.000        -361.542
 -25868669.672 8  20350574.019          52.000        -128.476
  -1042094.57314  25460141.196          29.000        2417.215
 -23920821.501 8  21378487.000          48.000       -1697.382
 16  6 24  0 42  0.0010000  0 14G17G07G26G22S20G03G30G19G04G02G06G09
                                G16G23
    696486.647 5  25606604.696          34.000       -3346.852
  -8873068.049 7  23263766.417          47.000        3235.067
  -3512303.058 6  25342487.902          39.000         985.093
  16860926.00214  25468351.524          27.000       -3284.322
  24289699.674 6  38738905.832          41.000        -142.188
  -5786430.324 7  23418249.425          44.000       -3040.561
   1668501.09916  25336150.768          38.000        3714.019
    550140.016 7  24770399.842          42.000       -3333.090
  -2137513.909 6  25181903.861          40.000         271.354
 -15670273.170 7  23034604.835          45.000        2471.995
 -25827785.588 8  20860760.922          49.000        -381.618
 -25864581.911 8  20351352.665          52.000        -143.908
  -1114422.14514  25446377.442          29.000        2405.141
 -23869727.647 8  21388210.139          48.000       -1708.815
 16  6 24  0 42 30.0010000  0 14G17G07G26G22S20G03G30G19G04G02G06G09
                                G16G23
    796892.553 6  25625713.469          38.000       -3345.985
  -8970014.164 7  23245318.483          47.000        3228.174
  -3541594.924 6  25336914.215          39.000         967.767
  16959477.98514  25487090.894          25.000       -3283.622
  24293966.569 6  38739719.413          41.000        -142.478
  -5695130.333 7  23435623.490          44.000       -3046.201
   1557048.216 6  25314939.994          38.000        3715.426
    650210.494 7  24789442.811          42.000       -3337.361
  -2145351.547 6  25180411.763          41.000         251.607
 -15744256.215 7  23020527.134          46.000        2460.136
 -25816031.298 8  20862998.494          49.000        -401.873
 -25860032.494 8  20352217.899          52.000        -159.295
  -1186443.91414  25432672.372          29.000        2393.073
 -23818297.023 8  21397997.722          48.000       -1720.112
 16  6 24  0 43  0.0010000  0 14G17G07G26G22S20G03G30G19G04G02G06G09
                                G16G23
    897241.018 6  25644810.098          39.000       -3342.280
  -9066744.986 7  23226910.667          47.000        3220.457
  -3570392.487 6  25331434.585          39.000         951.218
  17058089.93414  25505866.264          25.000       -3288.692
  24298235.226 6  38740531.948          41.000        -142.042
  -5603653.587 7  23453030.519          44.000       -3052.541
   1445560.254 6  25293725.398          39.000        3717.209
    750418.543 6  24808512.670          41.000       -3343.033
  -2152601.107 6  25179032.864          40.000         232.289
 -15817886.868 7  23006514.033          45.000        2448.250
 -25803673.299 8  20865350.190          49.000        -421.887
 -25855023.478 8  20353170.908          52.000        -174.719
  -1258157.86115  25419026.599          30.000        2386.113
 -23766532.298 8  21407848.230          48.000       -1731.209
 16  6 24  0 43 30.0010000  0 14G17G07G26G22S20G03G30G19G04G02G06G09
                                G16G23
    997523.530 6  25663892.242          36.000       -3342.093
  -9163263.687 7  23208542.865          46.000        3213.433
  -3598700.459 6  25326047.546          40.000         935.002
  17156762.17114  25524646.083          26.000       -3289.652
  24302499.337 6  38741343.086          41.000        -142.093
  -5512007.208 7  23470471.104          44.000       -3057.808
   1334033.249 6  25272501.745          38.000        3717.208
    850754.352 6  24827605.494          41.000       -3347.073
  -2159267.742 6  25177764.914          41.000         212.082
 -15891169.106 7  22992570.001          46.000        2436.525
 -25790717.880 8  20867815.661          49.000        -441.903
 -25849561.909 8  20354210.191          52.000        -189.830
  -1329567.30615  25405437.922          30.000        2375.985
 -23714441.569 8  21417760.739          48.000       -1742.067
 16  6 24  0 44  0.0010000  0 14G17G07G26G22S20G03G30G19G04G02G06G09
                                G16G23
   1097739.775 6  25682961.631          37.000       -3339.114
  -9259565.577 7  23190217.484          46.000        3207.110
  -3626514.628 6  25320752.033          38.000         918.856
  17255495.06514  25543437.979          28.000       -3292.201
  24306759.635 6  38742154.661          41.000        -141.670
  -5420189.499 7  23487942.646          44.000       -3062.951
   1222472.139 6  25251274.515          40.000        3719.305
    951217.520 6  24846721.737          41.000       -3350.346
  -2165348.431 6  25176606.900          41.000         192.844
 -15964098.066 7  22978690.621          46.000        2425.420
 -25777162.544 8  20870396.199          50.000        -461.681
 -25843645.994 8  20355335.957          52.000        -204.429
  -1400666.870 5  25391909.344          31.000        2365.659
 -23662023.748 8  21427735.406          48.000       -1752.022
 16  6 24  0 44 30.0010000  0 14G17G07G26G22S20G03G30G19G04G02G06G09
                                G16G23
   1197873.202 6  25702017.530          39.000       -3337.114
  -9355663.014 7  23171930.598          46.000        3199.373
  -3653848.135 6  25315552.706          38.000         902.646
  17354273.90814  25562225.982          25.000       -3293.979
  24311001.289 6  38742959.762          41.000        -140.938
  -5328215.879 7  23505446.087          44.000       -3068.390
   1110864.544 6  25230036.483          40.000        3720.980
   1051790.099 6  24865861.973          41.000       -3354.239
  -2170856.898 6  25175558.020          40.000         173.221
 -16036686.129 7  22964879.140          46.000        2413.397
 -25763021.971 8  20873086.116          49.000        -481.583
 -25837291.178 8  20356545.850          52.000        -219.657
  -1471467.63515  25378437.427          30.000        2357.187
 -23609294.114 8  21437769.368          48.000       -1763.208
 16  6 24  0 45  0.0010000  0 13G17G07G26S20G03G30G19G04G02G06G09G16
                                G23
   1297927.983 6  25721055.247          38.000       -3334.477
  -9451546.264 7  23153686.133          47.000        3192.072
  -3680692.135 6  25310443.753          38.000         887.010
  24315232.441 6  38743766.119          41.000        -141.029
  -5236080.033 7  23522977.762          43.000       -3074.157
    999220.227 6  25208789.115          38.000        3721.409
   1152476.061 6  24885020.777          40.000       -3358.344
  -2175785.417 6  25174620.228          39.000         153.010
 -16108923.916 7  22951133.272          46.000        2401.826
 -25748289.056 8  20875889.702          49.000        -501.150
 -25830491.053 8  20357839.278          52.000        -234.721
  -1541959.52714  25365022.520          29.000        2348.118
 -23556247.546 8  21447863.063          48.000       -1773.712
 16  6 24  0 45 30.0010000  0 13G17G07G26S20G03G30G19G04G02G06G09G16
                                G23
   1397918.797 5  25740085.390          35.000       -3332.867
  -9547194.029 7  23135484.893          47.000        3184.679
  -3707027.116 6  25305433.569          39.000         868.863
  24319471.953 6  38744569.823          40.000        -141.081
  -5143764.757 7  23540544.303          44.000       -3080.531
    887559.671 6  25187540.613          39.000        3722.849
   1253290.913 6  24904207.291          41.000       -3362.535
  -2180115.242 6  25173798.445          40.000         134.648
 -16180791.253 7  22937456.297          46.000        2389.616
 -25732945.942 8  20878809.194          49.000        -521.517
 -25823228.406 8  20359221.405          52.000        -249.552
  -1612121.08014  25351667.397          27.000        2333.693
 -23502867.476 8  21458021.218          48.000       -1784.183
 16  6 24  0 46  0.0010000  0 13G17G07G26S20G03G30G19G04G02G06G09G16
                                G23
   1497831.707 6  25759099.688          39.000       -3329.055
  -9642616.666 7  23117327.453          47.000        3177.084
  -3732863.964 6  25300516.045          38.000         852.176
  24323710.132 6  38745376.425          40.000        -140.800
  -5051283.310 7  23558142.464          44.000       -3085.409
    775872.773 6  25166286.824          38.000        3723.751
   1354217.865 6  24923411.727          41.000       -3366.035
  -2183858.591 6  25173083.474          39.000         115.542
 -16252297.954 7  22923848.897          46.000        2377.739
 -25717005.109 8  20881841.902          49.000        -541.141
 -25815516.436 8  20360688.741          52.000        -264.333
  -1681961.82014  25338375.758          27.000        2323.983
 -23449167.584 8  21468240.014          48.000       -1795.349
 16  6 24  0 46 30.0010000  0 13G17G07G26S20G03G30G19G04G02G06G09G16
                                G23
   1597654.147 7  25778094.564          44.000       -3325.691
  -9737821.322 7  23099209.799          47.000        3169.315
  -3758211.177 6  25295693.154          39.000         836.318
  24327937.344 6  38746179.798          40.000        -140.432
  -4958646.562 7  23575770.238          44.000       -3090.245
    664151.920 6  25145025.077          38.000        3725.000
   1455244.605 6  24942638.796          41.000       -3369.057
  -2187024.597 6  25172481.791          39.000          95.612
 -16323451.804 7  22910308.959          46.000        2365.616
 -25700476.863 8  20884987.461          49.000        -561.443
 -25807366.020 8  20362240.170          52.000        -279.384
  -1751489.24014  25325150.291          28.000        2311.610
 -23395159.525 8  21478517.494          48.000       -1805.253
 16  6 24  0 47  0.0010000  0 13G17G07G26S20G03G30G19G04G02G06G09G16
                                G23
   1697380.311 6  25797072.828          36.000       -3323.326
  -9832808.047 7  23081133.869          47.000        3162.165
  -3783069.351 6  25290962.156          39.000         820.281
  24332147.654 6  38746980.030          40.000        -140.732
  -4865857.445 7  23593427.345          44.000       -3095.501
    552397.41616  25123761.987          38.000        3725.691
   1556365.795 7  24961880.697          42.000       -3372.742
  -2189614.885 6  25171989.887          39.000          76.657
 -16394252.774 7  22896834.791          46.000        2353.319
 -25683363.363 8  20888243.881          49.000        -580.684
 -25798780.045 8  20363873.528          52.000        -294.046
  -1820701.67814  25311975.219          28.000        2301.075
 -23340846.830 8  21488853.153          48.000       -1815.930
 16  6 24  0 47 30.0010000  0 12G07G26S20G03G30G19G04G02G06G09G16G23
  -9927562.905 7  23063102.332          47.000        3154.790
  -3807426.282 6  25286328.774          39.000         803.616
  24336352.317 6  38747778.535          40.000        -139.347
  -4772906.032 7  23611115.427          44.000       -3100.752
    440622.541 6  25102491.166          37.000        3726.965
   1657588.828 7  24981142.422          42.000       -3375.100
  -2191618.127 6  25171607.919          39.000          57.247
 -16464687.709 7  22883432.919          46.000        2341.468
 -25665654.098 8  20891614.443          49.000        -600.284
 -25789748.621 8  20365592.182          52.000        -308.309
  -1889585.57614  25298872.758          28.000        2291.002
 -23286220.227 8  21499248.248          49.000       -1826.170
 16  6 24  0 48  0.0010000  0 13G17G07G26S20G03G30G19G04G02G06G09G16
                                G23
   1896570.03215  25834979.604          34.000       -3315.859
 -10022081.522 7  23045115.520          47.000        3147.282
  -3831278.564 6  25281789.204          39.000         787.918
  24340551.222 6  38748578.906          40.000        -139.065
  -4679791.174 7  23628835.442          44.000       -3105.662
    328831.608 6  25081215.582          38.000        3727.619
   1758912.619 6  25000423.063          41.000       -3378.338
  -2193032.191 6  25171337.580          39.000          38.459
 -16534752.573 7  22870098.666          46.000        2329.621
 -25647347.351 8  20895097.628          49.000        -619.751
 -25780270.594 8  20367395.750          52.000        -323.024
  -1958135.75114  25285826.190          26.000        2279.843
 -23231278.955 8  21509702.865          48.000       -1836.249
 16  6 24  0 48 30.0010000  0 12G07G26S20G03G30G19G04G02G06G09G16G23
 -10116378.194 7  23027172.212          47.000        3140.201
  -3854641.495 6  25277342.680          40.000         771.177
  24344727.500 6  38749372.472          39.000        -138.537
  -4586530.466 7  23646582.087          44.000       -3110.541
    217010.475 6  25059937.990          38.000        3728.569
   1860317.279 7  25019721.101          42.000       -3380.967
  -2193873.420 6  25171179.097          39.000          19.094
 -16604461.847 7  22856833.883          46.000        2318.525
 -25628460.066 8  20898692.164          49.000        -638.492
 -25770363.555 8  20369280.914          52.000        -336.876
  -2026366.10114  25272840.157          25.000        2269.081
 -23176041.013 8  21520214.353          48.000       -1845.646
 16  6 24  0 49  0.0010000  0 13G17G07G26S20G03G30G19G04G02G06G09G16
                                G23
   2095349.30515  25872800.490          33.000       -3310.063
 -10210450.916 7  23009272.878          47.000        3131.885
  -3877514.207 6  25272991.346          40.000         754.128
  24348882.324 6  38750162.008          39.000        -138.918
  -4493125.214 7  23664356.634          45.000       -3116.166
    105161.057 5  25038653.192          35.000        3728.485
   1961799.242 7  25039033.676          42.000       -3383.914
  -2194141.297 6  25171127.654          39.000          -0.539
 -16673813.512 7  22843637.523          46.000        2305.853
 -25608993.097 8  20902396.496          49.000        -658.633
 -25760028.879 8  20371247.746          52.000        -351.843
  -2094267.90313  25259915.897          22.000        2253.212
 -23120508.668 8  21530782.240          48.000       -1855.683
 16  6 24  0 49 30.0010000  0 13G17G07G26S20G03G30G19G04G02G06G09G16
                                G23
   2194612.14613  25891687.297          23.000       -3306.619
 -10304282.738 7  22991415.581          47.000        3124.191
  -3899881.157 6  25268735.063          40.000         736.810
  24353030.780 6  38750950.513          39.000        -138.310
  -4399562.146 7  23682160.428          45.000       -3121.844
     -6700.190 6  25017365.025          36.000        3728.718
   2063369.437 7  25058362.497          42.000       -3386.438
  -2193821.442 6  25171188.555          39.000         -20.817
 -16742791.488 7  22830510.387          46.000        2292.931
 -25588932.499 8  20906214.150          49.000        -678.623
 -25749253.251 8  20373298.460          52.000        -366.626
  -2161839.88914  25247061.195          28.000        2245.824
 -23064669.121 8  21541407.677          48.000       -1866.511
 16  6 24  0 50  0.0010000  0 12G07G26S20G03G30G19G04G02G06G09G16G23
 -10397881.674 7  22973604.109          47.000        3116.983
  -3921751.530 6  25264571.790          39.000         720.641
  24357158.873 6  38751734.639          39.000        -136.723
  -4305852.688 7  23699993.417          45.000       -3125.535
   -118581.408 6  24996074.905          38.000        3730.743
   2165014.075 7  25077704.214          42.000       -3388.717
  -2192924.500 6  25171358.189          38.000         -38.470
 -16811403.859 7  22817454.082          46.000        2281.215
 -25568289.232 8  20910142.124          49.000        -697.765
 -25738048.167 8  20375430.737          52.000        -380.228
  -2229075.56614  25234262.978          29.000        2236.097
 -23008534.506 8  21552089.531          49.000       -1875.817
 16  6 24  0 50 30.0010000  0 12G07G26S20G03G30G19G04G02G06G09G16G23
 -10491250.488 7  22955836.769          47.000        3108.778
  -3943128.845 6  25260504.999          40.000         704.641
  24361263.393 6  38752517.490          39.000        -135.960
  -4212002.504 7  23717851.882          45.000       -3130.599
   -230484.942 6  24974780.334          38.000        3731.999
   2266725.547 7  25097058.425          42.000       -3391.165
  -2191454.775 6  25171638.492          38.000         -58.495
 -16879653.261 7  22804466.234          46.000        2269.211
 -25547068.442 8  20914179.616          48.000        -716.642
 -25726419.333 8  20377643.338          52.000        -394.154
  -2295980.68214  25221533.899          29.000        2224.330
 -22952111.042 8  21562827.540          49.000       -1885.271
 16  6 24  0 51  0.0010000  0 12G07G26S20G03G30G19G04G02G06G09G16G23
 -10584382.848 7  22938114.397          47.000        3100.222
  -3964008.280 6  25256531.061          39.000         687.437
  24365348.057 6  38753294.601          39.000        -135.741
  -4118009.002 7  23735738.722          45.000       -3135.550
   -342404.814 6  24953485.013          38.000        3730.709
   2368503.976 7  25116426.962          42.000       -3393.857
  -2189408.384 6  25172026.672          37.000         -78.842
 -16947533.940 7  22791550.368          47.000        2256.486
 -25525267.090 8  20918328.615          48.000        -736.234
 -25714364.193 8  20379937.465          52.000        -409.162
  -2362548.86115  25208867.048          30.000        2214.095
 -22895396.570 8  21573620.325          49.000       -1895.674
 16  6 24  0 51 30.0010000  0 11G07G26S20G03G30G19G04G02G06G09G23
 -10677265.606 7  22920437.938          46.000        3092.080
  -3984378.156 6  25252654.670          39.000         670.947
  24369425.202 6  38754071.275          39.000        -135.908
  -4023862.679 7  23753653.412          44.000       -3140.754
   -454328.270 6  24932187.075          38.000        3731.062
   2470356.548 6  25135804.592          39.000       -3396.088
  -2186774.621 6  25172528.854          36.000         -97.350
 -17015033.247 7  22778703.866          46.000        2243.791
 -25502875.183 8  20922589.801          48.000        -755.687
 -25701873.272 8  20382314.237          52.000        -423.280
 -22838382.448 8  21584469.492          49.000       -1904.866
 16  6 24  0 52  0.0010000  0 12G07G26S20G03G30G19G04G02G06G09G16G23
 -10769901.245 7  22902811.019          47.000        3083.354
  -4004242.103 6  25248873.731          39.000         653.127
  24373491.903 6  38754846.239          40.000        -135.779
  -3929569.184 7  23771597.401          44.000       -3146.219
   -566257.585 6  24910888.700          39.000        3730.797
   2572275.203 6  25155200.893          40.000       -3398.293
  -2183558.254 6  25173142.125          37.000        -116.882
 -17082154.006 7  22765930.743          46.000        2230.997
 -25479897.958 8  20926962.302          48.000        -776.290
 -25688952.318 8  20384773.113          52.000        -438.259
  -2494638.74514  25183730.777          28.000        2189.641
 -22781074.499 8  21595374.308          49.000       -1915.390
 16  6 24  0 52 30.0010000  0 13G07G26G22S20G03G30G19G04G02G06G09G16
                                G23
 -10862288.236 7  22885229.541          46.000        3075.544
  -4023599.733 6  25245191.316          39.000         636.644
  18892826.95513  25864231.282          23.000       -3320.794
  24377546.536 6  38755617.068          39.000        -134.346
  -3835130.331 7  23789568.229          44.000       -3150.106
   -678191.352 6  24889587.481          37.000        3731.271
   2674256.364 6  25174606.337          40.000       -3400.624
  -2179759.994 6  25173863.010          36.000        -134.593
 -17148894.879 7  22753230.911          46.000        2218.674
 -25456336.815 8  20931445.734          48.000        -794.981
 -25675603.213 8  20387313.219          52.000        -451.770
  -2560157.80815  25171266.034          30.000        2178.245
 -22723475.422 8  21606334.894          49.000       -1924.471
 16  6 24  0 53  0.0010000  0 12G07G26S20G03G30G19G04G02G06G09G16G23
 -10954416.943 7  22867697.150          46.000        3066.652
  -4042442.902 6  25241605.646          40.000         620.053
  24381594.047 6  38756389.990          40.000        -134.403
  -3740540.057 7  23807567.465          44.000       -3155.308
   -790120.071 6  24868288.094          38.000        3731.542
   2776303.460 6  25194027.104          41.000       -3402.495
  -2175372.529 6  25174698.754          39.000        -154.788
 -17215246.684 7  22740603.043          46.000        2205.902
 -25432185.280 8  20936041.825          48.000        -814.647
 -25661819.921 8  20389935.707          52.000        -466.207
  -2625334.48015  25158861.599          30.000        2165.343
 -22665579.658 8  21617352.840          49.000       -1934.871
 16  6 24  0 53 30.0010000  0 13G07G26G22S20G03G30G19G04G02G06G09G16
                                G23
 -11046266.304 7  22850219.535          46.000        3056.725
  -4060751.287 6  25238122.111          40.000         600.922
  19091783.03113  25902128.705          21.000       -3318.799
  24385652.887 6  38757160.941          40.000        -135.604
  -3645780.073 7  23825600.974          44.000       -3161.146
   -902022.246 6  24846992.721          38.000        3730.508
   2878432.410 6  25213460.381          39.000       -3406.976
  -2170376.218 6  25175649.756          38.000        -176.465
 -17281187.968 7  22728056.773          46.000        2190.862
 -25407424.746 8  20940753.628          48.000        -835.452
 -25647584.322 8  20392645.656          52.000        -482.208
  -2690124.17415  25146538.727          31.000        2153.114
 -22607369.730 8  21628430.011          49.000       -1945.455
 16  6 24  0 54  0.0010000  0 11G07G26S20G03G30G19G04G02G06G09G23
 -11137838.512 7  22832793.538          46.000        3047.821
  -4078529.030 6  25234738.741          40.000         584.074
  24389715.548 6  38757934.247          40.000        -135.973
  -3550856.581 7  23843664.672          43.000       -3166.618
  -1013900.563 6  24825702.932          38.000        3728.492
   2980635.172 6  25232910.289          40.000       -3407.816
  -2164776.462 6  25176714.673          39.000        -196.876
 -17346722.004 7  22715585.556          46.000        2177.925
 -25382060.980 8  20945581.091          49.000        -855.434
 -25632902.623 8  20395439.890          53.000        -496.891
 -22548852.352 8  21639564.751          49.000       -1955.587
 16  6 24  0 54 30.0010000  0 12G07G26S20G03G30G19G04G02G06G09G16G23
 -11229124.482 7  22815422.161          46.000        3038.233
  -4095768.072 6  25231459.601          40.000         565.477
  24393788.705 6  38758709.840          40.000        -136.035
  -3455763.540 7  23861761.717          44.000       -3172.300
  -1125745.655 6  24804421.798          40.000        3727.201
   3082915.474 6  25252374.123          40.000       -3410.023
  -2158566.534 6  25177898.600          39.000        -217.204
 -17411839.873 7  22703194.418          47.000        2163.932
 -25356087.726 8  20950523.760          49.000        -875.797
 -25617768.903 8  20398319.368          52.000        -511.876
  -2818525.49015  25122104.216          32.000        2126.577
 -22490021.930 8  21650759.606          49.000       -1966.040
 16  6 24  0 55  0.0010000  0 12G07G26S20G03G30G19G04G02G06G09G16G23
 -11320113.009 7  22798108.474          46.000        3027.938
  -4112458.790 6  25228282.841          40.000         547.921
  24397883.786 6  38759489.166          40.000        -137.393
  -3360493.415 7  23879890.730          44.000       -3178.222
  -1237546.699 6  24783147.732          40.000        3726.460
   3185278.488 6  25271852.021          40.000       -3413.310
  -2151737.961 6  25179198.310          40.000        -237.148
 -17476530.761 7  22690884.511          47.000        2149.837
 -25329497.076 8  20955583.870          49.000        -896.369
 -25602175.764 8  20401286.463          52.000        -526.937
  -2882129.76415  25110002.752          33.000        2113.950
 -22430871.389 8  21662014.944          49.000       -1976.053
 16  6 24  0 55 30.0010000  0 12G07G26S20G03G30G19G04G02G06G09G16G23
 -11410830.446 7  22780845.514          46.000        3019.564
  -4128628.694 6  25225205.338          40.000         530.600
  24401972.319 6  38760267.411          40.000        -136.183
  -3265075.667 7  23898047.926          44.000       -3182.590
  -1349329.874 6  24761872.531          39.000        3725.931
   3287692.973 6  25291340.808          40.000       -3414.236
  -2144319.286 6  25180608.619          40.000        -256.233
 -17540821.273 7  22678649.623          47.000        2136.776
 -25302318.264 8  20960754.805          49.000        -915.456
 -25586152.738 8  20404334.754          52.000        -541.070
  -2945358.19515  25097967.808          33.000        2102.887
 -22371430.957 8  21673326.001          49.000       -1985.862
 16  6 24  0 56  0.0010000  0 12G07G26S20G03G30G19G04G02G06G09G16G23
 -11501270.371 7  22763634.644          46.000        3009.727
  -4144272.835 6  25222227.353          40.000         511.780
  24406054.481 6  38761044.155          40.000        -135.358
  -3169507.363 7  23916232.833          43.000       -3187.223
  -1461088.749 6  24740606.561          40.000        3725.469
   3390158.837 6  25310839.873          40.000       -3415.867
  -2136306.312 6  25182132.232          39.000        -276.503
 -17604705.195 7  22666492.737          46.000        2122.933
 -25274548.006 8  20966039.831          48.000        -935.551
 -25569697.001 8  20407465.952          52.000        -555.489
  -3008203.87215  25086009.942          33.000        2089.068
 -22311698.149 8  21684693.247          48.000       -1995.622
 16  6 24  0 56 30.0010000  0 12G07G26S20G03G30G19G04G02G06G09G16G23
 -11591444.643 7  22746475.007          46.000        3001.960
  -4159404.663 6  25219349.132          40.000         495.627
  24410116.671 6  38761816.240          40.000        -134.239
  -3073803.886 7  23934445.590          43.000       -3192.017
  -1572835.441 6  24719341.848          41.000        3724.557
   3492658.952 6  25330345.290          40.000       -3417.244
  -2127713.405 6  25183768.068          39.000        -295.574
 -17668194.971 7  22654412.684          46.000        2109.933
 -25246201.558 8  20971433.082          49.000        -953.882
 -25552824.077 8  20410677.141          52.000        -569.363
  -3070678.564 5  25074120.899          33.000        2076.121
 -22251688.545 8  21696112.966          48.000       -2004.822
 16  6 24  0 57  0.0010000  0 12G07G26S20G03G30G19G04G02G06G09G16G23
 -11681335.245 7  22729369.256          47.000        2992.093
  -4174007.235 6  25216569.714          40.000         477.797
  24414176.754 6  38762588.936          40.000        -135.666
  -2977950.236 7  23952685.535          43.000       -3197.977
  -1684551.525 6  24698080.712          39.000        3722.692
   3595206.129 6  25349859.537          40.000       -3419.777
  -2118524.923 6  25185517.348          40.000        -316.135
 -17731272.618 7  22642407.806          46.000        2095.477
 -25217263.588 8  20976940.144          49.000        -974.342
 -25535519.040 8  20413970.189          52.000        -584.210
  -3132763.407 5  25062306.334          35.000        2060.355
 -22191388.554 7  21707586.170          47.000       -2015.067
 16  6 24  0 57 30.0010000  0 12G07G26S20G03G30G19G04G02G06G09G16G23
 -11770950.635 7  22712317.043          47.000        2982.652
  -4188090.784 6  25213890.198          41.000         461.400
  24418223.508 6  38763359.363          40.000        -135.071
  -2881958.611 7  23970952.057          42.000       -3202.138
  -1796245.784 6  24676827.045          40.000        3722.290
   3697786.148 6  25369379.822          41.000       -3420.363
  -2108752.166 6  25187376.686          38.000        -334.949
 -17793947.274 7  22630479.605          45.000        2082.523
 -25187746.171 8  20982556.689          49.000        -993.989
 -25517794.270 8  20417343.281          52.000        -597.911
  -3194466.989 5  25050562.930          35.000        2048.727
 -22130810.654 7  21719113.366          47.000       -2023.906
 16  6 24  0 58  0.0010000  0 12G07G26S20G03G30G19G04G02G06G09G16G23
 -11860292.871 7  22695315.313          47.000        2973.043
  -4201658.727 6  25211308.438          40.000         443.112
  24422250.422 6  38764125.183          40.000        -134.962
  -2785834.241 7  23989243.480          42.000       -3207.223
  -1907920.114 6  24655575.437          40.000        3721.394
   3800391.285 6  25388904.644          40.000       -3421.207
  -2098399.502 6  25189347.252          39.000        -354.410
 -17856221.039 7  22618630.593          46.000        2068.518
 -25157654.318 8  20988283.885          49.000       -1012.893
 -25499655.075 8  20420795.144          52.000        -612.056
  -3255790.756 5  25038894.912          35.000        2038.053
 -22069960.433 8  21730694.220          48.000       -2033.740
 16  6 24  0 58 30.0010000  0 12G07G26S20G03G30G19G04G02G06G09G16G23
 -11949353.524 7  22678368.500          47.000        2964.793
  -4214704.137 6  25208825.778          39.000         425.776
  24426263.672 6  38764890.201          40.000        -133.876
  -2689572.096 7  24007563.259          42.000       -3210.471
  -2019566.158 6  24634328.052          39.000        3720.237
   3903024.593 6  25408433.182          39.000       -3421.170
  -2087461.275 6  25191427.440          37.000        -374.571
 -17918086.092 7  22606860.003          46.000        2055.998
 -25126982.946 8  20994120.843          49.000       -1031.774
 -25481096.651 8  20424326.788          52.000        -625.262
  -3316726.021 5  25027299.242          35.000        2025.757
 -22008833.599 8  21742326.936          49.000       -2042.066
 16  6 24  0 59  0.0010000  0 12G07G26S20G03G30G19G04G02G06G09G16G23
 -12038141.535 7  22661471.436          47.000        2955.089
  -4227237.212 6  25206439.217          38.000         409.848
  24430252.946 6  38765649.163          40.000        -131.718
  -2593184.305 7  24025905.148          42.000       -3214.952
  -2131192.464 6  24613087.909          40.000        3720.554
   4005671.799 6  25427968.596          41.000       -3421.479
  -2075948.500 6  25193618.367          37.000        -393.655
 -17979551.398 7  22595163.575          46.000        2042.465
 -25095743.941 8  21000065.469          50.000       -1050.452
 -25462131.189 8  20427936.139          52.000        -638.939
  -3377280.818 5  25015775.188          35.000        2011.788
 -21947442.854 8  21754008.967          49.000       -2051.080
 16  6 24  0 59 30.0010000  0 12G07G26S20G03G30G19G04G02G06G09G16G23
 -12126662.240 7  22644625.153          46.000        2946.967
  -4239264.917 6  25204153.098          39.000         393.397
  24434212.275 6  38766403.379          40.000        -131.387
  -2496679.554 7  24044268.797          42.000       -3217.964
  -2242804.471 6  24591847.312          39.000        3720.110
   4108321.802 6  25447501.219          40.000       -3420.744
  -2063869.770 6  25195916.177          37.000        -410.538
 -18040622.596 7  22583540.509          46.000        2029.790
 -25063945.913 8  21006116.559          49.000       -1068.654
 -25442767.592 8  20431620.683          52.000        -651.494
  -3437460.325 5  25004322.925          35.000        1999.993
 -21885797.105 8  21765739.841          49.000       -2058.614
 16  6 24  1  0  0.0010000  0 12G07G26S20G03G30G19G04G02G06G09G16G23
 -12214921.582 7  22627829.947          46.000        2937.482
  -4250795.172 6  25201957.844          39.000         375.397
  24438133.683 6  38767150.004          40.000        -130.253
  -2400067.721 7  24062655.411          42.000       -3222.376
  -2354408.536 6  24570612.124          40.000        3719.917
   4210962.952 6  25467032.322          41.000       -3421.575
  -2051233.732 5  25198319.438          35.000        -431.410
 -18101306.595 7  22571992.758          46.000        2016.201
 -25031598.615 8  21012271.565          49.000       -1087.760
 -25423015.775 8  20435379.163          51.000        -665.137
  -3497270.572 6  24992944.039          36.000        1985.227
 -21823906.902 8  21777516.540          49.000       -2067.497
 16  6 24  1  0 30.0010000  0 12G07G26S20G03G30G19G04G02G06G09G16G23
 -12302906.166 7  22611088.592          47.000        2928.430
  -4261815.691 6  25199859.944          38.000         358.501
  24442029.346 6  38767891.987          40.000        -129.576
  -2303338.204 6  24081061.116          41.000       -3226.241
  -2465990.811 6  24549378.752          41.000        3718.649
   4313603.706 7  25486567.387          42.000       -3421.531
  -2038029.068 5  25200831.781          35.000        -449.086
 -18161589.715 7  22560522.956          46.000        2002.940
 -24998691.444 8  21018533.000          49.000       -1106.242
 -25402865.372 8  20439213.133          51.000        -678.491
  -3556697.202 6  24981636.036          36.000        1975.037
 -21761762.368 8  21789343.128          49.000       -2075.682
 16  6 24  1  1  0.0010000  0 12G07G26S20G03G30G19G04G02G06G09G16G23
 -12390621.615 7  22594397.511          47.000        2919.372
  -4272333.698 6  25197857.234          38.000         342.137
  24445888.609 6  38768625.682          41.000        -127.518
  -2206499.930 7  24099489.697          42.000       -3229.376
  -2577556.726 6  24528146.234          40.000        3718.349
   4416232.855 6  25506095.891          41.000       -3420.786
  -2024264.090 5  25203452.298          35.000        -468.347
 -18221478.307 7  22549125.888          47.000        1989.635
 -24965233.249 8  21024899.293          49.000       -1124.547
 -25382325.523 8  20443121.999          51.000        -691.161
  -3615745.58015  24970397.328          35.000        1962.757
 -21699372.787 8  21801216.169          49.000       -2083.712
 16  6 24  1  1 30.0010000  0 12G07G26S20G03G30G19G04G02G06G09G16G23
 -12478067.832 7  22577756.338          47.000        2911.024
  -4282350.718 6  25195951.810          39.000         326.975
  24449708.543 6  38769353.443          41.000        -125.677
  -2109556.299 6  24117938.539          41.000       -3232.428
  -2689106.290 6  24506920.295          41.000        3718.228
   4518844.654 6  25525621.673          41.000       -3419.463
  -2009941.454 6  25206179.557          38.000        -486.236
 -18280972.585 7  22537804.186          47.000        1977.200
 -24931227.421 8  21031371.771          49.000       -1142.007
 -25361399.759 8  20447104.086          51.000        -703.354
  -3674415.34815  24959230.498          33.000        1948.239
 -21636742.470 8  21813134.196          49.000       -2090.983
 16  6 24  1  2  0.0010000  0 12G07G26S20G03G30G19G04G02G06G09G16G23
 -12565240.446 8  22561168.632          48.000        2901.503
  -4291863.810 6  25194142.310          39.000         309.167
  24453488.459 6  38770073.229          40.000        -125.440
  -2012506.171 6  24136404.377          40.000       -3236.134
  -2800634.796 6  24485696.730          41.000        3717.721
   4621438.443 6  25545144.034          41.000       -3418.951
  -1995059.810 6  25209010.803          38.000        -505.577
 -18340068.390 7  22526560.261          47.000        1963.323
 -24896672.763 8  21037946.437          49.000       -1160.514
 -25340087.119 8  20451159.726          51.000        -716.489
  -3732701.64515  24948141.914          34.000        1938.161
 -21573870.502 8  21825098.345          49.000       -2099.212
 16  6 24  1  2 30.0010000  0 12G07G26S20G03G30G19G04G02G06G09G16G23
 -12652128.911 7  22544633.765          47.000        2891.405
  -4300864.112 6  25192430.182          41.000         291.587
  24457237.350 6  38770785.670          41.000        -123.698
  -1915342.269 6  24154894.121          40.000       -3240.708
  -2912131.666 7  24464481.942          42.000        3716.148
   4724019.310 7  25564666.832          42.000       -3419.126
  -1979610.759 6  25211951.217          38.000        -523.847
 -18398755.445 7  22515392.383          47.000        1949.462
 -24861562.061 8  21044629.731          50.000       -1179.479
 -25318380.483 8  20455290.193          50.000        -729.842
  -3790593.56616  24937125.853          36.000        1922.022
 -21510749.992 8  21837107.846          48.000       -2108.051
 16  6 24  1  3  0.0010000  0 12G07G26S20G03G30G19G04G02G06G09G16G23
 -12738737.204 8  22528153.361          48.000        2882.891
  -4309357.392 6  25190814.833          41.000         274.984
  24460950.869 6  38771491.426          41.000        -122.037
  -1818072.095 6  24173404.335          40.000       -3243.956
  -3023600.930 7  24443269.614          42.000        3715.419
   4826577.558 6  25584181.305          41.000       -3417.757
  -1963601.409 6  25214998.688          40.000        -542.040
 -18457038.173 7  22504299.035          46.000        1936.478
 -24825902.838 8  21051413.520          49.000       -1197.457
 -25296287.534 8  20459493.287          50.000        -742.359
  -3848094.950 5  24926183.136          35.000        1910.766
 -21447389.130 8  21849165.703          48.000       -2115.743
 16  6 24  1  3 30.0010000  0 12G07G26S20G03G30G19G04G02G06G09G16G23
 -12825058.170 7  22511726.005          47.000        2872.260
  -4317338.115 7  25189296.384          42.000         257.147
  24464633.631 6  38772192.960          41.000        -122.368
  -1720691.748 6  24191933.988          39.000       -3247.769
  -3135035.283 7  24422065.872          43.000        3713.459
   4929115.052 6  25603693.580          41.000       -3418.044
  -1947027.415 6  25218152.187          40.000        -562.647
 -18514910.042 7  22493287.930          46.000        1921.739
 -24789691.281 8  21058305.048          49.000       -1216.197
 -25273804.590 8  20463771.976          50.000        -756.326
  -3905198.27315  24915316.431          35.000        1896.515
 -21383784.583 8  21861270.413          49.000       -2124.472
 16  6 24  1  4  0.0010000  0 12G07G26S20G03G30G19G04G02G06G09G16G23
 -12911077.404 8  22495358.469          48.000        2862.245
  -4324792.811 7  25187877.542          43.000         238.895
  24468295.702 6  38772889.904          41.000        -121.535
  -1623189.454 6  24210487.234          38.000       -3252.879
  -3246419.470 7  24400868.342          42.000        3711.931
   5031641.819 7  25623205.018          42.000       -3417.343
  -1929876.522 6  25221416.320          40.000        -581.121
 -18572356.159 7  22482355.962          46.000        1907.234
 -24752915.620 8  21065302.882          49.000       -1235.338
 -25250920.023 8  20468127.149          50.000        -769.440
  -3961887.64715  24904528.881          35.000        1882.391
 -21319925.170 8  21873422.273          49.000       -2133.137
 16  6 24  1  4 30.0010000  0 12G07G26S20G03G30G19G04G02G06G09G16G23
 -12996793.672 8  22479046.249          48.000        2852.070
  -4331723.110 7  25186558.149          42.000         222.260
  24471934.841 6  38773581.980          41.000        -119.869
  -1525568.438 6  24229064.422          37.000       -3255.744
  -3357753.367 7  24379682.643          42.000        3710.904
   5134152.109 7  25642711.360          42.000       -3416.641
  -1912151.400 6  25224788.627          40.000        -600.469
 -18629376.983 7  22471504.422          46.000        1893.719
 -24715579.271 8  21072407.214          49.000       -1253.420
 -25227637.364 8  20472558.300          51.000        -782.273
  -4018163.32015  24893821.480          34.000        1866.605
 -21255814.536 8  21885621.302          48.000       -2140.394
 16  6 24  1  5  0.0010000  0 13G07G26S20G03G30G19G04G02G06G05G09G16
                                G23
 -13082204.183 8  22462794.478          48.000        2841.553
  -4338127.543 7  25185339.722          42.000         204.670
  24475554.179 6  38774270.827          41.000        -120.613
  -1427828.894 6  24247664.051          37.000       -3259.686
  -3469033.592 7  24358506.612          42.000        3707.911
   5236643.850 7  25662216.637          42.000       -3416.560
  -1893851.590 6  25228271.550          40.000        -619.247
 -18685969.524 7  22460736.678          46.000        1878.844
 -24677682.442 8  21079618.918          48.000       -1272.562
     -7079.78116  25588529.847          38.000        3356.308
 -25203956.865 8  20477063.964          51.000        -795.936
  -4074021.73415  24883190.197          35.000        1854.196
 -21191453.328 8  21897868.999          49.000       -2149.578
 16  6 24  1  5 30.0010000  0 13G07G26S20G03G30G19G04G02G06G05G09G16
                                G23
 -13167308.953 7  22446598.372          47.000        2830.890
  -4344007.597 7  25184220.343          42.000         187.363
  24479151.745 6  38774953.829          40.000        -119.746
  -1329973.955 6  24266287.290          38.000       -3265.036
  -3580259.866 7  24337341.173          42.000        3705.911
   5339111.933 7  25681716.139          42.000       -3415.517
  -1874980.000 6  25231862.805          40.000        -638.890
 -18742134.229 7  22450048.437          46.000        1864.671
 -24639228.443 8  21086936.370          48.000       -1290.946
   -107786.630 6  25569366.105          39.000        3357.446
 -25179881.936 8  20481645.362          50.000        -809.348
  -4129462.12615  24872639.551          35.000        1840.650
 -21126845.476 8  21910162.625          49.000       -2157.433
 16  6 24  1  6  0.0010000  0 13G07G26S20G03G30G19G04G02G06G05G09G16
                                G23
 -13252093.159 7  22430464.197          47.000        2820.753
  -4349349.978 7  25183204.775          43.000         169.366
  24482743.055 6  38775637.039          41.000        -120.087
  -1231991.772 6  24284933.877          39.000       -3268.722
  -3691416.918 7  24316189.660          43.000        3704.096
   5441566.269 7  25701211.784          42.000       -3414.271
  -1855523.785 6  25235564.817          40.000        -657.707
 -18797856.099 7  22439443.294          45.000        1850.058
 -24600205.630 8  21094362.275          49.000       -1310.399
   -208502.481 6  25550200.496          38.000        3357.425
 -25155400.961 8  20486303.488          50.000        -822.858
  -4184469.01416  24862173.399          36.000        1826.322
 -21061979.757 8  21922506.490          49.000       -2166.545
 16  6 24  1  6 30.0010000  0 13G07G26S20G03G30G19G04G02G06G05G09G16
                                G23
 -13336561.094 7  22414389.074          47.000        2810.347
  -4354160.863 7  25182287.574          42.000         151.240
  24486319.640 6  38776320.791          41.000        -119.845
  -1133890.104 6  24303600.549          37.000       -3271.978
  -3802509.006 7  24295047.674          42.000        3701.832
   5543997.180 6  25720701.269          40.000       -3413.606
  -1835490.655 6  25239377.707          40.000        -677.198
 -18853140.244 7  22428924.635          46.000        1836.033
 -24560621.885 8  21101895.447          49.000       -1329.127
   -309231.568 5  25531031.048          35.000        3357.928
 -25130521.874 8  20491037.854          50.000        -835.861
  -4239046.809 6  24851786.244          36.000        1811.545
 -20996863.576 8  21934898.553          49.000       -2175.049
 16  6 24  1  7  0.0010000  0 13G07G26S20G03G30G19G04G02G06G05G09G16
                                G23
 -13420708.908 7  22398377.924          47.000        2800.099
  -4358438.576 7  25181474.830          43.000         133.875
  24489881.941 6  38776997.162          41.000        -118.472
  -1035668.766 6  24322290.378          37.000       -3275.017
  -3913532.495 7  24273921.969          43.000        3699.339
   5646402.352 6  25740190.684          41.000       -3412.697
  -1814880.414 6  25243298.666          39.000        -695.661
 -18907983.440 7  22418487.799          46.000        1820.892
 -24520477.308 8  21109534.228          49.000       -1347.346
   -409971.965 6  25511862.734          37.000        3358.625
 -25105244.750 8  20495848.443          51.000        -848.886
  -4293191.838 6  24841485.974          38.000        1799.068
 -20931497.926 8  21947337.050          49.000       -2182.876
 16  6 24  1  7 30.0010000  0 13G07G26S20G03G30G19G04G02G06G05G09G16
                                G23
 -13504540.811 8  22382426.575          48.000        2788.855
  -4362189.039 7  25180761.570          42.000         116.325
  24493421.981 6  38777671.770          41.000        -117.306
   -937335.188 6  24341002.177          37.000       -3279.129
  -4024491.334 7  24252806.019          43.000        3697.772
   5748772.401 7  25759670.799          42.000       -3411.774
  -1793699.685 6  25247329.143          40.000        -715.763
 -18962390.347 7  22408135.004          46.000        1806.103
 -24479779.486 8  21117279.559          49.000       -1365.859
   -510730.422 5  25492685.591          34.000        3359.447
 -25079577.166 8  20500733.387          51.000        -861.767
  -4346907.683 6  24831261.856          37.000        1783.449
 -20865890.770 8  21959820.866          48.000       -2191.187
 16  6 24  1  8  0.0010000  0 13G07G26S20G03G30G19G04G02G06G05G09G16
                                G23
 -13588035.458 8  22366538.064          48.000        2776.856
  -4365392.206 7  25180151.563          42.000          97.466
  24496962.214 6  38778345.767          41.000        -118.042
   -838870.894 6  24359739.173          37.000       -3284.991
  -4135363.507 7  24231707.746          43.000        3693.901
   5851123.674 7  25779148.173          42.000       -3411.740
  -1771929.699 6  25251472.418          40.000        -735.310
 -19016339.596 7  22397868.395          46.000        1790.319
 -24438510.150 8  21125132.297          49.000       -1385.354
   -611487.780 5  25473508.185          34.000        3357.988
 -25053500.905 8  20505694.728          50.000        -876.601
  -4400172.467 6  24821128.166          38.000        1767.735
 -20800023.402 7  21972352.444          47.000       -2200.610
 16  6 24  1  8 30.0010000  0 13G07G26S20G03G30G19G04G02G06G05G09G16
                                G23
 -13671198.285 8  22350711.973          48.000        2766.908
  -4368055.380 7  25179642.837          42.000          80.118
  24500494.228 6  38779017.845          41.000        -117.017
   -740284.606 6  24378500.601          37.000       -3289.281
  -4246154.322 6  24210622.107          41.000        3692.508
   5953445.950 6  25798617.730          40.000       -3409.206
  -1749579.011 6  25255725.891          40.000        -754.595
 -19069836.785 7  22387689.281          47.000        1776.369
 -24396678.337 8  21133093.418          49.000       -1403.509
   -712251.189 5  25454330.972          32.000        3360.421
 -25027024.917 8  20510732.868          50.000        -889.164
  -4452991.369 6  24811074.048          38.000        1753.517
 -20733905.781 7  21984935.708          47.000       -2207.865
 16  6 24  1  9  0.0010000  0 13G07G26S20G03G30G19G04G02G06G05G09G16
                                G23
 -13754040.883 7  22334946.487          47.000        2756.138
  -4370192.338 7  25179239.021          43.000          63.032
  24504002.355 6  38779684.111          41.000        -115.474
   -641591.524 6  24397279.583          36.000       -3291.884
  -4356875.519 7  24189554.459          42.000        3690.085
   6055721.824 6  25818082.227          40.000       -3409.032
  -1726662.262 6  25260085.967          41.000        -773.073
 -19122894.701 7  22377592.132          46.000        1761.871
 -24354299.502 8  21141156.012          49.000       -1421.403
   -813034.019 5  25435149.797          33.000        3359.961
 -25000164.602 8  20515844.019          50.000        -901.342
  -4505375.866 6  24801107.304          40.000        1739.054
 -20667553.485 7  21997561.848          47.000       -2215.297
 16  6 24  1  9 30.0010000  0 13G07G26S20G03G30G19G04G02G06G05G09G16
                                G23
 -13836548.775 7  22319244.223          47.000        2744.615
  -4371790.158 7  25178932.543          42.000          44.440
  24507498.072 6  38780347.202          41.000        -116.862
   -542780.143 6  24416082.628          36.000       -3295.089
  -4467512.087 6  24168499.777          41.000        3686.402
   6157960.509 6  25837537.666          40.000       -3407.976
  -1703167.824 6  25264556.661          40.000        -793.502
 -19175498.730 7  22367581.483          46.000        1745.340
 -24311362.428 8  21149328.175          49.000       -1441.018
   -913822.658 5  25415971.816          31.000        3358.988
 -24972908.772 8  20521030.660          50.000        -915.384
  -4557311.119 6  24791224.059          39.000        1723.815
 -20600955.382 8  22010236.482          48.000       -2224.465
 16  6 24  1 10  0.0010000  0 13G07G26S20G03G30G19G04G02G06G05G09G16
                                G23
 -13918718.746 8  22303609.473          48.000        2733.157
  -4372847.569 6  25178732.180          41.000          26.147
  24510979.902 6  38781009.735          40.000        -115.495
   -443850.524 6  24434910.105          37.000       -3300.541
  -4578060.574 6  24147461.812          40.000        3683.468
   6260160.575 6  25856981.257          37.000       -3406.072
  -1679095.233 6  25269138.477          41.000        -812.292
 -19227646.092 7  22357657.823          45.000        1730.825
 -24267867.531 8  21157604.796          49.000       -1458.984
  -1014614.88115  25396789.629          33.000        3360.265
 -24945257.670 8  20526292.511          50.000        -927.998
  -4608793.739 6  24781427.751          40.000        1708.599
 -20534112.025 8  22022957.098          48.000       -2231.978
 16  6 24  1 10 30.0010000  0 13G07G26S20G03G30G19G04G02G06G05G09G16
                                G23
 -14000543.631 8  22288038.836          48.000        2722.272
  -4373359.472 6  25178634.441          41.000           8.333
  24514452.629 6  38781669.301          40.000        -115.680
   -344799.049 6  24453755.973          36.000       -3303.424
  -4688513.870 6  24126443.478          40.000        3680.603
   6362323.434 6  25876425.756          40.000       -3404.636
  -1654441.335 6  25273829.375          41.000        -830.482
 -19279330.518 7  22347822.409          45.000        1715.331
 -24223811.487 8  21165988.666          49.000       -1477.489
  -1115405.632 6  25377613.515          36.000        3359.891
 -24917207.928 8  20531630.550          50.000        -941.085
  -4659816.741 6  24771718.014          40.000        1693.437
 -20467020.241 8  22035724.288          48.000       -2239.797
 16  6 24  1 11  0.0010000  0 13G07G26S20G03G30G19G04G02G06G05G09G16
                                G23
 -14082024.659 8  22272533.637          48.000        2710.737
  -4373328.177 6  25178639.763          41.000          -9.737
  24517916.271 6  38782326.772          40.000        -115.362
   -245629.332 6  24472626.691          36.000       -3308.439
  -4798872.132 6  24105443.747          41.000        3676.980
   6464443.318 6  25895856.730          39.000       -3403.068
  -1629209.293 6  25278631.204          41.000        -850.616
 -19330552.866 7  22338075.311          45.000        1700.088
 -24179198.336 8  21174477.883          49.000       -1496.173
  -1216196.260 6  25358435.743          36.000        3360.236
 -24888763.463 8  20537043.381          50.000        -954.429
  -4710380.111 6  24762095.492          39.000        1678.073
 -20399684.202 8  22048537.302          48.000       -2248.261
 16  6 24  1 11 30.0010000  0 13G07G26S20G03G30G19G04G02G06G05G09G16
                                G23
 -14163158.258 8  22257092.794          48.000        2698.790
  -4372752.978 6  25178751.445          41.000         -27.565
  24521370.430 6  38782986.111          40.000        -115.348
   -146342.034 6  24491521.578          37.000       -3310.846
  -4909132.414 6  24084460.575          40.000        3673.329
   6566517.940 6  25915281.039          39.000       -3401.793
  -1603399.312 6  25283542.236          41.000        -869.835
 -19381310.599 7  22328416.703          45.000        1684.740
 -24134029.016 8  21183072.255          48.000       -1514.765
  -1316985.177 6  25339254.010          36.000        3358.746
 -24859925.021 8  20542530.934          50.000        -967.681
  -4760480.767 6  24752561.740          40.000        1662.449
 -20332104.920 8  22061396.368          48.000       -2256.734
 16  6 24  1 12  0.0010000  0 13G07G26S20G03G30G19G04G02G06G05G09G16
                                G23
 -14243938.972 8  22241722.067          48.000        2686.540
  -4371630.183 6  25178965.681          41.000         -46.619
  24524821.415 6  38783642.589          40.000        -114.916
    -46934.728 6  24510437.073          38.000       -3315.367
  -5019288.849 6  24063499.967          41.000        3670.579
   6668547.444 6  25934694.720          37.000       -3400.838
  -1577009.085 6  25288563.274          41.000        -888.943
 -19431598.629 7  22318847.125          46.000        1668.715
 -24088301.577 8  21191774.574          48.000       -1533.439
  -1417768.015 6  25320076.553          36.000        3359.687
 -24830690.565 8  20548094.971          51.000        -981.329
  -4810113.058 6  24743119.148          41.000        1646.997
 -20264280.575 8  22074304.678          49.000       -2264.816
 16  6 24  1 12 30.0010000  0 13G07G26S20G03G30G19G04G02G06G05G09G16
                                G23
 -14324355.114 8  22226419.168          48.000        2674.462
  -4369949.736 6  25179283.816          40.000         -64.956
  24528278.111 6  38784301.404          40.000        -115.425
     52601.282 6  24529379.476          37.000       -3320.265
  -5129329.257 7  24042562.341          43.000        3665.959
   6770539.099 6  25954104.719          37.000       -3398.865
  -1550029.648 7  25293699.240          42.000        -908.658
 -19481405.517 7  22309369.162          46.000        1651.934
 -24042007.674 8  21200583.967          48.000       -1552.148
  -1518533.717 6  25300904.993          38.000        3359.906
 -24801051.615 8  20553735.090          51.000        -994.742
  -4859264.929 6  24733763.650          41.000        1630.438
 -20196202.554 8  22087260.487          49.000       -2273.285
 16  6 24  1 13  0.0010000  0 13G07G26S20G03G30G19G04G02G06G05G09G16
                                G23
 -14404409.674 8  22211185.773          48.000        2662.976
  -4367716.356 6  25179708.066          40.000         -82.948
  24531734.237 6  38784959.748          40.000        -114.700
    152259.937 6  24548345.140          39.000       -3324.918
  -5239256.100 7  24021643.299          42.000        3663.549
   6872484.665 6  25973502.521          36.000       -3398.875
  -1522466.882 7  25298944.182          42.000        -928.013
 -19530734.432 7  22299982.934          46.000        1636.339
 -23995153.851 8  21209500.557          49.000       -1570.529
  -1619287.431 6  25281731.758          38.000        3358.334
 -24771014.444 8  20559451.101          51.000       -1007.272
  -4907938.801 6  24724502.401          41.000        1615.230
 -20127877.784 8  22100261.527          48.000       -2281.081
 16  6 24  1 13 30.0010000  0 13G07G26S20G03G30G19G04G02G06G05G09G16
                                G23
 -14484112.190 8  22196018.812          48.000        2650.523
  -4364941.738 6  25180235.830          40.000        -102.884
  24535176.617 6  38785615.754          40.000        -114.514
    252028.477 6  24567332.338          39.000       -3327.732
  -5349078.745 7  24000745.407          42.000        3659.385
   6974369.578 6  25992895.594          37.000       -3395.992
  -1494333.554 7  25304296.897          42.000        -947.156
 -19579595.707 7  22290684.359          46.000        1620.938
 -23947753.319 8  21218520.452          49.000       -1588.840
  -1720039.043 6  25262558.663          38.000        3358.198
 -24740592.111 8  20565240.001          50.000       -1020.311
  -4956144.471 6  24715328.054          41.000        1598.505
 -20059319.138 8  22113307.345          48.000       -2289.308
 16  6 24  1 14  0.0010000  0 13G07G26S20G03G30G19G04G02G06G05G09G16
                                G23
 -14563464.204 8  22180920.186          49.000        2638.849
  -4361629.462 6  25180867.353          40.000        -119.881
  24538604.358 6  38786268.480          40.000        -114.250
    351902.069 6  24586337.475          41.000       -3331.048
  -5458798.446 6  23979863.429          41.000        3654.623
   7076186.831 6  26012269.401          37.000       -3393.251
  -1465634.258 7  25309758.396          42.000        -966.222
 -19627991.215 7  22281475.582          47.000        1604.998
 -23899811.386 8  21227644.281          50.000       -1607.388
  -1820791.190 6  25243387.557          40.000        3358.064
 -24709789.725 8  20571101.215          50.000       -1033.591
  -5003883.207 7  24706245.128          42.000        1583.074
 -19990532.039 8  22126397.451          48.000       -2296.949
 16  6 24  1 14 30.0010000  0 13G07G26S20G03G30G19G04G02G06G05G09G16
                                G23
 -14642440.722 8  22165889.877          49.000        2626.575
  -4357756.809 6  25181604.084          40.000        -137.650
  24542039.725 6  38786922.113          40.000        -114.615
    451902.142 6  24605368.037          40.000       -3335.281
  -5568390.174 7  23959011.309          42.000        3651.085
   7177956.130 6  26031636.909          39.000       -3390.536
  -1436347.813 7  25315331.507          42.000        -985.525
 -19675896.639 7  22272358.786          47.000        1589.057
 -23851307.034 8  21236874.836          50.000       -1626.088
  -1921520.734 6  25224219.261          40.000        3357.993
 -24678586.034 8  20577039.158          50.000       -1046.458
  -5051130.186 6  24697254.794          41.000        1566.143
 -19921495.509 7  22139533.731          47.000       -2305.388
 16  6 24  1 15  0.0010000  0 13G07G26S20G03G30G19G04G02G06G05G09G16
                                G23
 -14721055.843 8  22150929.892          49.000        2614.920
  -4353339.577 6  25182443.876          41.000        -155.600
  24545465.118 6  38787574.576          40.000        -113.797
    552011.761 7  24624418.405          42.000       -3338.816
  -5677867.394 6  23938178.017          41.000        3648.844
   7279658.924 6  26050990.143          36.000       -3388.654
  -1406490.894 7  25321013.472          42.000       -1004.931
 -19723326.421 7  22263333.882          47.000        1573.107
 -23802257.771 8  21246207.963          50.000       -1643.745
  -2022242.618 6  25205051.313          39.000        3357.425
 -24646998.288 8  20583049.432          50.000       -1059.259
  -5097898.979 6  24688352.041          41.000        1550.576
 -19852226.786 7  22152715.137          47.000       -2312.633
 16  6 24  1 15 30.0010000  0 13G07G26S20G03G30G19G04G02G06G05G09G16
                                G23
 -14799299.679 8  22136039.639          48.000        2602.290
  -4348369.947 6  25183389.625          41.000        -174.609
  24548885.837 6  38788224.632          40.000        -113.203
    652237.513 6  24643489.887          41.000       -3342.128
  -5787219.979 7  23917368.755          42.000        3643.043
   7381299.735 6  26070332.767          37.000       -3387.031
  -1376057.282 6  25326805.042          41.000       -1023.121
 -19770271.209 7  22254398.638          46.000        1557.101
 -23752657.551 8  21255647.361          50.000       -1662.124
  -2122947.693 6  25185889.334          40.000        3357.432
 -24615020.156 8  20589135.527          51.000       -1071.894
  -5144179.523 6  24679546.417          41.000        1535.003
 -19782719.971 7  22165941.058          47.000       -2320.478
 16  6 24  1 16  0.0010000  0 13G07G26S20G03G30G19G04G02G06G05G09G16
                                G23
 -14877175.435 8  22121221.455          49.000        2589.604
  -4342853.093 7  25184441.385          42.000        -192.756
  24552295.449 6  38788871.442          40.000        -112.770
    752573.193 6  24662580.583          40.000       -3345.886
  -5896450.631 6  23896582.754          41.000        3639.038
   7482870.67615  26089659.389          35.000       -3383.211
  -1345052.777 6  25332704.438          41.000       -1042.288
 -19816734.406 7  22245556.438          45.000        1541.083
 -23702513.107 8  21265187.814          49.000       -1680.212
  -2223640.425 6  25166727.442          40.000        3355.968
 -24582658.160 8  20595293.534          51.000       -1085.090
  -5189974.862 6  24670832.477          41.000        1518.664
 -19712981.326 7  22179212.996          47.000       -2328.376
 16  6 24  1 16 30.0010000  0 13G07G26S20G03G30G19G04G02G06G05G09G16
                                G23
 -14954668.679 8  22106475.672          49.000        2577.150
  -4336776.695 7  25185596.537          42.000        -211.609
  24555706.238 6  38789520.799          40.000        -113.584
    853029.918 6  24681696.720          41.000       -3350.248
  -6005544.659 7  23875822.962          42.000        3634.827
   7584380.42615  26108977.147          35.000       -3383.182
  -1313466.379 6  25338714.607          41.000       -1062.743
 -19862702.512 7  22236809.900          45.000        1524.216
 -23651813.854 8  21274836.197          49.000       -1698.724
  -2324307.693 6  25147572.286          40.000        3355.197
 -24549901.385 8  20601526.682          51.000       -1098.011
  -5235270.402 6  24662212.802          41.000        1501.944
 -19643000.567 7  22192529.833          47.000       -2336.340
 16  6 24  1 17  0.0010000  0 14G07G26G29S20G03G30G19G04G02G06G05G09
                                G16G23
 -15031775.228 8  22091802.081          49.000        2563.752
  -4330138.430 7  25186860.683          43.000        -231.058
    -35274.76316  25231738.158          39.000        1172.370
  24559122.885 6  38790169.633          40.000        -113.350
    953608.986 6  24700833.659          39.000       -3354.563
  -6114497.244 7  23855090.010          42.000        3629.503
   7685828.886 6  26128281.974          36.000       -3379.716
  -1281296.908 6  25344837.242          40.000       -1082.631
 -19908170.919 7  22228156.337          46.000        1506.870
 -23600559.086 8  21284588.722          49.000       -1717.900
  -2424945.954 6  25128421.195          40.000        3353.449
 -24516748.851 8  20607835.529          51.000       -1111.703
  -5280061.686 6  24653688.248          40.000        1484.906
 -19572776.531 8  22205893.437          48.000       -2344.663
 16  6 24  1 17 30.0010000  0 14G07G26G29S20G03G30G19G04G02G06G05G09
                                G16G23
 -15108499.901 8  22077201.082          49.000        2551.205
  -4322944.899 7  25188229.810          44.000        -248.854
    -70174.034 6  25225097.077          39.000        1154.699
  24562538.715 6  38790821.783          40.000        -113.866
   1054302.680 6  24719995.376          40.000       -3359.368
  -6223312.609 7  23834383.878          43.000        3625.207
   7787206.981 6  26147571.671          36.000       -3378.075
  -1248552.143 6  25351068.261          40.000       -1100.568
 -19953145.027 7  22219600.007          47.000        1490.549
 -23548757.202 8  21294445.600          48.000       -1736.047
  -2525560.737 6  25109273.926          40.000        3353.619
 -24483208.518 8  20614217.859          51.000       -1124.502
  -5324353.164 6  24645261.521          41.000        1467.930
 -19502317.362 8  22219300.439          48.000       -2352.169
 16  6 24  1 18  0.0010000  0 14G07G26G29S20G03G30G19G04G02G06G05G09
                                G16G23
 -15184852.528 8  22062670.600          49.000        2538.793
  -4315208.651 7  25189700.880          42.000        -266.964
   -104556.145 6  25218554.379          39.000        1137.720
  24565943.231 6  38791470.180          40.000        -113.588
   1155097.416 6  24739175.836          39.000       -3361.506
  -6332000.806 7  23813698.372          42.000        3620.375
   7888498.928 5  26166847.409          35.000       -3375.035
  -1215246.130 6  25357405.203          40.000       -1119.015
 -19997636.018 7  22211133.213          47.000        1475.137
 -23496422.348 8  21304406.550          50.000       -1753.539
  -2626163.925 6  25090129.973          40.000        3353.139
 -24449294.290 8  20620671.770          51.000       -1136.881
  -5368155.205 6  24636925.674          40.000        1452.083
 -19431637.159 8  22232751.276          48.000       -2359.772
 16  6 24  1 18 30.0010000  0 14G07G26G29S20G03G30G19G04G02G06G05G09
                                G16G23
 -15260826.157 8  22048215.101          49.000        2526.354
  -4306925.018 7  25191278.869          43.000        -284.734
   -138415.440 6  25212110.817          38.000        1120.455
  24569341.100 6  38792117.828          40.000        -111.949
   1255996.754 6  24758378.265          40.000       -3364.447
  -6440554.598 7  23793040.927          42.000        3616.615
   7989706.329 5  26186104.579          34.000       -3372.068
  -1181375.347 6  25363852.134          40.000       -1137.977
 -20041637.534 7  22202760.180          47.000        1458.703
 -23443551.539 8  21314466.531          49.000       -1771.185
  -2726748.870 6  25070987.800          38.000        3352.702
 -24415002.808 8  20627197.401          51.000       -1149.079
  -5411460.973 6  24628683.849          40.000        1435.222
 -19360732.646 8  22246244.360          48.000       -2367.008
 16  6 24  1 19  0.0010000  0 14G07G26G29S20G03G30G19G04G02G06G05G09
                                G16G23
 -15336407.540 8  22033832.004          49.000        2512.668
  -4298082.199 7  25192960.982          43.000        -304.293
   -171738.511 6  25205770.071          39.000        1101.810
  24572741.538 6  38792766.941          40.000        -113.647
   1357011.584 6  24777602.419          40.000       -3368.435
  -6548959.668 7  23772412.798          43.000        3611.444
   8090839.11415  26205349.272          35.000       -3370.260
  -1146928.241 6  25370407.378          40.000       -1158.209
 -20085135.763 7  22194482.355          47.000        1441.170
 -23390134.652 8  21324631.859          50.000       -1789.624
  -2827303.501 6  25051852.938          38.000        3351.336
 -24380323.534 8  20633796.724          51.000       -1162.651
  -5454256.352 6  24620539.658          40.000        1417.585
 -19289593.457 8  22259782.571          49.000       -2375.503
 16  6 24  1 19 30.0010000  0 14G07G26G29S20G03G30G19G04G02G06G05G09
                                G16G23
 -15411593.309 8  22019524.570          49.000        2499.052
  -4288679.103 7  25194750.014          42.000        -323.006
   -204523.308 6  25199531.094          39.000        1083.802
  24576145.084 6  38793411.569          40.000        -113.645
   1458141.813 7  24796849.172          42.000       -3373.754
  -6657212.444 7  23751813.705          43.000        3604.990
   8191894.684 5  26224579.238          35.000       -3368.027
  -1111905.583 6  25377071.529          41.000       -1177.496
 -20128128.342 7  22186301.170          46.000        1424.199
 -23336172.316 8  21334901.451          50.000       -1808.111
  -2927824.947 6  25032725.457          38.000        3349.844
 -24345256.727 8  20640469.443          50.000       -1175.545
  -5496538.152 6  24612495.858          40.000        1400.892
 -19218219.751 8  22273364.180          49.000       -2383.151
 16  6 24  1 20  0.0010000  0 14G07G26G29S20G03G30G19G04G02G06G05G09
                                G16G23
 -15486393.193 8  22005291.213          49.000        2486.814
  -4278728.014 6  25196642.786          41.000        -341.363
   -236781.272 6  25193393.905          40.000        1066.555
  24579542.743 6  38794058.711          40.000        -113.622
   1559374.440 6  24816113.392          41.000       -3376.172
  -6765322.448 7  23731240.527          44.000        3600.922
   8292858.62416  26243793.812          36.000       -3364.519
  -1076320.529 6  25383842.074          40.000       -1195.787
 -20170625.297 7  22178213.605          46.000        1408.304
 -23281678.324 8  21345271.680          50.000       -1825.569
  -3028324.887 6  25013600.595          37.000        3349.949
 -24309815.762 8  20647213.638          50.000       -1187.900
  -5538316.321 6  24604544.579          40.000        1383.970
 -19146625.119 8  22286988.245          49.000       -2390.546
 16  6 24  1 20 30.0010000  0 14G07G26G29S20G03G30G19G04G02G06G05G09
                                G16G23
 -15560809.010 8  21991129.855          49.000        2474.634
  -4268232.269 6  25198640.086          41.000        -357.910
   -268514.565 6  25187354.751          40.000        1049.650
  24582930.125 6  38794704.474          40.000        -112.915
   1660704.954 7  24835396.737          42.000       -3378.962
  -6873290.637 7  23710695.914          44.000        3596.924
   8393725.207 5  26262987.028          34.000       -3360.323
  -1040178.245 6  25390720.618          41.000       -1213.255
 -20212628.824 7  22170220.480          46.000        1392.192
 -23226657.828 8  21355741.060          50.000       -1842.430
  -3128805.049 6  24994479.065          36.000        3349.170
 -24274005.429 8  20654029.048          51.000       -1199.521
  -5579591.851 6  24596689.032          40.000        1368.122
 -19074814.566 8  22300653.162          49.000       -2397.178
 16  6 24  1 21  0.0010000  0 14G07G26G29S20G03G30G19G04G02G06G05G09
                                G16G23
 -15634832.579 8  21977043.516          49.000        2460.998
  -4257185.923 6  25200743.553          41.000        -377.949
   -299716.179 6  25181417.751          40.000        1031.213
  24586310.899 6  38795348.177          40.000        -111.970
   1762138.416 6  24854696.748          41.000       -3383.028
  -6981108.380 7  23690178.489          44.000        3590.975
   8494496.863 6  26282165.916          37.000       -3356.317
  -1003473.497 6  25397705.504          41.000       -1233.299
 -20254131.504 7  22162324.117          47.000        1375.046
 -23171106.498 8  21366312.210          49.000       -1860.684
  -3229258.302 5  24975360.763          34.000        3348.731
 -24237820.888 8  20660914.380          51.000       -1212.418
  -5620356.456 6  24588934.137          40.000        1349.980
 -19002783.361 8  22314359.750          49.000       -2404.673
 16  6 24  1 21 30.0010000  0 14G07G26G29S20G03G30G19G04G02G06G05G09
                                G16G23
 -15708457.578 8  21963033.504          49.000        2446.657
  -4245584.849 6  25202949.574          40.000        -396.533
   -330380.738 6  25175582.572          40.000        1012.838
  24589689.861 6  38795992.596          40.000        -113.202
   1863678.104 6  24874018.816          41.000       -3387.790
  -7088768.822 7  23669691.951          45.000        3585.592
   8595175.961 6  26301324.440          37.000       -3355.929
   -966203.790 6  25404797.779          41.000       -1252.244
 -20295127.450 7  22154522.770          47.000        1357.334
 -23115021.864 8  21376983.507          49.000       -1878.830
  -3329679.415 5  24956254.712          35.000        3345.491
 -24201259.245 8  20667871.869          51.000       -1225.548
  -5660604.326 6  24581276.406          41.000        1331.958
 -18930528.581 8  22328109.527          49.000       -2412.797
 16  6 24  1 22  0.0010000  0 14G07G26G29S20G03G30G19G04G02G06G05G09
                                G16G23
 -15781689.369 8  21949096.852          49.000        2434.949
  -4233437.094 6  25205261.100          40.000        -413.964
   -360515.151 6  25169848.169          40.000         996.443
  24593060.468 6  38796632.513          40.000        -111.646
   1965315.060 6  24893358.665          40.000       -3388.876
  -7196277.393 7  23649234.660          45.000        3581.879
   8695751.448 5  26320463.333          33.000       -3351.217
   -928378.291 6  25411994.301          41.000       -1269.616
 -20335622.930 7  22146817.155          47.000        1342.003
 -23058413.561 8  21387755.351          49.000       -1894.950
  -3430074.974 6  24937148.207          36.000        3346.697
 -24164329.681 8  20674898.793          50.000       -1236.319
  -5700340.962 6  24573712.487          40.000        1316.628
 -18858059.551 8  22341899.596          49.000       -2418.659
 16  6 24  1 22 30.0010000  0 14G07G26G29S20G03G30G19G04G02G06G05G09
                                G16G23
 -15854523.726 8  21935237.855          48.000        2421.346
  -4220740.592 6  25207677.362          39.000        -433.135
   -390116.180 6  25164214.541          39.000         978.664
  24596423.339 6  38797273.058          40.000        -112.116
   2067050.621 6  24912716.035          40.000       -3392.858
  -7303629.117 7  23628806.405          46.000        3575.708
   8796223.163 5  26339583.868          35.000       -3345.608
   -889995.505 7  25419299.904          42.000       -1288.674
 -20375614.055 7  22139207.220          47.000        1324.595
 -23001281.054 8  21398628.652          49.000       -1912.983
  -3530441.105 6  24918048.717          37.000        3344.615
 -24127031.139 8  20681996.389          50.000       -1249.418
  -5739561.956 6  24566248.680          39.000        1299.511
 -18785374.942 8  22355732.035          49.000       -2426.205
 16  6 24  1 23  0.0010000  0 14G07G26G29S20G03G30G19G04G02G06G05G09
                                G16G23
 -15926961.616 8  21921452.497          48.000        2407.545
  -4207498.104 6  25210197.610          40.000        -450.690
   -419185.682 6  25158682.071          39.000         960.122
  24599775.323 6  38797910.916          40.000        -110.884
   2168881.130 6  24932094.484          39.000       -3396.078
  -7410824.204 7  23608406.682          45.000        3570.654
   8896585.271 5  26358679.293          35.000       -3344.086
   -851059.516 6  25426707.748          40.000       -1307.211
 -20415101.812 7  22131692.895          47.000        1307.682
 -22943628.808 8  21409599.569          50.000       -1930.792
  -3630779.580 6  24898953.624          36.000        3344.160
 -24089367.584 8  20689163.543          50.000       -1261.652
  -5778267.737 6  24558884.513          40.000        1281.298
 -18712478.721 8  22369604.103          49.000       -2433.707
 16  6 24  1 23 30.0010000  0 14G07G26G29S20G03G30G19G04G02G06G05G09
                                G16G23
 -15998993.681 8  21907746.223          49.000        2394.903
  -4193702.398 6  25212822.419          39.000        -468.821
   -447715.012 6  25153255.717          40.000         942.291
  24603125.049 6  38798546.436          40.000        -111.188
   2270812.916 6  24951493.682          40.000       -3398.950
  -7517852.615 7  23588039.922          45.000        3565.698
   8996844.003 6  26377757.982          39.000       -3339.582
   -811564.186 6  25434223.278          40.000       -1325.070
 -20454077.538 7  22124274.283          46.000        1291.164
 -22885451.287 8  21420669.219          49.000       -1947.267
  -3731081.358 6  24879867.396          38.000        3342.691
 -24051332.928 8  20696401.021          50.000       -1273.534
  -5816449.192 6  24551616.411          40.000        1264.856
 -18639365.347 8  22383517.353          49.000       -2440.115
 16  6 24  1 24  0.0010000  0 14G07G26G29S20G03G30G19G04G02G06G05G09
                                G16G23
 -16070614.790 8  21894117.813          49.000        2380.387
  -4179351.070 6  25215552.628          40.000        -487.474
   -475701.184 6  25147929.108          40.000         923.811
  24606470.785 6  38799183.822          40.000        -111.999
   2372847.582 6  24970910.504          40.000       -3403.107
  -7624709.311 7  23567705.253          46.000        3558.738
   9096998.924 5  26396817.982          32.000       -3336.303
   -771508.561 6  25441846.423          40.000       -1344.437
 -20492537.186 7  22116956.692          46.000        1273.150
 -22826747.683 8  21431841.686          50.000       -1965.781
  -3831343.379 6  24860789.125          39.000        3341.535
 -24012925.908 8  20703709.905          50.000       -1286.678
  -5854101.465 6  24544452.171          40.000        1246.259
 -18566033.404 8  22397471.333          49.000       -2448.111
 16  6 24  1 24 30.0010000  0 14G07G26G29S20G03G30G19G04G02G06G05G09
                                G16G23
 -16141826.510 8  21880565.066          48.000        2367.556
  -4164447.460 6  25218388.550          39.000        -505.648
   -503145.647 6  25142705.856          39.000         906.001
  24609810.675 6  38799818.609          40.000        -111.167
   2474981.107 6  24990346.487          40.000       -3405.230
  -7731394.590 7  23547403.199          46.000        3553.449
   9197045.15916  26415856.746          41.000       -3332.586
   -730896.530 6  25449574.776          40.000       -1362.131
 -20530482.071 7  22109736.525          47.000        1256.912
 -22767522.851 8  21443110.513          49.000       -1982.465
  -3931566.919 6  24841717.049          39.000        3340.053
 -23974150.763 8  20711088.729          50.000       -1297.941
  -5891225.587 6  24537388.882          40.000        1228.469
 -18492487.127 8  22411466.285          49.000       -2454.646
 16  6 24  1 25  0.0010000  0 14G07G26G29S20G03G30G19G04G02G06G05G09
                                G16G23
 -16212631.988 8  21867091.893          48.000        2352.940
  -4148997.324 6  25221331.197          41.000        -524.146
   -530053.368 6  25137584.776          39.000         887.108
  24613141.607 6  38800453.029          40.000        -110.515
   2577207.013 6  25009800.461          40.000       -3409.129
  -7837911.458 7  23527133.392          46.000        3546.856
   9296971.48616  26434871.655          38.000       -3329.088
   -689735.453 6  25457407.585          40.000       -1381.566
 -20567916.273 8  22102613.450          48.000        1239.057
 -22707784.175 8  21454477.830          49.000       -2000.262
  -4031756.454 6  24822649.702          38.000        3339.401
 -23935014.331 8  20718535.505          50.000       -1310.863
  -5927825.022 6  24530424.796          41.000        1210.680
 -18418733.600 8  22425499.942          48.000       -2462.187
 16  6 24  1 25 30.0010000  0 13G07G26G29S20G03G30G04G02G06G05G09G16
                                G23
 -16283029.330 8  21853695.622          48.000        2339.767
  -4133001.185 6  25224374.672          41.000        -542.091
   -556423.759 6  25132568.745          39.000         870.420
  24616463.745 6  38801085.320          41.000        -111.105
   2679523.854 6  25029269.704          40.000       -3411.967
  -7944257.673 7  23506895.677          45.000        3541.938
   -648027.264 6  25465343.578          40.000       -1398.871
 -20604838.972 7  22095586.632          47.000        1222.677
 -22647533.862 8  21465944.211          49.000       -2016.781
  -4131911.145 6  24803593.349          39.000        3338.484
 -23895518.250 8  20726051.506          50.000       -1322.423
  -5963897.851 6  24523559.130          40.000        1193.121
 -18344774.452 8  22439572.949          48.000       -2468.676
 16  6 24  1 26  0.0010000  0 13G07G26G29S20G03G30G04G02G06G05G09G16
                                G23
 -16353009.121 8  21840378.593          48.000        2325.925
  -4116451.588 7  25227524.297          42.000        -560.863
   -582248.664 6  25127652.583          39.000         850.943
  24619786.343 6  38801719.653          41.000        -109.999
   2781938.551 6  25048757.601          40.000       -3416.170
  -8050422.957 7  23486693.333          46.000        3535.690
   -605765.549 6  25473386.383          41.000       -1417.834
 -20641240.403 7  22088660.204          47.000        1205.176
 -22586765.999 8  21477509.360          49.000       -2034.037
  -4232021.598 6  24784542.022          39.000        3336.896
 -23855655.987 8  20733637.255          50.000       -1334.363
  -5999434.935 6  24516797.311          41.000        1175.823
 -18270602.830 8  22453688.919          49.000       -2475.461
 16  6 24  1 26 30.0010000  0 13G07G26G29S20G03G30G04G02G06G05G09G16
                                G23
 -16422572.954 8  21827141.521          48.000        2311.449
  -4099352.495 7  25230778.466          42.000        -579.310
   -607529.732 6  25122840.615          37.000         835.151
  24623105.415 6  38802351.892          41.000        -110.258
   2884446.647 6  25068262.163          38.000       -3418.140
  -8156408.043 7  23466527.303          46.000        3530.091
   -562955.258 6  25481532.267          41.000       -1435.368
 -20677122.681 7  22081831.445          47.000        1187.445
 -22525485.928 8  21489169.403          49.000       -2051.062
  -4332089.981 6  24765498.878          39.000        3335.519
 -23815432.290 8  20741291.200          50.000       -1346.851
  -6034437.385 6  24510136.772          41.000        1158.073
 -18196223.744 8  22467843.489          49.000       -2482.894
 16  6 24  1 27  0.0010000  0 13G07G26G29S20G03G30G04G02G06G05G09G16
                                G23
 -16491715.543 8  21813983.586          48.000        2297.191
  -4081700.856 7  25234136.673          42.000        -597.912
   -632263.838 6  25118133.960          37.000         814.468
  24626423.009 6  38802983.607          41.000        -111.171
   2987050.036 6  25087784.489          38.000       -3422.785
  -8262207.483 7  23446394.725          47.000        3522.895
   -519594.887 6  25489783.899          41.000       -1454.993
 -20712481.549 7  22075102.397          46.000        1169.172
 -22463692.689 8  21500926.959          49.000       -2068.459
  -4432112.163 6  24746466.606          39.000        3332.924
 -23774845.525 8  20749015.102          49.000       -1359.775
  -6068900.418 6  24503578.212          40.000        1139.345
 -18121635.545 8  22482038.473          49.000       -2490.151
 16  6 24  1 27 30.0010000  0 13G07G26G29S20G03G30G04G02G06G05G09G16
                                G23
 -16560431.196 8  21800906.899          48.000        2283.425
  -4063493.271 7  25237601.431          43.000        -615.713
   -656446.383 6  25113532.512          37.000         797.234
  24629742.250 6  38803614.206          41.000        -110.231
   3089751.555 6  25107331.002          38.000       -3425.232
  -8367814.849 7  23426297.134          46.000        3517.343
   -475681.754 6  25498140.529          41.000       -1472.780
 -20747311.997 7  22068473.740          46.000        1152.812
 -22401384.338 8  21512784.766          49.000       -2085.172
  -4532082.925 6  24727441.419          37.000        3331.632
 -23733893.165 8  20756807.707          49.000       -1370.931
  -6102818.240 6  24497122.452          40.000        1121.952
 -18046835.727 8  22496271.796          49.000       -2496.419
 16  6 24  1 28  0.0010000  0 13G07G26G29S20G03G30G04G02G06G05G09G16
                                G23
 -16628735.012 8  21787909.505          48.000        2270.063
  -4044747.090 7  25241169.233          42.000        -633.884
   -680093.219 6  25109033.619          38.000         779.742
  24633047.433 6  38804243.234          41.000        -109.782
   3192533.289 6  25126890.340          38.000       -3427.227
  -8473244.537 7  23406233.572          46.000        3511.499
   -431234.666 7  25506598.667          42.000       -1490.139
 -20781629.286 7  22061943.537          46.000        1135.596
 -22338579.750 8  21524738.147          49.000       -2101.702
  -4632018.118 6  24708424.905          38.000        3330.376
 -23692593.409 8  20764666.272          49.000       -1382.129
  -6136205.985 6  24490770.398          40.000        1103.979
 -17971842.472 8  22510542.078          49.000       -2502.733
 16  6 24  1 28 30.0010000  0 13G07G26G29S20G03G30G04G02G06G05G09G16
                                G23
 -16696627.893 8  21774990.638          48.000        2255.365
  -4025465.607 7  25244838.089          43.000        -652.523
   -703206.947 6  25104634.943          38.000         760.155
  24636337.565 6  38804869.749          41.000        -110.249
   3295391.231 6  25146465.017          38.000       -3430.725
  -8578496.828 7  23386205.242          46.000        3504.462
   -386258.400 7  25515157.545          42.000       -1508.680
 -20815435.309 7  22055511.631          47.000        1117.588
 -22275283.831 8  21536782.165          49.000       -2118.677
  -4731919.225 6  24689416.295          38.000        3328.366
 -23650950.498 8  20772591.045          49.000       -1394.631
  -6169064.613 6  24484516.013          39.000        1084.875
 -17896660.184 8  22524848.220          49.000       -2510.015
 16  6 24  1 29  0.0010000  0 13G07G26G29S20G03G30G04G02G06G05G09G16
                                G23
 -16764088.367 8  21762152.862          48.000        2241.760
  -4005629.817 7  25248612.030          43.000        -670.540
   -725766.921 6  25100341.858          38.000         742.689
  24639629.092 6  38805496.090          41.000        -109.782
   3398344.262 6  25166057.231          38.000       -3433.019
  -8683549.427 7  23366214.743          46.000        3498.734
   -340734.418 6  25523819.292          41.000       -1526.080
 -20848708.476 7  22049179.104          47.000        1100.725
 -22211478.782 8  21548922.090          48.000       -2135.195
  -4831765.219 6  24670418.156          40.000        3327.052
 -23608945.935 8  20780585.007          49.000       -1405.624
  -6201372.218 6  24478370.797          41.000        1068.443
 -17821270.053 8  22539193.224          49.000       -2516.179
 16  6 24  1 29 30.0010000  0 13G07G26G29S20G03G30G04G02G06G05G09G16
                                G23
 -16831121.987 8  21749396.020          48.000        2227.269
  -3985247.852 7  25252491.318          43.000        -688.556
   -747780.317 6  25096151.380          38.000         725.552
  24642913.217 6  38806118.975          41.000        -108.919
   3501383.372 6  25185664.471          38.000       -3435.066
  -8788407.630 7  23346260.193          46.000        3492.160
   -294671.884 7  25532585.880          42.000       -1543.872
 -20881455.540 7  22042947.509          46.000        1083.270
 -22147174.589 8  21561158.968          48.000       -2151.267
  -4931562.584 6  24651426.334          40.000        3326.026
 -23566588.936 8  20788644.652          49.000       -1417.316
  -6233135.327 7  24472325.431          42.000        1050.388
 -17745681.407 8  22553577.927          49.000       -2522.350
 16  6 24  1 30  0.0010000  0 13G07G26G29S20G03G30G04G02G06G05G09G16
                                G23
 -16897724.857 8  21736722.380          48.000        2212.678
  -3964317.882 7  25256474.104          42.000        -707.400
   -769244.099 6  25092067.994          40.000         706.381
  24646190.023 6  38806742.000          41.000        -109.183
   3604509.942 6  25205290.050          39.000       -3439.744
  -8893066.583 7  23326343.352          46.000        3485.050
   -248070.033 6  25541453.505          41.000       -1563.228
 -20913673.081 7  22036816.445          46.000        1065.087
 -22082370.859 8  21573492.101          49.000       -2168.579
  -5031307.629 6  24632444.912          41.000        3323.730
 -23523878.467 8  20796772.806          49.000       -1429.662
  -6264349.727 6  24466384.312          41.000        1031.038
 -17669893.226 8  22568001.212          49.000       -2529.675
 16  6 24  1 30 30.0010000  0 13G07G26G29S20G03G30G04G02G06G05G09G16
                                G23
 -16963889.957 8  21724132.066          48.000        2197.799
  -3942835.014 6  25260563.109          41.000        -725.459
   -790152.529 6  25088089.100          39.000         687.519
  24649465.780 6  38807364.973          40.000        -109.273
   3707728.165 6  25224928.804          37.000       -3443.126
  -8997518.451 7  23306465.041          45.000        3477.652
   -200925.663 6  25550424.435          41.000       -1580.879
 -20945354.264 7  22030788.529          47.000        1046.677
 -22017064.418 8  21585920.897          49.000       -2185.572
  -5130993.722 7  24613475.652          42.000        3321.435
 -23480810.556 8  20804968.807          49.000       -1441.967
  -6295007.981 7  24460551.228          42.000        1012.509
 -17593901.498 8  22582462.208          49.000       -2536.740
 16  6 24  1 31  0.0010000  0 13G07G26G29S20G03G30G04G02G06G05G09G16
                                G23
 -17029613.501 8  21711625.599          49.000        2183.177
  -3920798.143 6  25264755.157          41.000        -743.974
   -810503.561 6  25084217.508          40.000         669.210
  24652744.258 6  38807986.654          40.000        -109.084
   3811038.717 6  25244588.010          36.000       -3445.078
  -9101759.052 7  23286631.856          46.000        3470.977
   -153238.610 6  25559499.246          41.000       -1598.472
 -20976496.366 7  22024861.161          46.000        1028.932
 -21951255.731 8  21598442.754          49.000       -2202.308
  -5230618.030 6  24594516.288          41.000        3320.099
 -23437385.070 8  20813232.183          49.000       -1453.388
  -6325107.286 7  24454823.700          42.000         993.681
 -17517705.955 8  22596961.471          49.000       -2543.275
 16  6 24  1 31 30.0010000  0 13G07G26G29S20G03G30G04G02G06G05G09G16
                                G23
 -17094903.498 8  21699200.433          49.000        2169.377
  -3898217.806 6  25269051.348          41.000        -762.010
   -830305.874 6  25080447.685          40.000         651.638
  24656015.405 6  38808609.610          40.000        -109.218
   3914430.542 6  25264262.764          36.000       -3446.319
  -9205795.675 7  23266834.253          46.000        3464.768
   -105020.579 6  25568674.588          41.000       -1616.180
 -21007107.842 7  22019036.522          47.000        1011.799
 -21884956.715 8  21611058.145          48.000       -2218.119
  -5330188.878 7  24575568.981          42.000        3318.621
 -23393612.939 8  20821562.254          49.000       -1464.466
  -6354655.501 7  24449200.489          42.000         975.812
 -17441317.856 8  22611498.183          49.000       -2549.269
 16  6 24  1 32  0.0010000  0 13G07G26G29S20G03G30G04G02G06G05G09G16
                                G23
 -17159765.397 8  21686857.406          49.000        2155.092
  -3875101.453 6  25273450.984          41.000        -779.777
   -849566.167 6  25076783.226          41.000         633.340
  24659274.479 6  38809231.204          40.000        -107.992
   4017895.589 6  25283952.002          36.000       -3450.234
  -9309632.884 7  23247073.609          46.000        3458.711
    -56280.776 7  25577950.775          42.000       -1633.315
 -21037194.662 7  22013311.699          47.000         994.317
 -21818176.590 8  21623765.917          48.000       -2233.837
  -5429712.224 7  24556631.132          42.000        3316.962
 -23349502.720 8  20829955.302          49.000       -1475.799
  -6383658.018 6  24443680.933          41.000         957.632
 -17364745.363 8  22626068.016          49.000       -2555.335
 16  6 24  1 32 30.0010000  0 13G07G26G29S20G03G30G04G02G06G05G09G16
                                G23
 -17224195.387 8  21674598.331          49.000        2139.948
  -3851448.104 6  25277952.408          41.000        -797.568
   -868282.173 6  25073221.829          41.000         614.453
  24662523.312 6  38809848.069          40.000        -108.416
   4121434.647 5  25303653.699          35.000       -3452.751
  -9413266.217 7  23227352.943          46.000        3450.690
     -7018.541 7  25587324.753          42.000       -1651.297
 -21066753.693 8  22007687.442          48.000         976.392
 -21750915.527 8  21636564.430          48.000       -2250.065
  -5529184.678 6  24537700.176          41.000        3314.656
 -23305053.818 8  20838413.493          49.000       -1487.520
  -6412111.154 6  24438267.527          41.000         939.057
 -17287987.744 8  22640673.831          48.000       -2561.917
 16  6 24  1 33  0.0010000  0 13G07G26G29S20G03G30G04G02G06G05G09G16
                                G23
 -17288175.935 8  21662423.035          50.000        2125.130
  -3827242.611 7  25282559.527          42.000        -815.947
   -886437.704 6  25069768.012          41.000         595.886
  24665775.131 6  38810467.517          40.000        -108.357
   4225062.429 5  25323376.860          35.000       -3455.917
  -9516677.530 7  23207675.484          46.000        3443.237
     42779.888 6  25596800.692          41.000       -1668.719
 -21095768.191 8  22002166.699          48.000         958.402
 -21683160.114 8  21649458.535          48.000       -2266.749
  -5628589.277 6  24518782.604          40.000        3312.889
 -23260251.942 8  20846938.256          49.000       -1498.983
  -6439997.888 6  24432961.003          41.000         919.936
 -17211030.995 8  22655317.931          48.000       -2568.241
 16  6 24  1 33 30.0010000  0 13G07G26G29S20G03G30G04G02G06G05G09G16
                                G23
 -17351714.329 8  21650332.617          50.000        2110.453
  -3802494.594 6  25287266.671          41.000        -833.535
   -904041.500 6  25066418.582          41.000         577.117
  24669020.364 6  38811085.220          40.000        -107.715
   4328768.853 6  25343111.521          37.000       -3457.636
  -9619873.273 7  23188038.335          46.000        3435.914
     93103.880 7  25606377.616          42.000       -1685.971
 -21124246.034 8  21996747.935          48.000         939.935
 -21614921.477 7  21662442.056          47.000       -2282.622
  -5727933.775 6  24499878.731          40.000        3309.881
 -23215107.419 8  20855529.661          49.000       -1510.431
  -6467325.571 6  24427759.983          41.000         901.523
 -17133885.097 8  22669998.485          48.000       -2574.747
 16  6 24  1 34  0.0010000  0 13G07G26G29S20G03G30G04G02G06G05G09G16
                                G23
 -17414817.499 8  21638324.075          50.000        2096.270
  -3777213.362 6  25292078.376          41.000        -851.633
   -921101.720 6  25063172.056          41.000         559.679
  24672253.785 6  38811700.532          40.000        -108.209
   4432544.296 6  25362859.426          38.000       -3460.320
  -9722859.463 7  23168439.123          46.000        3429.041
    143942.873 6  25616051.790          41.000       -1703.052
 -21152194.211 7  21991427.399          47.000         922.782
 -21546210.309 7  21675518.080          47.000       -2297.910
  -5827225.136 6  24480984.525          39.000        3309.180
 -23169630.104 8  20864183.468          49.000       -1521.204
  -6494100.937 6  24422665.287          41.000         883.703
 -17056560.051 8  22684713.277          48.000       -2579.913
 16  6 24  1 34 30.0010000  0 13G07G26G29S20G03G30G04G02G06G05G09G16
                                G23
 -17477487.764 8  21626397.497          49.000        2081.659
  -3751403.547 6  25296989.531          40.000        -868.969
   -937621.434 6  25060027.422          41.000         541.735
  24675470.352 6  38812312.703          40.000        -107.117
   4536383.713 6  25382619.895          36.000       -3461.544
  -9825637.565 7  23148881.268          46.000        3421.760
    195291.511 7  25625823.126          42.000       -1720.637
 -21179616.016 7  21986209.120          47.000         905.292
 -21477032.812 7  21688682.088          47.000       -2313.854
  -5926466.170 6  24462099.481          40.000        3306.884
 -23123825.364 8  20872899.189          49.000       -1532.339
  -6520326.693 6  24417675.275          41.000         864.641
 -16979060.976 8  22699461.154          48.000       -2586.312
 16  6 24  1 35  0.0010000  0 13G07G26G29S20G03G30G04G02G06G05G09G16
                                G23
 -17539716.606 8  21614555.116          49.000        2066.751
  -3725059.269 6  25302003.624          41.000        -887.026
   -953593.529 6  25056987.071          41.000         523.275
  24678674.576 6  38812921.611          40.000        -106.406
   4640292.694 6  25402391.376          36.000       -3464.231
  -9928198.302 7  23129364.613          46.000        3414.698
    247154.187 7  25635691.748          43.000       -1737.394
 -21206503.649 8  21981093.676          48.000         887.233
 -21407384.468 8  21701938.006          48.000       -2329.456
  -6025648.816 6  24443225.186          39.000        3305.409
 -23077687.791 8  20881679.563          49.000       -1543.542
  -6545994.556 6  24412788.621          40.000         846.612
 -16901382.510 8  22714242.448          48.000       -2592.317
 16  6 24  1 35 30.0010000  0 13G07G26G29S20G03G30G04G02G06G05G09G16
                                G23
 -17601487.831 8  21602802.010          50.000        2051.045
  -3698167.185 6  25307119.609          40.000        -905.234
   -969003.598 6  25054054.632          40.000         504.115
  24681881.225 6  38813530.798          40.000        -106.868
   4744284.418 5  25422177.934          35.000       -3467.961
 -10030525.107 7  23109892.770          46.000        3406.903
    299543.022 7  25645661.232          42.000       -1755.163
 -21232841.758 8  21976080.944          48.000         868.777
 -21337253.442 8  21715283.671          48.000       -2345.528
  -6124757.257 6  24424366.072          40.000        3302.308
 -23031204.706 8  20890525.584          50.000       -1555.150
  -6571088.870 6  24408014.084          41.000         827.000
 -16823511.912 7  22729060.161          47.000       -2598.714
 16  6 24  1 36  0.0010000  0 13G07G26G29S20G03G30G04G02G06G05G09G16
                                G23
 -17662803.629 8  21591134.428          50.000        2036.523
  -3670731.552 6  25312340.714          40.000        -923.679
   -983855.055 6  25051229.668          41.000         485.892
  24685082.383 6  38814141.015          40.000        -105.947
   4848354.124 6  25441981.261          36.000       -3470.989
 -10132619.138 7  23090465.652          46.000        3399.354
    352452.738 6  25655729.030          41.000       -1771.737
 -21258632.785 7  21971172.530          47.000         850.554
 -21266645.631 8  21728719.239          48.000       -2361.661
  -6223793.919 6  24405520.937          40.000        3299.810
 -22984381.060 8  20899436.067          50.000       -1566.200
  -6595611.564 6  24403348.332          41.000         808.367
 -16745454.022 7  22743913.803          47.000       -2604.531
 16  6 24  1 36 30.0010000  0 13G07G26G29S20G03G30G04G02G06G05G09G16
                                G23
 -17723670.472 8  21579549.962          50.000        2020.696
  -3642761.421 6  25317664.147          41.000        -941.612
   -998155.438 6  25048508.359          40.000         467.453
  24688272.470 6  38814747.671          40.000        -106.940
   4952492.692 5  25461798.234          35.000       -3472.353
 -10234485.842 7  23071079.856          46.000        3391.676
    405873.293 6  25665895.475          41.000       -1789.463
 -21283884.233 8  21966367.874          48.000         832.527
 -21195571.314 8  21742243.507          48.000       -2377.545
  -6322765.660 6  24386686.533          40.000        3297.399
 -22937226.264 8  20908408.864          50.000       -1577.953
  -6619569.518 6  24398788.119          41.000         788.736
 -16667217.926 7  22758801.666          47.000       -2611.088
 16  6 24  1 37  0.0010000  0 13G07G26G29S20G03G30G04G02G06G05G09G16
                                G23
 -17784079.279 8  21568054.160          49.000        2006.156
  -3614249.797 6  25323088.443          41.000        -958.500
  -1011897.265 6  25045893.252          40.000         447.606
  24691459.484 6  38815354.573          40.000        -106.599
   5056706.482 6  25481631.593          36.000       -3474.032
 -10336115.301 7  23051740.251          45.000        3384.025
    459810.142 7  25676158.820          42.000       -1806.309
 -21308587.213 8  21961666.977          48.000         814.274
 -21124025.304 8  21755856.771          48.000       -2392.447
  -6421663.282 6  24367867.084          41.000        3295.541
 -22889734.131 8  20917445.878          49.000       -1588.191
  -6642953.521 7  24394338.994          42.000         770.017
 -16588797.855 7  22773724.761          46.000       -2616.589
 16  6 24  1 37 30.0010000  0 13G07G26G29S20G03G30G04G02G06G05G09G16
                                G23
 -17844013.396 8  21556649.692          50.000        1989.801
  -3585183.282 7  25328620.371          42.000        -977.870
  -1025065.898 6  25043386.860          40.000         430.209
  24694658.672 6  38815963.132          40.000        -107.197
   5161008.954 6  25501480.064          36.000       -3476.726
 -10437490.389 7  23032448.844          46.000        3375.254
    514276.380 6  25686523.098          41.000       -1824.593
 -21332726.029 8  21957074.411          48.000         795.312
 -21051995.295 7  21769563.568          47.000       -2409.146
  -6520471.078 7  24349064.073          42.000        3291.996
 -22841891.521 8  20926549.883          49.000       -1600.715
  -6665747.836 7  24390003.487          42.000         750.586
 -16510180.224 7  22788685.478          47.000       -2623.797
 16  6 24  1 38  0.0010000  0 13G07G26G29S20G03G30G04G02G06G05G09G16
                                G23
 -17903483.588 8  21545333.906          50.000        1974.664
  -3555574.717 6  25334254.174          41.000        -995.213
  -1037672.843 6  25040987.455          39.000         410.704
  24697860.390 6  38816573.523          40.000        -107.529
   5265386.789 6  25521342.792          36.000       -3481.583
 -10538620.940 7  23013205.581          46.000        3366.766
    569257.666 6  25696985.079          41.000       -1841.153
 -21356312.315 7  21952585.203          47.000         777.002
 -20979495.923 7  21783359.954          47.000       -2424.607
  -6619199.728 7  24330277.063          43.000        3289.806
 -22793712.064 8  20935718.228          49.000       -1611.898
  -6687962.898 7  24385773.712          42.000         730.524
 -16431378.605 7  22803681.288          46.000       -2629.294
 16  6 24  1 38 30.0010000  0 13G07G26G29S20G03G30G04G02G06G05G09G16
                                G23
 -17962498.691 8  21534103.522          50.000        1959.055
  -3525435.431 7  25339990.828          42.000       -1013.748
  -1049728.481 6  25038695.142          41.000         392.817
  24701053.402 6  38817181.733          40.000        -106.619
   5369828.758 5  25541216.042          35.000       -3483.059
 -10639514.617 7  22994004.705          45.000        3358.792
    624741.523 6  25707542.706          41.000       -1859.104
 -21379355.229 8  21948200.958          48.000         758.595
 -20906539.644 7  21797242.109          47.000       -2439.904
  -6717857.944 7  24311502.374          43.000        3287.177
 -22745207.234 8  20944948.904          49.000       -1622.565
  -6709608.077 7  24381655.268          42.000         711.324
 -16352404.531 7  22818711.003          47.000       -2635.646
 16  6 24  1 39  0.0010000  0 13G07G26G29S20G03G30G04G02G06G05G09G16
                                G23
 -18021059.231 8  21522960.267          50.000        1943.954
  -3494768.731 7  25345825.640          42.000       -1031.229
  -1061234.745 6  25036502.313          40.000         373.436
  24704234.028 6  38817787.901          40.000        -106.854
   5474331.357 5  25561101.106          35.000       -3485.451
 -10740171.370 7  22974849.374          45.000        3350.933
    680724.129 6  25718195.819          40.000       -1874.602
 -21401856.271 8  21943918.745          48.000         740.666
 -20833131.261 8  21811212.596          48.000       -2454.991
  -6816447.004 7  24292742.256          43.000        3285.167
 -22696380.877 8  20954239.610          49.000       -1632.864
  -6730684.136 7  24377643.725          42.000         693.111
 -16273261.342 7  22833769.791          46.000       -2640.973
 16  6 24  1 39 30.0010000  0 13G07G26G29S20G03G30G04G02G06G05G09G16
                                G23
 -18079138.400 8  21511907.700          49.000        1927.898
  -3463550.031 6  25351766.619          41.000       -1049.559
  -1072165.976 6  25034424.725          39.000         355.092
  24707426.783 6  38818395.186          41.000        -106.499
   5578918.984 6  25581003.638          36.000       -3487.352
 -10840563.285 7  22955746.499          44.000        3341.778
    737228.078 6  25728949.516          41.000       -1891.583
 -21423789.059 8  21939745.996          48.000         721.919
 -20759247.735 8  21825273.301          48.000       -2470.575
  -6914939.800 7  24274000.076          44.000        3281.739
 -22647208.979 8  20963597.132          50.000       -1644.542
  -6751164.473 7  24373746.917          42.000         672.934
 -16193925.105 7  22848866.498          45.000       -2647.556
 16  6 24  1 40  0.0010000  0 13G07G26G29S20G03G30G04G02G06G05G09G16
                                G23
 -18136746.166 8  21500944.618          49.000        1912.540
  -3431791.882 6  25357810.572          41.000       -1067.208
  -1082533.788 6  25032451.157          40.000         336.165
  24710622.408 6  38819005.455          41.000        -106.355
   5683578.72215  25600920.130          35.000       -3490.164
 -10940699.542 7  22936693.182          45.000        3333.591
    794240.002 6  25739798.020          40.000       -1908.245
 -21445164.008 8  21935678.001          48.000         703.437
 -20684902.992 8  21839422.286          49.000       -2485.664
  -7013346.587 7  24255272.939          43.000        3278.974
 -22597704.440 8  20973018.225          50.000       -1655.553
  -6771059.669 7  24369962.977          43.000         653.496
 -16114408.520 7  22863997.215          45.000       -2653.207
 16  6 24  1 40 30.0010000  0 13G07G26G29S20G03G30G04G02G06G05G09G16
                                G23
 -18193892.821 8  21490070.690          49.000        1897.712
  -3399506.669 6  25363954.759          41.000       -1084.579
  -1092349.345 6  25030582.501          40.000         318.443
  24713809.252 6  38819611.414          40.000        -105.329
   5788298.692 6  25620848.732          37.000       -3492.130
 -11040588.983 7  22917684.328          45.000        3326.245
    851746.301 6  25750741.121          41.000       -1924.519
 -21465991.825 8  21931714.324          48.000         685.636
 -20610110.816 8  21853652.450          48.000       -2499.642
  -7111677.366 7  24236562.222          43.000        3277.636
 -22547880.025 8  20982499.574          50.000       -1665.452
  -6790379.552 7  24366284.960          43.000         634.978
 -16034724.565 7  22879162.868          45.000       -2659.199
 16  6 24  1 41  0.0010000  0 13G07G26G29S20G03G30G04G02G06G05G09G16
                                G23
 -18250581.431 8  21479282.633          49.000        1881.910
  -3366700.589 6  25370196.649          40.000       -1102.080
  -1101617.768 6  25028819.471          40.000         299.573
  24716980.352 6  38820216.238          41.000        -105.422
   5893072.030 6  25640787.386          37.000       -3493.322
 -11140234.411 7  22898721.683          45.000        3316.878
    909739.932 6  25761777.441          36.000       -1941.369
 -21486277.105 8  21927853.586          48.000         667.124
 -20534878.899 8  21867970.232          48.000       -2515.357
  -7209935.985 7  24217864.907          43.000        3274.034
 -22497742.402 8  20992040.254          51.000       -1676.121
  -6809128.140 7  24362716.774          43.000         616.036
 -15954879.741 7  22894355.149          44.000       -2664.603
 16  6 24  1 41 30.0010000  0 13G07G26G29S20G03G30G04G02G06G05G09G16
                                G23
 -18306808.324 8  21468583.207          48.000        1866.773
  -3333372.756 6  25376538.791          40.000       -1119.853
  -1110336.563 7  25027161.211          42.000         281.828
  24720137.322 6  38820816.456          41.000        -104.972
   5997899.644 6  25660735.254          38.000       -3495.285
 -11239631.243 7  22879807.880          46.000        3309.929
    968220.705 6  25772904.957          36.000       -1957.193
 -21506016.822 8  21924097.426          48.000         648.943
 -20459207.517 8  21882367.569          48.000       -2529.744
  -7308118.826 7  24199179.389          42.000        3271.249
 -22447290.775 8  21001640.194          50.000       -1687.036
  -6827302.193 7  24359259.729          44.000         596.452
 -15874872.762 7  22909580.883          44.000       -2669.288
 16  6 24  1 42  0.0010000  0 13G07G26G29S20G03G30G04G02G06G05G09G16
                                G23
 -18362569.071 8  21457972.672          48.000        1851.333
  -3299521.010 6  25382980.539          39.000       -1136.995
  -1118503.280 7  25025607.758          42.000         263.691
  24723279.875 6  38821411.718          40.000        -103.892
   6102783.820 6  25680693.294          38.000       -3496.998
 -11338773.944 7  22860940.827          46.000        3300.789
   1027189.969 6  25784127.715          41.000       -1973.326
 -21525206.958 7  21920445.427          47.000         631.158
 -20383096.027 8  21896852.960          48.000       -2544.373
  -7406221.109 7  24180513.606          42.000        3268.838
 -22396523.429 8  21011300.426          50.000       -1697.013
  -6844897.251 7  24355911.782          43.000         577.036
 -15794701.923 7  22924837.591          44.000       -2674.641
 16  6 24  1 42 30.0010000  0 13G07G26G29S20G03G30G04G02G06G05G09G16
                                G23
 -18417870.171 8  21447448.882          48.000        1836.018
  -3265154.298 6  25389519.485          39.000       -1153.511
  -1126125.188 7  25024157.680          43.000         244.962
  24726401.264 6  38822006.822          40.000        -103.831
   6207715.549 6  25700661.544          36.000       -3498.487
 -11437667.869 7  22842122.547          46.000        3292.788
   1086637.434 6  25795439.138          40.000       -1988.722
 -21543854.756 8  21916898.496          48.000         612.555
 -20306554.667 8  21911418.674          48.000       -2558.522
  -7504249.550 7  24161858.346          42.000        3267.317
 -22345449.592 8  21021019.935          50.000       -1707.446
  -6861920.147 7  24352672.167          43.000         558.007
 -15714376.503 7  22940122.045          44.000       -2680.034
 16  6 24  1 43  0.0010000  0 13G07G26G29S20G03G30G04G02G06G05G09G16
                                G23
 -18472709.993 8  21437013.023          48.000        1819.923
  -3230273.546 6  25396158.542          38.000       -1171.201
  -1133202.668 7  25022810.069          43.000         227.137
  24729503.348 6  38822595.907          40.000        -103.217
   6312693.839 6  25720636.703          38.000       -3500.284
 -11536310.480 7  22823351.260          45.000        3283.928
   1146561.847 6  25806842.297          39.000       -2005.116
 -21561959.141 8  21913453.491          48.000         594.101
 -20229585.800 8  21926066.788          49.000       -2572.845
  -7602202.488 7  24143218.128          42.000        3263.745
 -22294070.493 8  21030797.606          50.000       -1717.876
  -6878369.512 7  24349541.336          42.000         538.562
 -15633897.426 7  22955436.269          44.000       -2685.097
 16  6 24  1 43 30.0010000  0 13G07G26G29S20G03G30G04G02G06G05G09G16
                                G23
 -18527088.175 8  21426664.451          48.000        1804.689
  -3194881.039 6  25402892.319          38.000       -1187.378
  -1139736.436 7  25021566.357          43.000         208.913
  24732585.449 6  38823183.002          40.000        -102.340
   6417716.341 6  25740622.542          36.000       -3501.437
 -11634700.561 7  22804628.381          46.000        3275.779
   1206958.448 6  25818335.639          40.000       -2021.387
 -21579520.916 8  21910110.867          48.000         576.012
 -20152193.139 8  21940792.782          48.000       -2586.542
  -7700079.537 6  24124591.033          41.000        3260.680
 -22242388.779 8  21040631.729          50.000       -1727.641
  -6894245.930 7  24346520.738          42.000         520.200
 -15553267.301 7  22970778.587          44.000       -2690.660
 16  6 24  1 44  0.0010000  0 13G07G26G29S20G03G30G04G02G06G05G09G16
                                G23
 -18581000.387 8  21416405.608          48.000        1789.142
  -3158975.107 6  25409725.423          39.000       -1205.672
  -1145723.608 7  25020428.638          43.000         190.407
  24735652.775 6  38823768.474          41.000        -102.461
   6522785.058 6  25760616.356          37.000       -3502.969
 -11732832.612 7  22785953.769          46.000        3266.392
   1267828.423 6  25829919.337          38.000       -2036.396
 -21596535.851 8  21906872.630          48.000         557.398
 -20074376.073 8  21955600.322          49.000       -2601.253
  -7797876.001 6  24105977.968          40.000        3257.518
 -22190402.695 8  21050524.746          50.000       -1738.221
  -6909544.831 7  24343608.733          42.000         499.758
 -15472484.128 7  22986151.322          44.000       -2695.429
 16  6 24  1 44 30.0010000  0 13G07G26G29S20G03G30G04G02G06G05G09G16
                                G23
 -18634438.456 8  21406237.819          49.000        1773.310
  -3122550.069 6  25416655.097          37.000       -1223.585
  -1151157.713 7  25019391.519          42.000         171.848
  24738712.304 6  38824352.079          41.000        -101.959
   6627905.609 6  25780620.710          36.000       -3505.180
 -11830697.386 7  22767330.443          46.000        3257.739
   1329177.695 5  25841594.092          35.000       -2055.203
 -21612996.882 8  21903740.840          48.000         539.533
 -19996130.373 8  21970489.720          48.000       -2615.187
  -7895583.926 7  24087387.326          42.000        3254.470
 -22138106.901 8  21060475.872          49.000       -1748.434
  -6924258.542 6  24340807.816          41.000         481.085
 -15391542.236 7  23001554.629          45.000       -2700.462
 16  6 24  1 45  0.0010000  0 13G07G26G29S20G03G30G04G02G06G05G09G16
                                G23
 -18687404.094 8  21396159.010          49.000        1757.137
  -3085610.466 6  25423684.865          38.000       -1239.823
  -1156042.367 7  25018463.429          42.000         153.368
  24741757.048 6  38824931.531          41.000        -101.241
   6733073.533 6  25800635.010          37.000       -3506.804
 -11928296.187 7  22748757.635          46.000        3248.274
   1390999.558 5  25853360.442          35.000       -2069.386
 -21628906.944 8  21900712.843          48.000         520.964
 -19917462.204 8  21985460.838          48.000       -2629.746
  -7993205.319 7  24068810.068          42.000        3252.655
 -22085506.402 8  21070485.230          49.000       -1758.433
  -6938389.813 7  24338119.261          42.000         460.542
 -15310446.601 7  23016988.108          46.000       -2706.038
 16  6 24  1 45 30.0010000  0 13G07G26G29S20G03G30G04G02G06G05G09G16
                                G23
 -18739892.460 8  21386169.685          48.000        1741.324
  -3048153.971 6  25430814.570          38.000       -1256.660
  -1160373.493 6  25017638.907          41.000         134.976
  24744791.479 6  38825508.348          41.000        -101.090
   6838291.706 6  25820657.285          37.000       -3508.242
 -12025622.484 7  22730235.764          46.000        3239.880
   1453295.96215  25865210.361          33.000       -2084.219
 -21644261.247 8  21897790.612          48.000         502.628
 -19838370.077 8  22000510.289          48.000       -2643.312
  -8090734.788 6  24050249.423          41.000        3248.993
 -22032598.578 8  21080554.232          49.000       -1768.630
  -6951933.428 6  24335541.340          41.000         441.696
 -15229194.612 7  23032450.728          47.000       -2710.692
 16  6 24  1 46  0.0010000  0 13G07G26G29S20G03G30G04G02G06G05G09G16
                                G23
 -18791901.635 8  21376272.079          48.000        1725.315
  -3010181.050 6  25438039.239          39.000       -1275.186
  -1164151.116 6  25016919.015          41.000         116.176
  24747817.988 6  38826083.891          40.000        -101.956
   6943559.354 6  25840689.455          37.000       -3510.242
 -12122673.537 7  22711767.257          46.000        3229.661
   1516063.899 5  25877156.239          32.000       -2100.978
 -21659058.672 8  21894975.386          48.000         483.684
 -19758856.099 8  22015642.507          48.000       -2657.896
  -8188170.310 6  24031706.927          41.000        3247.321
 -21979384.357 8  21090681.152          49.000       -1779.371
  -6964887.998 6  24333076.497          41.000         421.711
 -15147787.055 7  23047943.031          47.000       -2716.617
 16  6 24  1 46 30.0010000  0 13G07G26G29S20G03G30G04G02G06G05G09G16
                                G23
 -18843430.719 8  21366466.662          48.000        1709.635
  -2971692.778 6  25445364.055          39.000       -1291.655
  -1167375.386 6  25016306.513          41.000          98.472
  24750836.906 6  38826656.712          40.000        -100.443
   7048875.782 6  25860729.390          38.000       -3511.056
 -12219446.644 7  22693353.019          46.000        3221.655
   1579303.01915  25889190.642          31.000       -2116.528
 -21673298.441 8  21892265.472          48.000         465.764
 -19678922.625 7  22030852.431          47.000       -2671.030
  -8285510.412 6  24013185.964          41.000        3243.058
 -21925864.965 8  21100864.576          49.000       -1789.319
  -6977252.319 6  24330724.592          41.000         402.467
 -15066224.776 7  23063463.063          47.000       -2721.203
 16  6 24  1 47  0.0010000  0 13G07G26G29S20G03G30G04G02G06G05G09G16
                                G23
 -18894482.037 8  21356752.649          49.000        1694.155
  -2932695.611 6  25452784.569          39.000       -1307.941
  -1170050.995 6  25015797.507          41.000          80.367
  24753840.846 6  38827226.322          40.000         -99.909
   7154234.524 6  25880779.062          40.000       -3512.381
 -12315944.616 7  22674991.725          47.000        3212.389
   1643004.33215  25901313.239          30.000       -2131.183
 -21686985.177 8  21889660.434          48.000         447.132
 -19598577.377 8  22046141.143          48.000       -2684.990
  -8382758.189 6  23994680.409          40.000        3240.251
 -21872046.877 8  21111104.869          49.000       -1798.741
  -6989030.627 7  24328483.146          42.000         382.772
 -14984513.881 7  23079011.364          47.000       -2725.961
 16  6 24  1 47 30.0010000  0 13G07G26G29S20G03G30G04G02G06G05G09G16
                                G23
 -18945055.002 8  21347129.151          49.000        1677.890
  -2893190.654 6  25460302.838          40.000       -1325.617
  -1172178.476 7  25015393.081          42.000          61.443
  24756829.940 6  38827794.030          40.000         -99.902
   7259634.618 6  25900835.888          38.000       -3513.794
 -12412164.883 7  22656681.177          46.000        3202.667
   1707166.76014  25913523.645          29.000       -2148.693
 -21700118.106 7  21887161.405          47.000         428.345
 -19517822.748 8  22061508.573          48.000       -2698.709
  -8479912.518 6  23976190.752          40.000        3236.887
 -21817931.329 8  21121403.220          49.000       -1808.905
  -7000222.011 6  24326354.220          41.000         362.786
 -14902655.713 7  23094588.650          47.000       -2731.029
 16  6 24  1 48  0.0010000  0 13G07G26G29S20G03G30G04G02G06G05G09G16
                                G23
 -18995139.700 8  21337597.859          49.000        1661.257
  -2853170.781 6  25467919.282          40.000       -1341.919
  -1173749.355 7  25015095.136          42.000          42.895
  24759809.202 6  38828362.855          40.000         -99.781
   7365083.884 6  25920902.260          39.000       -3516.201
 -12508096.556 7  22638427.098          47.000        3192.561
   1771797.44914  25925821.721          27.000       -2162.427
 -21712688.606 7  21884768.754          47.000         409.391
 -19436652.857 8  22076954.860          48.000       -2712.762
  -8576963.095 6  23957723.273          41.000        3233.147
 -21763511.244 8  21131759.453          49.000       -1819.090
  -7010817.385 6  24324336.852          41.000         343.356
 -14820643.135 7  23110194.764          47.000       -2736.396
 16  6 24  1 48 30.0010000  0 13G07G26G29S20G03G30G04G02G06G05G09G16
                                G23
 -19044732.674 8  21328159.944          49.000        1644.630
  -2812634.593 6  25475631.999          40.000       -1359.782
  -1174761.429 6  25014901.421          41.000          24.070
  24762782.420 6  38828926.916          40.000         -99.365
   7470584.203 6  25940978.404          38.000       -3517.282
 -12603734.526 7  22620225.578          46.000        3183.220
   1836894.55314  25938208.548          27.000       -2177.668
 -21724692.956 8  21882485.410          48.000         390.505
 -19355067.647 7  22092479.254          47.000       -2726.412
  -8673905.751 6  23939275.025          41.000        3229.776
 -21708785.306 8  21142173.551          49.000       -1829.438
  -7020813.104 7  24322435.459          42.000         322.696
 -14738474.588 7  23125830.089          47.000       -2741.768
 16  6 24  1 49  0.0010000  0 13G07G26G29S20G03G30G04G02G06G05G09G16
                                G23
 -19093836.784 8  21318815.753          49.000        1628.381
  -2771588.573 6  25483442.420          40.000       -1376.525
  -1175220.188 7  25014814.327          42.000           5.691
  24765745.713 6  38829492.565          40.000         -98.651
   7576129.295 6  25961063.639          36.000       -3518.830
 -12699081.561 7  22602082.255          47.000        3173.138
   1902449.36514  25950682.261          25.000       -2192.200
 -21736135.808 7  21880307.065          47.000         371.740
 -19273074.814 7  22108082.942          47.000       -2739.971
  -8770743.945 6  23920847.054          41.000        3225.970
 -21653759.943 8  21152644.048          49.000       -1839.140
  -7030213.419 7  24320645.555          42.000         302.993
 -14656156.123 7  23141494.801          47.000       -2746.353
 16  6 24  1 49 30.0010000  0 13G07G26G29S20G03G30G04G02G06G05G09G16
                                G23
 -19142451.093 8  21309565.498          49.000        1612.241
  -2730034.122 6  25491351.434          40.000       -1393.531
  -1175125.600 6  25014829.823          40.000         -12.871
  24768699.477 6  38830054.706          40.000         -98.714
   7681718.472 5  25981154.825          35.000       -3520.833
 -12794135.234 7  22583994.162          47.000        3163.967
   1968470.96912  25963249.244          13.000       -2209.833
 -21747016.954 8  21878236.265          48.000         353.490
 -19190676.940 7  22123762.922          47.000       -2753.324
  -8867475.972 7  23902442.257          42.000        3222.833
 -21598436.591 8  21163171.346          48.000       -1848.758
  -7039017.398 7  24318971.277          43.000         283.652
 -14573688.912 7  23157187.938          47.000       -2751.336
 16  6 24  1 50  0.0010000  0 12G07G26G29S20G03G30G02G06G05G09G16G23
 -19190558.505 8  21300410.747          49.000        1594.955
  -2687956.564 6  25499358.851          41.000       -1411.074
  -1174461.961 6  25014958.483          41.000         -31.605
  24771657.496 6  38830617.702          40.000         -98.476
   7787367.452 5  26001257.895          34.000       -3523.648
 -12888877.041 8  22565965.924          48.000        3152.972
 -21757319.594 7  21876275.017          47.000         333.586
 -19107860.525 7  22139522.057          47.000       -2767.511
  -8964084.696 7  23884058.593          42.000        3218.791
 -21542800.399 8  21173759.457          49.000       -1859.496
  -7047208.342 7  24317411.978          43.000         262.633
 -14491058.103 8  23172913.394          48.000       -2757.041
 16  6 24  1 50 30.0010000  0 12G07G26G29S20G03G30G02G06G05G09G16G23
 -19238162.658 8  21291351.746          50.000        1578.750
  -2645361.664 6  25507464.285          40.000       -1428.255
  -1173234.317 6  25015191.706          40.000         -50.405
  24774615.579 6  38831180.559          40.000         -98.320
   7893069.53016  26021371.574          40.000       -3523.891
 -12983309.204 8  22547997.242          48.000        3143.093
 -21767047.921 8  21874424.509          48.000         314.854
 -19024632.801 7  22155360.189          47.000       -2780.688
  -9060572.849 7  23865699.637          43.000        3214.648
 -21486857.373 8  21184404.893          48.000       -1869.800
  -7054789.939 7  24315969.316          43.000         242.045
 -14408269.507 8  23188668.131          48.000       -2761.761
 16  6 24  1 51  0.0010000  0 12G07G26G29S20G03G30G02G06G05G09G16G23
 -19285273.675 8  21282387.220          50.000        1561.834
  -2602262.309 6  25515665.783          40.000       -1445.647
  -1171454.693 6  25015530.030          41.000         -69.334
  24777564.183 6  38831744.393          41.000         -98.140
   7998811.61214  26041493.054          28.000       -3526.774
 -13077440.779 8  22530084.576          48.000        3132.319
 -21776213.130 8  21872681.581          48.000         295.692
 -18941007.850 7  22171273.409          47.000       -2794.186
  -9156950.074 7  23847358.394          42.000        3210.114
 -21430620.262 8  21195105.436          48.000       -1879.810
  -7061772.982 7  24314641.599          43.000         221.999
 -14325335.641 7  23204449.462          47.000       -2766.800
 16  6 24  1 51 30.0010000  0 12G07G26G29S20G03G30G02G06G05G09G16G23
 -19331894.125 8  21273516.000          50.000        1545.441
  -2558664.844 6  25523961.267          39.000       -1461.663
  -1169127.892 6  25015973.318          41.000         -86.388
  24780498.444 6  38832302.329          41.000         -97.519
   8104588.75115  26061621.671          33.000       -3526.447
 -13171274.182 8  22512227.664          48.000        3122.413
 -21784819.320 8  21871043.512          48.000         277.507
 -18856993.068 7  22187260.583          47.000       -2806.926
  -9253219.764 7  23829037.951          42.000        3206.541
 -21374095.260 8  21205861.681          48.000       -1888.904
  -7068161.495 7  24313423.765          42.000         202.945
 -14242262.460 7  23220257.161          47.000       -2771.523
 16  6 24  1 52  0.0010000  0 12G07G26G29S20G03G30G02G06G05G09G16G23
 -19378009.147 8  21264740.024          50.000        1528.983
  -2514556.258 6  25532355.625          41.000       -1478.792
  -1166239.657 6  25016522.197          40.000        -106.698
  24783435.664 6  38832861.940          41.000         -97.724
   8210413.64515  26081760.217          33.000       -3528.247
 -13264792.697 8  22494431.879          48.000        3112.232
 -21792852.168 7  21869513.738          47.000         258.147
 -18772576.853 7  22203323.403          46.000       -2820.302
  -9349366.067 7  23810742.655          42.000        3203.065
 -21317269.336 8  21216675.842          48.000       -1898.994
  -7073940.442 6  24312323.529          41.000         182.444
 -14159036.978 7  23236093.460          47.000       -2776.609
 16  6 24  1 52 30.0010000  0 13G07G26G29S20G03G30G04G02G06G05G09G16
                                G23
 -19423614.649 8  21256061.019          50.000        1511.608
  -2469934.728 6  25540847.407          40.000       -1495.866
  -1162787.835 6  25017178.936          40.000        -124.284
  24786378.297 6  38833420.033          41.000         -98.307
   8316176.96715  26101907.069          35.000       -3529.360
 -13357990.739 8  22476696.578          48.000        3101.185
   2372438.94812  26040455.743          12.000       -2300.558
 -21800307.545 8  21868096.187          48.000         238.859
 -18687758.556 7  22219465.012          47.000       -2833.984
  -9445384.077 7  23792472.643          42.000        3198.879
 -21260140.616 8  21227547.345          48.000       -1909.016
  -7079106.054 7  24311342.722          42.000         163.095
 -14075656.751 7  23251961.816          47.000       -2781.840
 16  6 24  1 53  0.0010000  0 11G07G26G29S20G30G02G06G05G09G16G23
 -19468731.646 8  21247475.494          50.000        1495.997
  -2424824.305 6  25549429.860          40.000       -1512.644
  -1158795.157 6  25017940.132          40.000        -141.515
  24789301.777 6  38833976.939          41.000         -97.359
 -13450888.271 8  22459018.983          48.000        3091.696
 -21807207.755 7  21866781.750          47.000         220.833
 -18602563.221 7  22235677.974          47.000       -2845.721
  -9541294.189 6  23774218.372          40.000        3194.900
 -21202732.836 8  21238471.531          48.000       -1917.759
  -7083680.358 7  24310471.293          42.000         142.720
 -13992145.441 7  23267853.031          47.000       -2785.706
 16  6 24  1 53 30.0010000  0 11G07G26G29S20G30G02G06G05G09G16G23
 -19513350.958 8  21238985.126          50.000        1478.984
  -2379218.478 6  25558109.005          40.000       -1529.210
  -1154254.398 6  25018802.295          40.000        -160.370
  24792213.139 6  38834530.093          41.000         -96.608
 -13543475.183 8  22441399.900          48.000        3081.386
 -21813544.815 7  21865575.695          47.000         201.912
 -18516985.754 7  22251961.191          46.000       -2858.863
  -9637087.556 6  23755990.764          41.000        3191.312
 -21145039.493 8  21249449.550          48.000       -1927.798
  -7087654.816 7  24309714.844          42.000         122.260
 -13908496.381 7  23283769.637          46.000       -2790.487
 16  6 24  1 54  0.0010000  0 11G07G26G29S20G30G02G06G05G09G16G23
 -19557463.006 8  21230590.698          50.000        1461.952
  -2333110.375 6  25566882.172          40.000       -1545.433
  -1149157.248 6  25019774.691          41.000        -179.324
  24795118.569 6  38835082.759          40.000         -96.590
 -13635740.542 8  22423842.555          48.000        3070.066
 -21819309.791 8  21864480.258          48.000         182.336
 -18431020.252 7  22268320.229          47.000       -2872.318
  -9732753.168 7  23737787.604          42.000        3187.037
 -21087053.381 8  21260483.864          48.000       -1937.890
  -7091019.944 7  24309074.717          42.000         101.099
 -13824701.951 7  23299715.785          47.000       -2795.834
 16  6 24  1 54 30.0010000  0 11G07G26G29S20G30G02G06G05G09G16G23
 -19601061.944 8  21222294.010          50.000        1444.605
  -2286496.606 6  25575753.199          40.000       -1562.366
  -1143499.579 6  25020848.927          40.000        -197.806
  24798023.295 6  38835634.535          40.000         -96.688
 -13727677.289 8  22406347.822          48.000        3058.786
 -21824497.584 8  21863492.349          48.000         163.493
 -18344664.721 7  22284752.087          46.000       -2885.165
  -9828285.390 7  23719609.154          43.000        3181.980
 -21028771.154 8  21271574.507          48.000       -1947.875
  -7093770.789 6  24308551.019          41.000          82.611
 -13740758.718 7  23315689.208          46.000       -2800.417
 16  6 24  1 55  0.0010000  0 11G07G26G29S20G30G02G06G05G09G16G23
 -19644160.203 8  21214093.332          50.000        1428.348
  -2239392.469 6  25584717.847          41.000       -1577.550
  -1137295.599 6  25022031.301          41.000        -215.126
  24800915.885 6  38836185.299          40.000         -96.122
 -13819296.486 8  22388913.327          48.000        3049.111
 -21829121.544 8  21862612.875          48.000         144.989
 -18257935.258 7  22301256.974          47.000       -2896.855
  -9923695.661 7  23701454.140          44.000        3178.238
 -20970207.521 8  21282719.716          48.000       -1956.744
  -7095920.324 7  24308143.364          42.000          62.381
 -13656681.243 7  23331689.749          46.000       -2804.639
 16  6 24  1 55 30.0010000  0 11G07G26G29S20G30G02G06G05G09G16G23
 -19686752.366 8  21205987.741          50.000        1411.220
  -2191795.094 6  25593774.510          41.000       -1595.046
  -1130541.075 6  25023314.538          40.000        -234.728
  24803801.427 6  38836733.515          40.000         -96.225
 -13910591.476 8  22371540.274          48.000        3037.401
 -21833176.625 8  21861841.715          48.000         125.653
 -18170830.238 7  22317832.430          47.000       -2910.189
 -10018977.869 7  23683321.828          43.000        3173.914
 -20911359.438 8  21293917.992          48.000       -1966.463
  -7097463.488 7  24307848.717          42.000          42.707
 -13572466.227 7  23347716.012          46.000       -2809.714
 16  6 24  1 56  0.0010000  0 11G07G26G29S20G30G02G06G05G09G16G23
 -19728827.447 8  21197980.656          49.000        1394.061
  -2143695.774 6  25602927.813          41.000       -1611.176
  -1123226.787 6  25024707.292          40.000        -252.821
  24806686.465 6  38837282.848          40.000         -96.065
 -14001549.999 8  22354231.264          48.000        3026.562
 -21836653.111 7  21861178.659          47.000         106.684
 -18083342.440 7  22334481.491          47.000       -2922.197
 -10114120.926 7  23665213.266          42.000        3169.341
 -20852218.351 8  21305172.458          48.000       -1975.966
  -7098389.834 7  24307672.959          42.000          20.951
 -13488104.903 7  23363770.439          46.000       -2813.903
 16  6 24  1 56 30.0010000  0 11G07G26G29S20G30G02G06G05G09G16G23
 -19770397.667 8  21190070.944          50.000        1377.439
  -2095109.718 6  25612173.374          40.000       -1627.204
  -1115366.572 6  25026201.606          39.000        -271.110
  24809558.517 6  38837829.668          40.000         -95.855
 -14092182.872 7  22336983.102          47.000        3015.585
 -21839563.835 8  21860625.138          48.000          87.306
 -17995487.751 7  22351200.353          47.000       -2934.671
 -10209136.404 7  23647131.716          43.000        3164.730
 -20792798.709 8  21316479.832          49.000       -1984.939
  -7098712.262 7  24307612.790          43.000           0.742
 -13403611.561 7  23379847.412          46.000       -2818.117
 16  6 24  1 57  0.0010000  0 11G07G26G29S20G30G02G06G05G09G16G23
 -19811452.031 8  21182259.371          50.000        1359.787
  -2046028.447 6  25621513.725          41.000       -1644.764
  -1106951.803 6  25027804.479          40.000        -290.105
  24812429.559 6  38838376.226          41.000         -96.212
 -14182478.080 7  22319802.001          47.000        3003.978
 -21841899.141 8  21860181.432          48.000          67.928
 -17907259.232 7  22367988.509          47.000       -2947.084
 -10304011.840 7  23629079.763          45.000        3159.827
 -20733092.203 8  21327840.517          48.000       -1995.017
  -7098420.902 7  24307667.235          43.000         -20.229
 -13318977.279 7  23395952.061          46.000       -2823.400
 16  6 24  1 57 30.0010000  0 11G07G26G29S20G30G02G06G05G09G16G23
 -19851994.032 8  21174543.531          50.000        1343.286
  -1996458.590 6  25630946.720          41.000       -1660.338
  -1097987.254 6  25029511.511          41.000        -307.305
  24815294.475 6  38838922.837          41.000         -95.838
 -14272437.911 7  22302681.506          46.000        2993.426
 -21843663.336 8  21859845.725          48.000          49.314
 -17818664.204 7  22384848.054          46.000       -2958.741
 -10398750.887 7  23611052.623          46.000        3156.125
 -20673104.676 8  21339255.734          48.000       -2003.907
  -7097519.586 7  24307839.190          42.000         -40.077
 -13234208.096 7  23412083.548          45.000       -2827.283
 16  6 24  1 58  0.0010000  0 11G07G26G29S20G30G02G06G05G09G16G23
 -19892028.517 8  21166926.109          50.000        1325.970
  -1946406.975 7  25640471.904          42.000       -1676.085
  -1088479.164 6  25031320.575          41.000        -326.070
  24818150.513 6  38839465.399          41.000         -94.866
 -14362065.523 7  22285626.640          47.000        2981.595
 -21844861.729 8  21859617.825          48.000          30.128
 -17729710.844 7  22401774.905          46.000       -2971.047
 -10493357.129 7  23593049.548          46.000        3151.152
 -20612842.902 8  21350723.738          49.000       -2013.625
  -7096013.811 7  24308124.919          42.000         -60.459
 -13149310.248 7  23428236.482          45.000       -2832.059
 16  6 24  1 58 30.0010000  0 11G07G26G29S20G30G02G06G05G09G16G23
 -19931546.454 8  21159405.694          50.000        1309.024
  -1895867.331 6  25650088.178          41.000       -1692.926
  -1078420.121 6  25033234.079          41.000        -344.274
  24821005.018 6  38840009.584          41.000         -95.133
 -14451350.704 7  22268636.846          47.000        2971.139
 -21845486.398 8  21859499.530          48.000          11.643
 -17640394.064 7  22418770.196          46.000       -2983.125
 -10587821.117 7  23575071.182          45.000        3146.666
 -20552300.347 8  21362245.890          49.000       -2022.431
  -7093895.230 7  24308528.787          42.000         -79.943
 -13064277.137 7  23444419.587          45.000       -2836.328
 16  6 24  1 59  0.0010000  0 11G07G26G29S20G30G02G06G05G09G16G23
 -19970557.475 8  21151982.004          49.000        1291.695
  -1844851.737 6  25659797.112          41.000       -1708.006
  -1067821.476 7  25035251.795          42.000        -362.697
  24823845.951 6  38840549.773          41.000         -94.151
 -14540301.405 8  22251710.432          48.000        2959.234
 -21845547.406 8  21859487.454          48.000          -7.290
 -17550726.760 7  22435834.642          46.000       -2994.467
 -10682151.342 7  23557120.387          44.000        3141.528
 -20491488.497 8  21373818.316          50.000       -2031.615
  -7091173.615 6  24309045.733          41.000        -100.643
 -12979119.759 7  23460624.609          45.000       -2840.361
 16  6 24  1 59 30.0010000  0 11G07G26G29S20G30G02G06G05G09G16G23
 -20009061.937 8  21144654.431          49.000        1275.452
  -1793363.605 6  25669594.118          41.000       -1723.262
  -1056685.671 7  25037369.641          42.000        -379.716
  24826670.490 6  38841086.402          40.000         -94.854
 -14628917.169 8  22234846.785          48.000        2948.519
 -21845046.587 8  21859582.279          48.000         -25.373
 -17460713.622 7  22452963.950          47.000       -3005.525
 -10776347.817 7  23539194.843          44.000        3138.086
 -20430410.497 8  21385440.528          50.000       -2039.811
  -7087850.433 6  24309677.849          41.000        -120.257
 -12893841.307 7  23476852.213          45.000       -2844.183
 16  6 24  2  0  0.0010000  0 11G07G26G29S20G30G02G06G05G09G16G23
 -20047058.830 8  21137423.201          49.000        1258.457
  -1741404.638 6  25679482.232          40.000       -1739.508
  -1045013.491 7  25039590.949          42.000        -397.925
  24829477.452 6  38841620.169          40.000         -92.917
 -14717195.618 8  22218047.723          48.000        2937.250
 -21843983.754 8  21859784.736          48.000         -44.365
 -17370357.309 7  22470158.557          47.000       -3017.128
 -10870408.882 7  23521296.294          44.000        3133.144
 -20369067.622 8  21397113.415          50.000       -2048.765
  -7083925.630 6  24310424.876          41.000        -140.502
 -12808442.763 7  23493104.054          45.000       -2847.778
 16  6 24  2  0 30.0010000  0 11G07G26G29S20G30G02G06G05G09G16G23
 -20084541.029 8  21130290.668          49.000        1240.502
  -1688970.165 6  25689459.429          40.000       -1755.719
  -1032799.201 6  25041915.109          41.000        -416.302
  24832272.452 6  38842151.022          40.000         -92.689
 -14805128.138 8  22201315.895          48.000        2925.428
 -21842352.528 8  21860095.559          48.000         -63.675
 -17279654.257 7  22487417.503          46.000       -3029.236
 -10964326.222 7  23503424.881          45.000        3128.317
 -20307454.763 8  21408838.129          50.000       -2057.856
  -7079392.594 6  24311285.817          40.000        -161.213
 -12722918.618 7  23509379.069          46.000       -2852.932
 16  6 24  2  1  0.0010000  0 11G07G26G29S20G30G02G06G05G09G16G23
 -20121512.308 8  21123256.067          49.000        1222.937
  -1636066.175 6  25699525.063          38.000       -1770.353
  -1020048.134 7  25044342.312          42.000        -434.104
  24835053.448 6  38842678.734          40.000         -93.463
 -14892716.992 8  22184647.360          48.000        2913.222
 -21840157.465 8  21860513.475          48.000         -82.759
 -17188611.756 7  22504742.951          47.000       -3041.066
 -11058102.765 7  23485579.311          45.000        3122.410
 -20245577.760 8  21420613.204          50.000       -2067.153
  -7074255.576 6  24312265.019          41.000        -181.388
 -12637274.594 7  23525676.979          46.000       -2857.127
 16  6 24  2  1 30.0010000  0 11G07G26G29S20G30G02G06G05G09G16G23
 -20157962.622 8  21116319.884          49.000        1206.469
  -1582685.905 6  25709683.952          39.000       -1786.534
  -1006752.188 6  25046871.878          41.000        -452.607
  24837829.549 6  38843205.626          40.000         -92.800
 -14979950.817 8  22168049.638          49.000        2901.901
 -21837389.763 8  21861039.860          48.000        -101.318
 -17097223.511 7  22522133.071          47.000       -3051.971
 -11151727.564 7  23467763.284          45.000        3118.559
 -20183428.816 8  21432439.601          49.000       -2075.880
  -7068505.141 6  24313358.362          40.000        -201.770
 -12551502.597 7  23541998.761          46.000       -2861.233
 16  6 24  2  2  0.0010000  0 11G07G26G29S20G30G02G06G05G09G16G23
 -20193901.295 8  21109480.743          49.000        1189.295
  -1528841.295 6  25719930.702          39.000       -1802.838
   -992922.413 6  25049503.318          41.000        -469.631
  24840588.123 6  38843729.464          40.000         -90.599
 -15066837.516 8  22151513.044          48.000        2890.067
 -21834059.050 8  21861673.809          48.000        -119.918
 -17005502.474 7  22539588.663          47.000       -3062.762
 -11245209.076 7  23449973.468          45.000        3113.605
 -20121019.338 8  21444313.898          48.000       -2084.388
  -7062151.334 6  24314568.430          40.000        -222.271
 -12465613.775 7  23558343.089          46.000       -2864.348
 16  6 24  2  2 30.0010000  0 11G07G26G29S20G30G02G06G05G09G16G23
 -20229321.365 8  21102740.108          49.000        1171.450
  -1474527.078 6  25730264.669          37.000       -1820.117
   -978553.277 6  25052237.680          40.000        -488.344
  24843335.918 6  38844253.651          40.000         -91.306
 -15153368.471 8  22135046.844          48.000        2877.866
 -21830159.683 8  21862415.548          48.000        -139.682
 -16913445.079 7  22557105.244          47.000       -3074.843
 -11338539.123 7  23432213.212          45.000        3107.815
 -20058344.286 8  21456241.436          49.000       -2094.264
  -7055188.006 6  24315890.860          39.000        -242.393
 -12379602.789 7  23574709.701          45.000       -2869.490
 16  6 24  2  3  0.0010000  0 11G07G26G29S20G30G02G06G05G09G16G23
 -20264215.941 8  21096099.619          49.000        1155.055
  -1419740.071 6  25740691.034          37.000       -1832.521
   -963640.196 6  25055076.342          39.000        -505.081
  24846080.406 6  38844776.250          40.000         -91.055
 -15239535.844 8  22118649.450          48.000        2866.979
 -21825685.719 8  21863266.840          48.000        -158.104
 -16821048.551 7  22574689.078          47.000       -3084.984
 -11431710.415 7  23414484.506          46.000        3103.568
 -19995399.362 8  21468220.173          49.000       -2102.033
  -7047609.558 6  24317334.673          39.000        -261.855
 -12293465.155 7  23591101.353          45.000       -2872.619
 16  6 24  2  3 30.0010000  0 11G07G26G29S20G30G02G06G05G09G16G23
 -20298573.679 8  21089561.703          49.000        1136.544
  -1364471.02416  25751207.042          36.000       -1848.830
   -948173.324 6  25058016.878          36.000        -524.612
  24848832.259 6  38845300.612          40.000         -91.815
 -15325326.944 8  22102324.108          48.000        2853.656
 -21820627.031 8  21864230.284          49.000        -177.902
 -16728305.230 7  22592336.867          47.000       -3097.151
 -11524711.048 7  23396787.403          46.000        3097.240
 -19932175.295 8  21480251.539          49.000       -2111.875
  -7039405.123 6  24318895.630          39.000        -283.574
 -12207191.322 7  23607517.785          45.000       -2877.792
 16  6 24  2  4  0.0010000  0 11G07G26G29S20G30G02G06G05G09G16G23
 -20332392.177 8  21083127.040          49.000        1119.053
  -1308721.349 6  25761817.734          37.000       -1866.929
   -932151.703 5  25061064.035          34.000        -541.736
  24851596.258 6  38845829.144          41.000         -91.660
 -15410737.463 8  22086071.604          49.000        2841.063
 -21814981.694 8  21865305.008          49.000        -197.180
 -16635215.867 7  22610051.752          46.000       -3108.312
 -11617536.300 7  23379123.612          46.000        3091.613
 -19868671.343 8  21492335.553          49.000       -2121.166
  -7030572.556 6  24320577.430          40.000        -304.639
 -12120780.184 7  23623961.108          44.000       -2882.208
 16  6 24  2  4 30.0010000  0 11G07G26G29S20G30G02G06G05G09G16G23
 -20365683.650 8  21076791.424          49.000        1101.205
  -1252503.765 6  25772515.590          38.000       -1881.293
   -915589.262 5  25064216.679          34.000        -561.686
  24854358.560 6  38846354.047          41.000         -91.696
 -15495778.151 8  22069888.481          49.000        2828.710
 -21808762.826 8  21866489.022          49.000        -216.541
 -16541796.191 7  22627827.451          46.000       -3119.022
 -11710197.747 7  23361490.882          46.000        3086.428
 -19804901.748 8  21504470.470          48.000       -2129.723
  -7021124.649 6  24322376.722          40.000        -324.495
 -12034245.639 7  23640428.669          44.000       -2885.858
 16  6 24  2  5  0.0010000  0 11G07G26G29S20G30G02G06G05G09G16G23
 -20398449.191 8  21070557.160          50.000        1083.541
  -1195823.449 6  25783302.442          38.000       -1897.564
   -898489.637 6  25067472.314          36.000        -578.961
  24857115.548 6  38846879.665          41.000         -91.858
 -15580449.379 8  22053777.917          49.000        2816.175
 -21801973.100 8  21867781.159          49.000        -235.704
 -16448051.708 7  22645668.292          47.000       -3130.446
 -11802696.184 7  23343889.266          46.000        3080.659
 -19740870.328 8  21516654.473          48.000       -2138.571
  -7011064.560 6  24324292.197          41.000        -345.638
 -11947591.529 7  23656918.270          44.000       -2890.342
 16  6 24  2  5 30.0010000  0 11G07G26G29S20G30G02G06G05G09G16G23
 -20430694.670 8  21064421.558          50.000        1065.912
  -1138687.973 6  25794173.073          39.000       -1912.733
   -880859.620 6  25070829.194          38.000        -596.540
  24859858.962 6  38847400.746          41.000         -91.720
 -15664754.723 8  22037733.523          49.000        2803.994
 -21794618.369 8  21869179.881          49.000        -254.880
 -16353990.944 7  22663565.777          46.000       -3140.608
 -11895035.736 7  23326318.241          46.000        3075.291
 -19676584.148 8  21528888.210          48.000       -2147.504
  -7000397.590 6  24326320.261          41.000        -365.854
 -11860824.362 7  23673431.882          44.000       -2894.615
 16  6 24  2  6  0.0010000  0 11G07G26G29S20G30G02G06G05G09G16G23
 -20462400.197 8  21058387.762          49.000        1047.527
  -1081080.756 6  25805136.381          39.000       -1928.325
   -862681.055 6  25074287.479          39.000        -614.938
  24862607.295 6  38847923.694          41.000         -92.387
 -15748673.062 8  22021763.590          48.000        2790.287
 -21786680.233 8  21870691.768          49.000        -274.824
 -16259597.860 7  22681528.786          46.000       -3152.402
 -11987195.243 7  23308779.830          46.000        3068.394
 -19612025.561 8  21541174.054          48.000       -2157.069
  -6989105.245 7  24328469.081          42.000        -387.145
 -11773926.357 7  23689966.626          43.000       -2899.620
 16  6 24  2  6 30.0010000  0 11G07G26G29S20G30G02G06G05G09G16G23
 -20493571.357 8  21052455.054          49.000        1030.641
  -1023009.718 6  25816187.691          40.000       -1942.919
   -843961.651 6  25077850.674          40.000        -632.854
  24865352.818 6  38848446.625          41.000         -92.301
 -15832208.620 8  22005867.489          49.000        2778.457
 -21778165.317 8  21872310.659          49.000        -292.971
 -16164881.716 7  22699553.256          46.000       -3161.930
 -12079179.884 7  23291274.853          46.000        3063.803
 -19547202.179 8  21553509.176          48.000       -2164.528
  -6977194.029 7  24330736.563          43.000        -406.805
 -11686904.927 7  23706527.302          43.000       -2901.996
 16  6 24  2  7  0.0010000  0 11G07G26G29S20G30G02G06G05G09G16G23
 -20524216.785 8  21046623.313          49.000        1012.497
   -964486.093 6  25827324.036          40.000       -1958.981
   -824711.503 6  25081513.265          40.000        -650.732
  24868089.744 6  38848966.624          41.000         -91.292
 -15915368.474 8  21990043.160          49.000        2765.458
 -21769083.038 8  21874039.121          49.000        -312.517
 -16069854.596 7  22717636.690          46.000       -3172.997
 -12170996.774 7  23273803.172          47.000        3057.292
 -19482124.555 8  21565892.793          48.000       -2173.892
  -6964672.736 7  24333118.639          43.000        -427.829
 -11599770.156 7  23723106.335          42.000       -2906.413
 16  6 24  2  7 30.0010000  0 11G07G26G29S20G30G02G06G05G09G16G23
 -20554322.724 8  21040895.192          50.000         994.904
   -905498.847 6  25838546.812          38.000       -1973.196
   -804918.602 6  25085278.271          39.000        -668.666
  24870831.002 6  38849488.839          41.000         -90.561
 -15998137.139 8  21974292.314          49.000        2752.653
 -21759420.196 8  21875877.135          49.000        -331.639
 -15974505.971 7  22735780.519          46.000       -3183.184
 -12262630.615 7  23256364.907          46.000        3051.594
 -19416780.554 7  21578326.893          47.000       -2182.571
  -6951528.454 7  24335620.774          43.000        -448.151
 -11512509.834 7  23739715.225          43.000       -2910.810
 16  6 24  2  8  0.0010000  0 11G07G26G29S20G30G02G06G05G09G16G23
 -20583898.396 8  21035266.520          50.000         977.182
   -846059.786 6  25849858.078          39.000       -1989.049
   -784594.545 6  25089145.013          39.000        -685.905
  24873564.345 6  38850009.972          41.000         -90.544
 -16080522.513 8  21958615.074          49.000        2739.892
 -21749187.647 8  21877824.527          49.000        -350.640
 -15878848.939 7  22753984.010          46.000       -3193.432
 -12354089.704 7  23238961.962          46.000        3045.560
 -19351181.668 7  21590810.151          47.000       -2190.648
  -6937772.084 7  24338238.621          43.000        -468.616
 -11425135.033 7  23756340.501          42.000       -2914.398
 16  6 24  2  8 30.0010000  0 11G07G26G29S20G30G02G06G05G09G16G23
 -20612949.285 8  21029738.134          49.000         959.885
   -786176.753 6  25861254.519          39.000       -2002.914
   -763746.007 6  25093112.599          39.000        -703.613
  24876284.249 6  38850527.423          41.000         -90.327
 -16162528.389 8  21943008.978          49.000        2727.448
 -21738391.095 8  21879878.225          49.000        -369.291
 -15782892.056 7  22772244.529          46.000       -3203.254
 -12445377.920 7  23221588.700          45.000        3040.021
 -19285334.844 7  21603339.756          47.000       -2199.094
  -6923409.230 7  24340969.702          42.000        -488.664
 -11337652.367 6  23772988.184          41.000       -2917.872
 16  6 24  2  9  0.0010000  0 11G07G26G29S20G30G02G06G05G09G16G23
 -20641459.426 8  21024313.262          49.000         941.356
   -725836.614 6  25872736.361          40.000       -2019.083
   -742358.729 6  25097180.507          37.000        -721.982
  24879006.087 6  38851043.514          41.000         -91.275
 -16244137.694 8  21927479.278          49.000        2713.499
 -21727016.284 8  21882043.152          49.000        -388.792
 -15686623.363 7  22790564.640          47.000       -3214.225
 -12536478.584 7  23204253.898          46.000        3033.549
 -19219226.455 7  21615919.740          47.000       -2208.094
  -6908425.226 7  24343821.504          42.000        -510.045
 -11250048.356 6  23789656.684          41.000       -2921.937
 16  6 24  2  9 30.0010000  0 11G07G26G29S20G30G02G06G05G09G16G23
 -20669425.096 8  21018992.569          50.000         922.521
   -665038.373 6  25884304.913          40.000       -2033.635
   -720431.137 6  25101354.476          38.000        -740.180
  24881735.962 6  38851562.640          41.000         -92.229
 -16325344.963 8  21912025.715          49.000        2699.904
 -21715060.333 8  21884318.957          49.000        -408.839
 -15590042.396 7  22808941.499          46.000       -3224.695
 -12627386.651 7  23186955.235          46.000        3026.582
 -19152854.460 7  21628550.732          47.000       -2217.326
  -6892816.974 6  24346791.094          41.000        -531.506
 -11162320.155 6  23806352.250          40.000       -2926.603
 16  6 24  2 10  0.0010000  0 11G07G26G29S20G30G02G06G05G09G16G23
 -20696855.149 8  21013772.040          49.000         905.839
   -603793.179 6  25895960.507          39.000       -2048.471
   -697973.811 6  25105630.373          40.000        -757.113
  24884464.912 6  38852081.278          40.000         -91.164
 -16406157.382 8  21896648.949          50.000        2687.409
 -21702532.966 8  21886703.494          49.000        -426.939
 -15493161.371 7  22827376.799          46.000       -3234.026
 -12718109.591 7  23169690.880          47.000        3021.123
 -19086229.381 7  21641228.350          47.000       -2224.765
  -6876594.097 6  24349877.357          41.000        -550.439
 -11074478.314 6  23823064.951          39.000       -2929.007
 16  6 24  2 10 30.0010000  0 11G07G26G29S20G30G02G06G05G09G16G23
 -20723747.024 8  21008654.205          49.000         887.420
   -542100.997 6  25907700.228          39.000       -2063.594
   -674986.028 6  25110003.136          39.000        -774.807
  24887195.947 6  38852602.237          40.000         -90.667
 -16486570.852 8  21881347.691          50.000        2673.948
 -21689432.536 8  21889195.665          49.000        -445.665
 -15395981.158 7  22845867.451          45.000       -3244.335
 -12808643.573 7  23152463.833          47.000        3014.719
 -19019350.464 7  21653955.073          47.000       -2233.083
  -6859754.509 7  24353083.154          42.000        -571.363
 -10986521.590 6  23839802.781          39.000       -2932.491
 16  6 24  2 11  0.0010000  0 11G07G26G29S20G30G02G06G05G09G16G23
 -20750105.400 8  21003637.965          49.000         870.364
   -479968.639 6  25919523.309          39.000       -2076.926
   -651474.045 7  25114481.089          42.000        -792.330
  24889920.514 6  38853120.282          40.000         -90.435
 -16566588.416 8  21866120.439          50.000        2660.876
 -21675764.866 8  21891797.126          49.000        -464.486
 -15298509.817 7  22864417.399          45.000       -3253.450
 -12898991.588 7  23135270.570          47.000        3008.812
 -18952224.140 7  21666729.487          47.000       -2241.304
  -6842304.335 7  24356403.041          42.000        -591.660
 -10898456.063 6  23856561.046          39.000       -2936.707
 16  6 24  2 11 30.0010000  0 11G07G26G29S20G30G02G06G05G09G16G23
 -20775930.757 8  20998724.821          49.000         852.299
   -417399.471 6  25931430.535          40.000       -2092.548
   -627439.957 7  25119053.761          42.000        -809.544
  24892638.433 6  38853637.611          40.000         -89.904
 -16646209.014 8  21850968.607          50.000        2647.819
 -21661531.085 8  21894505.679          49.000        -483.283
 -15200751.197 7  22883020.169          45.000       -3263.258
 -12989153.209 7  23118113.533          47.000        3002.977
 -18884852.525 7  21679549.307          47.000       -2249.286
  -6824244.858 7  24359840.629          43.000        -611.578
 -10810283.876 6  23873338.889          39.000       -2940.672
 16  6 24  2 12  0.0010000  0 11G07G26G29S20G30G02G06G05G09G16G23
 -20801213.836 8  20993912.627          49.000         834.117
   -354387.032 6  25943420.859          40.000       -2107.001
   -602876.319 6  25123727.278          41.000        -827.705
  24895355.064 6  38854154.818          40.000         -90.261
 -16725421.787 8  21835894.899          50.000        2634.247
 -21646723.238 8  21897323.767          49.000        -502.942
 -15102699.443 7  22901680.227          45.000       -3273.198
 -13079117.253 7  23100995.079          47.000        2995.781
 -18817228.169 7  21692417.237          47.000       -2257.654
  -6805567.596 7  24363395.203          43.000        -632.854
 -10721996.909 6  23890141.547          40.000       -2944.406
 16  6 24  2 12 30.0010000  0 11G07G26G29S20G30G02G06G05G09G16G23
 -20825961.065 8  20989202.953          48.000         816.004
   -290940.078 6  25955495.031          41.000       -2121.979
   -577791.844 6  25128500.629          39.000        -844.608
  24898064.085 6  38854668.901          40.000         -90.564
 -16804231.939 8  21820897.327          50.000        2620.778
 -21631348.997 8  21900249.453          49.000        -521.700
 -15004364.725 7  22920390.996          45.000       -3282.055
 -13168889.348 7  23083911.263          47.000        2989.211
 -18749359.528 7  21705332.196          46.000       -2266.244
  -6786280.054 7  24367065.194          43.000        -652.913
 -10633603.594 6  23906960.555          40.000       -2948.017
 16  6 24  2 13  0.0010000  0 11G07G26G29S20G30G02G06G05G09G16G23
 -20850163.104 8  20984597.317          49.000         797.231
   -227051.650 6  25967651.934          39.000       -2138.013
   -552178.227 6  25133373.358          39.000        -863.494
  24900776.607 6  38855185.393          40.000         -90.429
 -16882628.037 8  21805980.235          50.000        2605.935
 -21615399.568 8  21903284.429          49.000        -541.754
 -14905740.513 7  22939159.631          45.000       -3292.515
 -13258458.049 7  23066866.344          46.000        2981.933
 -18681238.460 7  21718295.020          46.000       -2275.290
  -6766373.359 7  24370854.177          44.000        -674.173
 -10545095.504 6  23923803.174          41.000       -2951.882
 16  6 24  2 13 30.0010000  0 11G07G26G29S20G30G02G06G05G09G16G23
 -20873809.602 8  20980098.721          49.000         778.583
   -162714.061 6  25979896.630          41.000       -2152.086
   -526027.513 6  25138350.177          39.000        -880.980
  24903503.426 6  38855704.990          40.000         -90.792
 -16960598.297 8  21791143.624          51.000        2591.494
 -21598865.746 7  21906428.208          47.000        -561.031
 -14806820.046 7  22957984.960          46.000       -3302.187
 -13347812.030 7  23049862.660          45.000        2974.830
 -18612856.401 7  21731309.096          47.000       -2283.742
  -6745838.083 7  24374760.879          43.000        -695.188
 -10456463.760 6  23940670.606          41.000       -2956.685
 16  6 24  2 14  0.0010000  0 11G07G26G29S20G30G02G06G05G09G16G23
 -20896909.020 8  20975703.360          49.000         760.904
    -97938.364 6  25992221.056          39.000       -2166.896
   -499349.855 6  25143427.143          38.000        -897.895
  24906232.332 6  38856223.244          40.000         -91.074
 -17038149.513 8  21776385.207          50.000        2578.070
 -21581757.037 8  21909684.873          48.000        -579.606
 -14707615.104 7  22976862.815          46.000       -3311.304
 -13436957.950 7  23032898.902          46.000        2968.110
 -18544223.457 7  21744369.327          46.000       -2292.028
  -6724683.876 7  24378786.610          44.000        -715.737
 -10367718.015 6  23957559.870          41.000       -2959.683
 16  6 24  2 14 30.0010000  0 11G07G26G29S20G30G02G06G05G09G16G23
 -20919466.885 8  20971410.502          49.000         742.844
    -32732.262 7  26004630.342          42.000       -2180.218
   -472152.259 6  25148603.122          38.000        -915.024
  24908957.541 6  38856740.731          40.000         -90.632
 -17115285.403 8  21761705.543          50.000        2564.078
 -21564079.846 8  21913048.856          48.000        -598.695
 -14608134.205 7  22995793.405          46.000       -3320.541
 -13525899.842 7  23015975.140          46.000        2961.448
 -18475346.506 7  21757476.518          46.000       -2300.043
  -6702917.091 7  24382928.733          43.000        -735.773
 -10278864.900 6  23974466.164          41.000       -2963.404
 16  6 24  2 15  0.0010000  0 11G07G26G29S20G30G02G06G05G09G16G23
 -20941488.328 8  20967219.029          49.000         724.926
     32896.194 7  26017119.113          43.000       -2194.897
   -444442.133 6  25153875.898          39.000        -932.409
  24911675.170 6  38857259.456          40.000         -90.924
 -17192009.937 8  21747106.726          50.000        2550.337
 -21545840.771 8  21916519.722          48.000        -617.679
 -14508386.367 7  23014773.675          45.000       -3329.564
 -13614641.281 7  22999086.209          45.000        2954.452
 -18406232.770 7  21770627.508          46.000       -2308.300
  -6680544.130 7  24387186.726          44.000        -755.678
 -10189911.856 7  23991395.039          42.000       -2966.801
 16  6 24  2 15 30.0010000  0 11G07G26G29S20G30G02G06G05G09G16G23
 -20962960.540 8  20963133.951          49.000         706.868
     98956.924 5  26029689.779          35.000       -2208.891
   -416207.790 6  25159249.692          38.000        -950.027
  24914398.994 6  38857777.047          40.000         -91.055
 -17268308.227 8  21732586.417          50.000        2536.386
 -21527027.507 8  21920100.035          48.000        -636.720
 -14408361.560 7  23033807.430          45.000       -3338.260
 -13703168.107 7  22982241.688          45.000        2947.607
 -18336870.613 7  21783826.748          46.000       -2316.081
  -6657552.442 7  24391562.054          43.000        -776.999
 -10100846.118 7  24008342.603          42.000       -2970.657
 16  6 24  2 16  0.0010000  0 11G07G26G29S20G30G02G06G05G09G16G23
 -20983890.874 8  20959151.322          49.000         688.443
    165441.005 6  26042341.379          40.000       -2223.432
   -387458.959 6  25164718.590          38.000        -967.338
  24917123.677 6  38858296.051          40.000         -90.665
 -17344186.136 8  21718147.775          50.000        2521.796
 -21507648.674 8  21923787.196          48.000        -655.534
 -14308070.556 7  23052893.030          46.000       -3347.669
 -13791485.791 7  22965433.848          45.000        2940.405
 -18267269.057 7  21797071.323          47.000       -2324.304
  -6633950.539 7  24396052.448          43.000        -797.098
 -10011676.749 7  24025310.532          42.000       -2973.909
 16  6 24  2 16 30.0010000  0 11G07G26G29S20G30G02G06G05G09G16G23
 -21004269.884 8  20955272.732          49.000         670.543
    232355.886 6  26055074.785          41.000       -2237.638
   -358187.896 6  25170290.497          39.000        -983.473
  24919858.022 6  38858817.184          41.000         -91.051
 -17419632.431 8  21703791.568          50.000        2508.267
 -21487695.694 8  21927584.538          48.000        -674.393
 -14207507.058 7  23072029.532          45.000       -3356.141
 -13879583.252 7  22948668.935          46.000        2933.344
 -18197420.042 7  21810362.491          47.000       -2332.056
  -6609730.021 7  24400661.923          43.000        -817.524
  -9922395.562 7  24042301.163          42.000       -2977.842
 16  6 24  2 17  0.0010000  0 11G07G26G29S20G30G02G06G05G09G16G23
 -21024093.817 8  20951500.519          49.000         651.332
    299701.952 6  26067891.150          37.000       -2252.246
   -328392.542 6  25175959.427          38.000       -1001.346
  24922602.466 6  38859339.626          41.000         -91.214
 -17494641.821 8  21689516.086          49.000        2493.197
 -21467165.981 8  21931490.944          48.000        -693.741
 -14106670.665 7  23091216.710          45.000       -3366.297
 -13967455.205 7  22931948.537          47.000        2925.561
 -18127321.461 8  21823703.078          48.000       -2340.529
  -6584888.113 7  24405388.751          43.000        -838.118
  -9832999.944 7  24059311.164          42.000       -2981.536
 16  6 24  2 17 30.0010000  0 11G07G26G29S20G30G02G06G05G09G16G23
 -21043357.995 8  20947834.682          49.000         632.834
    367481.617 5  26080787.716          32.000       -2268.908
   -298069.927 6  25181728.504          36.000       -1019.024
  24925362.031 6  38859863.081          40.000         -91.487
 -17569207.815 8  21675326.913          49.000        2477.743
 -21446055.754 8  21935508.316          48.000        -713.474
 -14005559.731 7  23110457.739          45.000       -3375.358
 -14055095.243 7  22915271.923          47.000        2917.376
 -18056969.891 8  21837091.059          48.000       -2349.447
  -6559421.044 7  24410234.432          43.000        -859.810
  -9743486.418 7  24076345.788          43.000       -2985.717
 16  6 24  2 18  0.0010000  0 11G07G26G29S20G30G02G06G05G09G16G23
 -21062070.322 8  20944274.331          49.000         614.638
    435684.098 6  26093766.717          41.000       -2280.579
   -267229.610 6  25187598.251          37.000       -1036.288
  24928130.784 6  38860391.334          40.000         -93.175
 -17643336.791 8  21661221.972          50.000        2463.749
 -21424374.339 8  21939633.739          48.000        -732.256
 -13904185.556 7  23129750.682          46.000       -3383.308
 -14142509.472 7  22898638.654          47.000        2910.232
 -17986374.895 8  21850525.528          48.000       -2356.752
  -6533337.767 7  24415199.403          42.000        -879.665
  -9653863.959 7  24093400.583          43.000       -2988.800
 16  6 24  2 18 30.0010000  0 11G07G26G29S20G30G02G06G05G09G16G23
 -21080224.991 8  20940818.769          49.000         596.042
    504313.283 7  26106826.652          43.000       -2294.773
   -235868.148 6  25193566.191          37.000       -1053.878
  24930913.673 6  38860920.599          40.000         -92.070
 -17717021.217 8  21647201.053          50.000        2448.708
 -21402116.722 8  21943870.059          48.000        -751.471
 -13802545.443 7  23149090.636          46.000       -3392.853
 -14229690.845 7  22882046.900          46.000        2902.199
 -17915532.016 8  21864006.328          48.000       -2365.702
  -6506633.443 7  24420280.907          42.000        -900.333
  -9564128.002 7  24110478.291          43.000       -2992.959
 16  6 24  2 19  0.0010000  0 11G07G26G29S20G30G02G06G05G09G16G23
 -21097827.282 8  20937469.252          49.000         576.981
    573361.947 5  26119966.613          34.000       -2309.094
   -203992.250 6  25199631.642          38.000       -1071.663
  24933703.951 6  38861451.347          40.000         -93.035
 -17790264.522 8  21633262.203          50.000        2433.860
 -21379288.947 8  21948213.906          48.000        -770.478
 -13700647.689 7  23168481.039          46.000       -3401.024
 -14316642.188 7  22865499.714          45.000        2894.188
 -17844447.857 8  21877532.811          48.000       -2373.655
  -6479314.123 7  24425478.768          42.000        -920.976
  -9474284.715 7  24127575.264          43.000       -2996.810
 16  6 24  2 19 30.0010000  0 11G07G26G29S20G30G02G06G05G09G16G23
 -21114875.108 8  20934226.356          50.000         558.593
    642829.58215  26133186.340          32.000       -2322.350
   -171601.572 6  25205795.461          38.000       -1089.073
  24936502.305 6  38861985.463          41.000         -94.555
 -17863063.071 8  21619408.615          49.000        2418.412
 -21355890.502 7  21952664.218          47.000        -790.147
 -13598493.490 7  23187921.942          46.000       -3409.525
 -14403359.768 7  22848997.688          46.000        2886.176
 -17773121.808 7  21891104.317          47.000       -2381.812
  -6451378.824 7  24430795.099          42.000        -941.882
  -9384333.081 7  24144692.183          43.000       -3000.802
 16  6 24  2 20  0.0010000  0 11G07G29S20G13G30G02G06G05G09G16G23
 -21131352.030 8  20931089.994          50.000         539.685
   -138681.595 6  25212059.827          38.000       -1105.751
  24939323.440 6  38862522.668          41.000         -94.189
    -98625.86916  25155562.130          36.000        3297.285
 -17935398.699 8  21605644.145          50.000        2403.488
 -21331905.710 7  21957230.399          47.000        -808.831
 -13496069.526 7  23207412.422          46.000       -3418.138
 -14489825.769 7  22832545.292          47.000        2878.174
 -17701538.781 8  21904727.301          48.000       -2390.168
  -6422811.831 7  24436231.767          43.000        -962.266
  -9294257.988 7  24161833.759          44.000       -3003.825
 16  6 24  2 20 30.0010000  0 11G07G29S20G13G30G02G06G05G09G16G23
 -21147280.085 8  20928059.397          50.000         522.155
   -105256.180 6  25218419.908          36.000       -1121.186
  24942144.305 6  38863059.297          41.000         -93.338
   -197499.563 5  25136747.078          33.000        3294.613
 -18007291.613 8  21591963.192          50.000        2389.559
 -21307357.819 8  21961902.067          48.000        -827.372
 -13393400.830 7  23226949.529          46.000       -3425.727
 -14576060.139 7  22816134.880          47.000        2871.019
 -17629722.050 8  21918393.090          48.000       -2397.636
  -6393636.594 7  24441782.821          42.000        -982.376
  -9204082.264 7  24178991.633          43.000       -3007.272
 16  6 24  2 21  0.0010000  0 11G07G29S20G13G30G02G06G05G09G16G23
 -21162668.847 8  20925130.465          50.000         503.970
    -71336.853 6  25224875.459          38.000       -1138.865
  24944957.659 6  38863591.686          40.000         -93.761
   -296303.591 6  25117945.585          36.000        3292.002
 -18078749.789 8  21578365.860          50.000        2374.520
 -21282257.380 7  21966678.313          47.000        -845.899
 -13290500.183 7  23246529.336          45.000       -3433.829
 -14662071.067 7  22799767.309          47.000        2863.409
 -17557682.604 7  21932101.527          47.000       -2404.910
  -6363863.459 7  24447448.051          42.000       -1001.737
  -9113816.594 7  24196168.545          43.000       -3010.636
 16  6 24  2 21 30.0010000  0 11G07G29S20G13G30G02G06G05G09G16G23
 -21177509.960 8  20922306.619          50.000         485.318
    -36916.978 6  25231423.740          37.000       -1155.597
  24947772.551 6  38864127.635          40.000         -94.020
   -395029.422 5  25099158.384          34.000        3289.607
 -18149763.307 8  21564852.254          50.000        2359.393
 -21256597.314 7  21971560.483          47.000        -864.858
 -13187362.456 7  23266156.469          45.000       -3441.924
 -14747847.804 8  22783445.701          48.000        2855.048
 -17485413.547 8  21945855.283          48.000       -2413.155
  -6333485.358 7  24453228.890          42.000       -1023.288
  -9023453.869 7  24213364.164          43.000       -3013.904
 16  6 24  2 22  0.0010000  0 11G07G29S20G13G30G02G06G05G09G16G23
 -21191804.591 8  20919586.112          50.000         467.807
     -1999.264 6  25238068.574          38.000       -1171.535
  24950584.738 6  38864662.344          40.000         -92.766
   -493676.543 6  25080388.424          36.000        3287.725
 -18220331.034 8  21551423.073          50.000        2345.333
 -21230379.430 7  21976549.011          46.000        -882.928
 -13083991.334 7  23285826.633          45.000       -3448.694
 -14833389.460 7  22767166.690          47.000        2847.928
 -17412916.780 8  21959650.081          48.000       -2419.674
  -6302504.227 7  24459125.248          43.000       -1042.166
  -8932995.915 7  24230577.722          43.000       -3016.812
 16  6 24  2 22 30.0010000  0 11G07G29S20G13G30G02G06G05G09G16G23
 -21205561.849 8  20916968.632          50.000         449.272
     33405.081 6  25244805.510          37.000       -1188.970
  24953385.557 6  38865195.029          40.000         -93.445
   -592253.962 6  25061629.248          36.000        3285.113
 -18290460.711 8  21538077.373          50.000        2329.948
 -21203614.365 7  21981643.393          47.000        -901.858
 -12980399.333 7  23305539.638          45.000       -3457.141
 -14918703.608 7  22750931.112          46.000        2839.774
 -17340203.016 8  21973487.266          48.000       -2427.792
  -6270930.403 7  24465133.254          43.000       -1062.783
  -8842452.649 7  24247808.957          44.000       -3019.758
 16  6 24  2 23  0.0010000  0 11G07G29S20G13G30G02G06G05G09G16G23
 -21218767.950 8  20914454.945          50.000         430.385
     69308.155 6  25251636.240          37.000       -1205.366
  24956190.218 6  38865728.727          40.000         -94.855
   -690747.391 5  25042885.533          34.000        3280.491
 -18360136.911 8  21524819.622          50.000        2314.310
 -21176289.315 8  21986843.698          48.000        -920.994
 -12876575.781 7  23325297.578          45.000       -3465.274
 -15003774.576 7  22734740.887          45.000        2831.222
 -17267259.787 7  21987365.983          47.000       -2436.196
  -6238751.039 7  24471255.697          42.000       -1082.908
  -8751811.337 7  24265055.740          43.000       -3023.363
 16  6 24  2 23 30.0010000  0 11G07G29S20G13G30G02G06G05G09G16G23
 -21231427.301 8  20912046.100          50.000         412.849
    105703.548 6  25258565.320          38.000       -1222.364
  24958995.408 6  38866262.878          40.000         -93.051
   -789160.030 6  25024158.849          37.000        3279.684
 -18429362.136 8  21511645.947          50.000        2300.131
 -21148409.573 8  21992147.622          48.000        -938.365
 -12772527.928 7  23345097.345          46.000       -3471.779
 -15088604.621 7  22718599.610          46.000        2823.765
 -17194092.594 8  22001290.384          48.000       -2442.514
  -6205971.504 7  24477493.382          42.000       -1102.482
  -8661077.341 7  24282322.574          43.000       -3025.966
 16  6 24  2 24  0.0010000  0 11G07G29S20G13G30G02G06G05G09G16G23
 -21243544.773 8  20909740.176          50.000         394.919
    142585.040 6  25265583.205          39.000       -1236.603
  24961797.866 6  38866797.221          40.000         -93.046
   -887496.302 5  25005443.403          33.000        3276.275
 -18498139.417 8  21498557.167          50.000        2285.372
 -21119981.154 8  21997557.311          48.000        -956.678
 -12668263.558 7  23364937.510          45.000       -3478.854
 -15173196.551 7  22702501.296          46.000        2815.669
 -17120707.297 8  22015255.950          48.000       -2449.709
  -6172597.467 7  24483843.831          42.000       -1122.361
  -8570256.255 7  24299605.985          43.000       -3028.826
 16  6 24  2 24 30.0010000  0 11G07G29S20G13G30G02G06G05G09G16G23
 -21255114.980 8  20907538.901          50.000         376.006
    179956.151 6  25272695.285          40.000       -1254.111
  24964602.805 6  38867330.744          40.000         -93.375
   -985749.638 6  24986750.294          36.000        3273.809
 -18566461.471 8  21485554.730          50.000        2269.673
 -21090999.343 8  22003073.308          48.000        -975.714
 -12563780.135 7  23384820.270          45.000       -3486.573
 -15257542.979 7  22686451.894          47.000        2806.911
 -17047099.653 8  22029265.177          49.000       -2457.344
  -6138624.527 7  24490310.288          42.000       -1142.762
  -8479343.454 7  24316906.462          44.000       -3032.868
 16  6 24  2 25  0.0010000  0 11G07G29S20G13G30G02G06G05G09G16G23
 -21266136.133 8  20905441.332          50.000         358.589
    217816.677 6  25279900.358          41.000       -1269.599
  24967411.093 6  38867864.878          40.000         -93.435
  -1083917.812 6  24968069.696          36.000        3270.853
 -18634325.036 8  21472642.023          50.000        2254.627
 -21061464.207 8  22008693.534          48.000        -993.633
 -12459079.089 7  23404744.615          45.000       -3493.367
 -15341640.145 7  22670448.544          47.000        2799.540
 -16973269.236 8  22043313.073          48.000       -2464.619
  -6104052.528 7  24496889.387          43.000       -1162.345
  -8388338.312 7  24334223.203          43.000       -3034.916
 16  6 24  2 25 30.0010000  0 11G07G29S20G13G30G02G06G05G09G16G23
 -21276616.280 8  20903446.755          50.000         340.081
    256156.704 6  25287194.462          39.000       -1285.779
  24970212.582 6  38868399.273          40.000         -92.987
  -1182007.49816  24949403.512          36.000        3268.807
 -18701736.250 8  21459815.520          51.000        2239.320
 -21031384.599 8  22014418.130          48.000       -1011.741
 -12354171.287 7  23424709.706          45.000       -3500.567
 -15425494.208 7  22654491.035          47.000        2791.332
 -16899225.132 8  22057403.688          48.000       -2471.843
  -6068890.327 7  24503580.306          43.000       -1181.907
  -8297249.530 7  24351557.028          43.000       -3038.036
 16  6 24  2 26  0.0010000  0 11G07G29S20G13G30G02G06G05G09G16G23
 -21286549.223 8  20901556.425          50.000         322.063
    294980.831 6  25294583.599          39.000       -1301.921
  24973011.631 6  38868931.662          40.000         -93.819
  -1280013.345 6  24930753.452          37.000        3265.554
 -18768686.920 8  21447074.714          51.000        2224.102
 -21000755.243 7  22020246.241          47.000       -1030.013
 -12249053.213 7  23444711.477          44.000       -3506.966
 -15509096.496 7  22638582.911          47.000        2782.706
 -16824961.927 8  22071533.949          48.000       -2478.925
  -6033132.524 7  24510385.141          43.000       -1201.132
  -8206071.496 7  24368907.605          43.000       -3040.487
 16  6 24  2 26 30.0010000  0 11G07G29S20G13G30G02G06G05G09G16G23
 -21295938.682 8  20899769.854          50.000         304.301
    334283.346 6  25302062.990          39.000       -1317.937
  24975805.100 6  38869464.452          40.000         -92.235
  -1377936.067 6  24912119.359          37.000        3263.768
 -18835179.259 8  21434420.636          50.000        2209.383
 -20969581.175 8  22026179.403          48.000       -1047.802
 -12143731.731 7  23464752.336          44.000       -3513.761
 -15592449.209 7  22622721.902          47.000        2774.782
 -16750484.756 8  22085706.283          48.000       -2485.639
  -5996783.881 7  24517301.500          43.000       -1221.080
  -8114808.734 7  24386273.364          42.000       -3043.583
 16  6 24  2 27  0.0010000  0 11G07G29S20G13G30G02G06G05G09G16G23
 -21304799.180 8  20898084.093          50.000         286.095
    374048.304 6  25309629.003          38.000       -1333.348
  24978580.431 6  38869991.885          41.000         -92.474
  -1475790.384 6  24893498.581          37.000        3259.836
 -18901225.833 8  21421852.379          50.000        2193.631
 -20937877.849 7  22032210.180          47.000       -1066.180
 -12038224.167 7  23484831.185          44.000       -3520.338
 -15675564.305 7  22606905.042          47.000        2766.186
 -16675809.022 7  22099916.065          47.000       -2492.852
  -5959860.526 7  24524328.441          43.000       -1240.146
  -8023476.521 7  24403653.118          42.000       -3045.719
 16  6 24  2 27 30.0010000  0 11G07G29S20G13G30G02G06G05G09G16G23
 -21313115.874 8  20896501.237          50.000         267.904
    414288.411 6  25317286.612          37.000       -1349.227
  24981353.601 6  38870521.202          41.000         -93.515
  -1573560.280 6  24874895.044          37.000        3257.305
 -18966809.950 8  21409372.786          51.000        2178.278
 -20905631.293 7  22038347.754          47.000       -1084.352
 -11932518.386 7  23504945.370          44.000       -3526.632
 -15758424.847 7  22591136.763          47.000        2757.264
 -16600920.833 7  22114167.100          47.000       -2500.078
  -5922348.110 7  24531466.574          44.000       -1260.612
  -7932060.646 6  24421048.088          41.000       -3048.576
 16  6 24  2 28  0.0010000  0 11G07G29S20G13G30G02G06G05G09G16G23
 -21320891.507 8  20895020.690          50.000         250.307
    454998.986 6  25325033.549          36.000       -1364.214
  24984119.083 6  38871046.035          41.000         -92.040
  -1671247.679 5  24856300.650          35.000        3255.044
 -19031932.845 8  21396980.008          51.000        2163.318
 -20872845.719 7  22044584.374          46.000       -1101.496
 -11826620.266 7  23525096.568          44.000       -3532.942
 -15841031.491 8  22575418.672          48.000        2749.629
 -16525824.146 8  22128459.387          48.000       -2506.340
  -5884251.061 7  24538716.686          43.000       -1278.795
  -7840564.811 7  24438461.416          42.000       -3051.705
 16  6 24  2 28 30.0010000  0 11G07G29S20G13G30G02G06G05G09G16G23
 -21328129.915 8  20893643.606          49.000         232.595
    496174.644 6  25332868.470          36.000       -1380.543
  24986872.336 6  38871571.182          41.000         -91.455
  -1768855.35416  24837731.263          38.000        3252.292
 -19096596.271 8  21384675.493          51.000        2147.876
 -20839526.224 7  22050926.534          46.000       -1119.568
 -11720536.213 7  23545284.515          44.000       -3539.363
 -15923385.789 8  22559745.933          48.000        2740.899
 -16450523.606 7  22142788.214          47.000       -2513.241
  -5845573.617 7  24546075.042          42.000       -1298.614
  -7748993.081 6  24455886.244          41.000       -3053.517
 16  6 24  2 29  0.0010000  0 11G07G29S20G13G30G02G06G05G09G16G23
 -21334821.963 8  20892370.630          50.000         214.401
    537822.953 6  25340796.121          37.000       -1395.624
  24989625.476 6  38872094.427          41.000         -91.818
  -1866373.789 6  24819174.422          38.000        3250.352
 -19160789.416 8  21372459.293          51.000        2132.443
 -20805664.727 7  22057369.835          46.000       -1137.557
 -11614260.021 7  23565508.410          44.000       -3545.332
 -16005476.689 7  22544124.236          47.000        2732.081
 -16375011.109 7  22157157.718          47.000       -2520.289
  -5806308.233 7  24553547.696          42.000       -1318.399
  -7657337.514 6  24473328.504          41.000       -3055.980
 16  6 24  2 29 30.0010000  0 11G07G29S20G13G30G02G06G05G09G16G23
 -21340970.655 8  20891200.227          49.000         196.456
    579938.650 6  25348808.057          36.000       -1411.814
  24992376.586 6  38872616.293          41.000         -91.237
  -1963804.515 6  24800632.518          38.000        3247.043
 -19224513.516 8  21360332.666          51.000        2116.583
 -20771264.996 7  22063918.570          47.000       -1155.315
 -11507797.527 7  23585767.432          43.000       -3551.302
 -16087304.940 7  22528554.192          47.000        2723.521
 -16299290.658 7  22171566.607          47.000       -2527.260
  -5766459.015 7  24561130.165          42.000       -1337.829
  -7565601.491 6  24490784.951          41.000       -3058.977
 16  6 24  2 30  0.0010000  0 11G07G29S20G13G30G02G06G05G09G16G23
 -21346579.668 8  20890133.390          50.000         178.280
    622516.412 6  25356912.636          38.000       -1426.574
  24995124.240 6  38873140.026          41.000         -91.470
  -2061150.363 6  24782108.484          38.000        3243.666
 -19287770.295 8  21348295.924          51.000        2100.954
 -20736332.181 7  22070562.967          46.000       -1172.715
 -11401154.987 7  23606059.662          43.000       -3557.280
 -16168871.660 7  22513032.206          47.000        2715.111
 -16223366.711 7  22186012.403          46.000       -2533.877
  -5726030.529 7  24568824.157          42.000       -1356.422
  -7473789.288 6  24508255.603          40.000       -3061.233
 16  6 24  2 30 30.0010000  0 11G07G29S20G13G30G02G06G05G09G16G23
 -21351643.068 8  20889170.173          50.000         159.304
    665560.532 6  25365102.215          37.000       -1443.803
  24997874.335 6  38873663.062          41.000         -91.992
  -2158404.340 6  24763601.115          39.000        3239.343
 -19350551.932 8  21336349.348          51.000        2084.392
 -20700861.298 7  22077312.868          45.000       -1191.390
 -11294329.202 7  23626387.857          42.000       -3563.945
 -16250168.392 7  22497561.716          47.000        2704.957
 -16147234.148 7  22200500.307          46.000       -2541.565
  -5685018.057 7  24576628.436          42.000       -1377.245
  -7381895.281 6  24525742.170          41.000       -3064.721
 16  6 24  2 31  0.0010000  0 11G07G29S20G13G30G02G06G05G09G16G23
 -21356169.948 8  20888308.481          50.000         141.979
    709060.175 6  25373380.982          39.000       -1457.069
  25000614.948 6  38874184.806          41.000         -91.222
  -2255574.277 6  24745108.944          38.000        3237.775
 -19412865.542 8  21324490.494          51.000        2069.367
 -20664862.360 7  22084163.196          46.000       -1208.291
 -11187331.840 7  23646749.086          42.000       -3569.738
 -16331201.925 8  22482142.023          48.000        2696.485
 -16070902.787 7  22215025.903          46.000       -2547.439
  -5643431.375 7  24584542.249          43.000       -1395.907
  -7289929.173 6  24543242.749          40.000       -3066.528
 16  6 24  2 31 30.0010000  0 11G07G29S20G13G30G02G06G05G09G16G23
 -21360171.338 8  20887546.727          50.000         124.409
    753002.337 6  25381741.975          38.000       -1472.000
  25003335.919 6  38874702.554          40.000         -89.966
  -2352670.662 6  24726633.142          38.000        3235.064
 -19474720.740 8  21312719.694          51.000        2054.010
 -20628348.054 7  22091112.815          47.000       -1225.772
 -11080176.987 7  23667139.019          42.000       -3574.878
 -16411981.843 7  22466769.218          47.000        2688.427
 -15994384.901 7  22229588.791          47.000       -2553.559
  -5601283.133 7  24592563.434          43.000       -1414.458
  -7197902.960 6  24560755.805          41.000       -3068.744
 16  6 24  2 32  0.0010000  0 11G07G29S20G13G30G02G06G05G09G16G23
 -21363630.649 8  20886888.051          50.000         106.200
    797401.780 6  25390190.760          37.000       -1487.746
  25006054.399 6  38875218.417          40.000         -90.807
  -2449675.610 6  24708173.639          38.000        3231.915
 -19536098.887 8  21301040.002          51.000        2037.630
 -20591302.197 7  22098163.121          47.000       -1243.769
 -10972850.537 6  23687561.480          41.000       -3580.198
 -16492488.612 7  22451448.939          47.000        2678.815
 -15917664.463 7  22244187.364          47.000       -2560.604
  -5558557.631 7  24600694.101          44.000       -1433.430
  -7105800.231 6  24578283.397          41.000       -3071.668
 16  6 24  2 32 30.0010000  0 11G07G29S20G13G30G02G06G05G09G16G23
 -21366554.697 8  20886332.070          49.000          88.635
    842250.000 5  25398723.393          34.000       -1502.522
  25008763.818 6  38875735.205          40.000         -90.308
  -2546594.952 6  24689729.649          37.000        3229.032
 -19597004.979 8  21289450.928          51.000        2022.247
 -20553733.610 7  22105311.498          46.000       -1260.963
 -10865362.009 7  23708018.423          42.000       -3585.629
 -16572726.815 7  22436180.662          47.000        2670.315
 -15840749.202 7  22258823.856          46.000       -2566.984
  -5515262.891 7  24608932.715          44.000       -1452.593
  -7013628.290 6  24595824.356          41.000       -3073.628
 16  6 24  2 33  0.0010000  0 11G07G29S20G13G30G02G06G05G09G16G23
 -21368944.434 8  20885876.933          50.000          70.423
    887544.558 5  25407342.369          32.000       -1516.844
  25011463.236 6  38876246.601          40.000         -89.830
  -2643428.251 6  24671303.179          37.000        3225.745
 -19657437.938 8  21277950.886          51.000        2006.374
 -20515643.974 7  22112558.975          46.000       -1278.811
 -10757714.865 7  23728503.233          42.000       -3592.317
 -16652694.802 8  22420963.688          48.000        2660.732
 -15763640.604 7  22273497.674          47.000       -2573.839
  -5471400.811 7  24617279.154          44.000       -1472.073
  -6921388.382 6  24613375.226          40.000       -3076.574
 16  6 24  2 33 30.0010000  0 11G07G29S20G13G30G02G06G05G09G16G23
 -21370779.161 8  20885527.946          49.000          52.349
    933303.862 5  25416046.119          30.000       -1532.750
  25014173.023 6  38876763.616          40.000         -90.581
  -2740154.040 6  24652896.724          38.000        3222.709
 -19717375.415 8  21266544.638          51.000        1989.892
 -20477013.588 7  22119909.879          46.000       -1295.968
 -10649891.183 6  23749019.594          41.000       -3596.552
 -16732369.697 8  22405802.468          48.000        2651.135
 -15686318.904 7  22288211.366          47.000       -2580.473
  -5426952.049 7  24625737.920          44.000       -1491.142
  -6829060.447 6  24630944.123          39.000       -3078.248
 16  6 24  2 34  0.0010000  0 11G07G29S20G13G30G02G06G05G09G16G23
 -21372071.592 8  20885281.916          49.000          34.371
    979514.15415  25424838.307          31.000       -1546.728
  25016879.926 6  38877277.438          40.000         -89.004
  -2836783.538 6  24634508.313          39.000        3218.892
 -19776828.058 8  21255230.545          50.000        1974.306
 -20437856.152 7  22127363.234          46.000       -1313.570
 -10541906.010 7  23769570.524          42.000       -3601.829
 -16811761.604 8  22390695.291          48.000        2642.199
 -15608797.321 7  22302962.629          47.000       -2587.265
  -5381930.272 7  24634304.948          44.000       -1509.839
  -6736657.439 6  24648527.067          39.000       -3080.483
 16  6 24  2 34 30.0010000  0 11G07G29S20G13G30G02G06G05G09G16G23
 -21372825.381 8  20885138.196          49.000          15.939
   1026169.61115  25433719.002          31.000       -1564.156
  25019580.344 6  38877792.569          40.000         -89.661
  -2933319.361 6  24616137.404          39.000        3216.168
 -19835797.694 8  21244009.445          50.000        1957.381
 -20398176.388 7  22134912.983          46.000       -1331.496
 -10433765.507 6  23790147.384          41.000       -3607.376
 -16890871.825 8  22375640.220          48.000        2631.836
 -15531080.239 7  22317751.671          46.000       -2594.020
  -5336340.278 7  24642980.620          44.000       -1529.922
  -6644183.429 6  24666124.739          38.000       -3083.875
 16  6 24  2 35  0.0010000  0 11G07G29S20G13G30G02G06G05G09G16G23
 -21373031.381 8  20885098.531          50.000          -2.045
   1073276.98616  25442688.623          36.000       -1577.510
  25022283.955 6  38878305.256          40.000         -89.878
  -3029751.510 6  24597788.448          39.000        3212.743
 -19894273.627 8  21232881.685          50.000        1941.676
 -20357966.733 7  22142564.345          45.000       -1348.422
 -10325463.725 7  23810758.447          42.000       -3611.701
 -16969688.796 8  22360642.316          48.000        2622.745
 -15453159.550 7  22332579.714          46.000       -2599.716
  -5290174.276 7  24651765.688          44.000       -1547.822
  -6551630.096 6  24683733.806          37.000       -3086.372
 16  6 24  2 35 30.0010000  0 11G07G29S20G13G30G02G06G05G09G16G23
 -21372701.320 8  20885162.591          50.000         -19.770
   1120823.627 6  25451735.584          36.000       -1591.117
  25024982.285 6  38878820.753          41.000         -89.369
  -3126090.159 6  24579457.046          40.000        3210.160
 -19952265.423 8  21221846.045          50.000        1925.380
 -20317239.913 7  22150313.900          45.000       -1365.868
 -10217014.447 6  23831395.092          41.000       -3617.242
 -17048221.347 8  22345697.601          48.000        2613.583
 -15375047.292 7  22347443.513          46.000       -2606.314
  -5243444.782 7  24660656.749          43.000       -1566.668
  -6459009.125 6  24701357.863          36.000       -3087.148
 16  6 24  2 36  0.0010000  0 11G07G29S20G13G30G02G06G05G09G16G23
 -21371831.880 8  20885327.827          50.000         -38.230
   1168810.944 5  25460870.424          35.000       -1606.164
  25027680.261 6  38879334.644          41.000         -90.121
  -3222331.088 6  24561145.800          40.000        3206.716
 -20009768.060 8  21210902.665          50.000        1908.874
 -20275993.809 7  22158163.636          45.000       -1383.112
 -10108417.064 6  23852062.537          41.000       -3621.467
 -17126464.164 8  22330807.330          48.000        2603.375
 -15296740.975 7  22362345.632          47.000       -2613.202
  -5196149.675 7  24669657.396          43.000       -1585.940
  -6366317.818 6  24719001.935          37.000       -3090.588
 16  6 24  2 36 30.0010000  0 11G07G29S20G13G30G02G06G05G09G16G23
 -21370413.572 8  20885597.939          50.000         -56.211
   1217246.544 6  25470086.442          37.000       -1622.270
  25030387.792 6  38879850.647          41.000         -90.029
  -3318463.161 6  24542847.851          38.000        3202.813
 -20066770.099 8  21200056.813          51.000        1891.839
 -20234220.028 7  22166112.367          46.000       -1401.070
  -9999664.411 6  23872754.760          41.000       -3627.414
 -17204405.285 8  22315976.983          49.000        2592.971
 -15218231.639 7  22377285.619          47.000       -2620.413
  -5148281.123 7  24678767.213          43.000       -1604.924
  -6273546.576 6  24736654.628          37.000       -3092.179
 16  6 24  2 37  0.0010000  0 11G07G29S20G13G30G02G06G05G09G16G23
 -21368456.314 8  20885970.414          50.000         -74.526
   1266118.832 6  25479386.012          38.000       -1636.657
  25033092.913 6  38880365.917          41.000         -90.176
  -3414495.416 6  24524574.384          36.000        3200.326
 -20123279.637 8  21189304.233          51.000        1875.123
 -20191929.635 7  22174160.477          45.000       -1418.239
  -9890769.077 6  23893478.447          41.000       -3631.920
 -17282051.483 8  22301201.954          48.000        2583.008
 -15139529.834 7  22392260.977          46.000       -2627.117
  -5099849.851 7  24687982.795          43.000       -1624.167
  -6180705.567 6  24754325.329          38.000       -3095.891
 16  6 24  2 37 30.0010000  0 11G07G29S20G13G30G02G06G05G09G16G23
 -21365964.659 8  20886444.624          50.000         -92.315
   1315421.539 6  25488767.912          38.000       -1650.728
  25035791.290 6  38880880.053          41.000         -89.713
  -3510431.375 6  24506317.600          39.000        3196.300
 -20179299.448 8  21178643.965          51.000        1859.147
 -20149128.599 7  22182306.815          46.000       -1435.203
  -9781738.082 6  23914226.651          41.000       -3636.008
 -17359405.322 8  22286481.404          48.000        2573.679
 -15060640.801 7  22407273.661          46.000       -2633.115
  -5050861.320 7  24697305.661          42.000       -1642.103
  -6087800.027 6  24772003.307          38.000       -3099.211
 16  6 24  2 38  0.0010000  0 11G07G29S20G13G30G02G06G05G09G16G23
 -21362926.130 8  20887023.029          50.000        -110.366
   1365165.234 6  25498232.823          38.000       -1664.706
  25038499.066 6  38881395.794          41.000         -90.608
  -3606256.745 6  24488080.534          39.000        3192.358
 -20234814.985 8  21168079.063          51.000        1842.455
 -20105805.351 7  22190550.961          46.000       -1452.597
  -9672561.212 7  23935003.526          42.000       -3640.833
 -17436451.445 8  22271819.923          48.000        2563.438
 -14981552.381 7  22422323.496          47.000       -2639.633
  -5001304.879 7  24706736.142          42.000       -1661.304
  -5994817.519 6  24789695.996          38.000       -3100.732
 16  6 24  2 38 30.0010000  0 11G07G29S20G13G30G02G06G05G09G16G23
 -21359349.252 8  20887704.058          50.000        -127.749
   1415339.983 6  25507781.757          37.000       -1678.505
  25041207.931 6  38881910.645          41.000         -90.491
  -3701978.575 7  24469871.005          42.000        3189.334
 -20289832.805 8  21157609.071          51.000        1825.981
 -20061969.094 7  22198890.961          45.000       -1469.041
  -9563249.303 7  23955803.627          42.000       -3645.938
 -17513195.695 8  22257215.556          48.000        2553.353
 -14902273.544 7  22437410.204          47.000       -2645.104
  -4951189.545 7  24716272.285          42.000       -1679.224
  -5901766.742 6  24807406.065          39.000       -3102.144
 16  6 24  2 39  0.0010000  0 11G07G29S20G13G30G02G06G05G09G16G23
 -21355240.433 8  20888485.549          50.000        -145.629
   1465937.400 6  25517410.037          38.000       -1693.153
  25043910.136 6  38882425.532          41.000         -89.713
  -3797602.292 7  24451674.302          42.000        3185.456
 -20344357.393 8  21147233.643          51.000        1809.362
 -20017627.660 7  22207328.438          45.000       -1486.484
  -9453811.189 6  23976628.578          41.000       -3649.951
 -17589642.011 8  22242667.764          48.000        2543.300
 -14822811.185 7  22452532.476          47.000       -2651.683
  -4900522.896 7  24725913.914          42.000       -1698.003
  -5808653.994 6  24825123.986          38.000       -3103.918
 16  6 24  2 39 30.0010000  0 11G07G29S20G13G30G02G06G05G09G16G23
 -21350590.604 8  20889370.205          50.000        -163.761
   1516964.681 5  25527119.250          35.000       -1709.453
  25046613.421 6  38882939.091          41.000         -90.513
  -3893117.851 6  24433494.944          39.000        3182.788
 -20398378.299 8  21136953.668          51.000        1791.915
 -19972773.364 7  22215864.055          44.000       -1504.012
  -9344240.613 6  23997477.801          41.000       -3654.409
 -17665778.952 8  22228179.563          48.000        2532.398
 -14743157.203 8  22467690.450          48.000       -2658.359
  -4849297.610 6  24735661.327          41.000       -1716.689
  -5715471.089 6  24842856.269          38.000       -3106.583
 16  6 24  2 40  0.0010000  0 11G07G29S20G13G30G02G06G05G09G16G23
 -21345399.465 8  20890357.469          50.000        -181.823
   1568421.030 6  25536910.742          37.000       -1722.492
  25049317.736 6  38883452.669          41.000         -90.590
  -3988523.643 6  24415337.487          38.000        3178.304
 -20451893.142 8  21126770.541          52.000        1775.402
 -19927407.205 7  22224496.695          44.000       -1520.541
  -9234539.413 7  24018355.416          42.000       -3658.624
 -17741603.074 8  22213751.427          48.000        2522.073
 -14663311.506 7  22482883.325          47.000       -2664.372
  -4797514.249 6  24745515.569          41.000       -1735.835
  -5622217.611 6  24860602.181          38.000       -3109.514
 16  6 24  2 40 30.0010000  0 11G07G29S20G13G30G02G06G05G09G16G23
 -21339687.692 8  20891444.216          49.000        -198.845
   1620283.296 6  25546779.311          37.000       -1736.022
  25052002.443 6  38883962.163          41.000         -88.938
  -4083838.673 6  24397200.167          39.000        3175.491
 -20504920.533 8  21116679.481          52.000        1759.513
 -19881550.911 7  22233224.613          45.000       -1536.696
  -9124730.439 6  24039248.091          40.000       -3661.344
 -17817132.382 8  22199377.874          49.000        2512.914
 -14583295.100 7  22498108.989          47.000       -2669.729
  -4745194.704 6  24755472.175          41.000       -1753.534
  -5528914.229 6  24878355.090          36.000       -3110.922
 16  6 24  2 41  0.0010000  0 11G07G29S20G13G30G02G06G05G09G16G23
 -21333437.321 8  20892633.221          49.000        -217.148
   1672568.117 6  25556731.153          38.000       -1749.353
  25054688.655 6  38884473.716          41.000         -88.893
  -4179043.111 6  24379083.543          39.000        3172.089
 -20557440.622 8  21106685.514          52.000        1742.080
 -19835187.396 7  22242045.786          45.000       -1553.364
  -9014798.112 7  24060171.041          42.000       -3666.537
 -17892346.009 8  22185065.398          49.000        2502.481
 -14503090.458 7  22513371.037          46.000       -2676.750
  -4692321.915 6  24765533.622          41.000       -1771.759
  -5435543.244 6  24896123.199          36.000       -3113.523
 16  6 24  2 41 30.0010000  0 11G07G29S20G13G30G02G06G05G09G16G23
 -21326662.874 8  20893922.566          49.000        -234.217
   1725259.335 6  25566757.158          38.000       -1763.031
  25057363.256 6  38884983.838          41.000         -88.662
  -4274150.426 6  24360986.585          39.000        3168.407
 -20609466.055 8  21096786.128          52.000        1726.062
 -19788332.407 7  22250963.074          45.000       -1569.703
  -8904759.221 7  24081109.558          42.000       -3668.573
 -17967256.403 8  22170811.711          49.000        2492.059
 -14422712.431 7  22528666.938          46.000       -2682.174
  -4638911.735 7  24775697.536          42.000       -1788.603
  -5342119.133 5  24913898.008          34.000       -3113.243
 16  6 24  2 42  0.0010000  0 11G07G29S20G13G30G02G06G05G09G16G23
 -21319370.051 8  20895309.893          49.000        -251.629
   1778349.214 6  25576862.370          39.000       -1776.374
  25060023.060 6  38885489.301          41.000         -88.707
  -4369165.112 6  24342906.013          41.000        3164.484
 -20661000.608 8  21086978.687          52.000        1709.278
 -19740992.838 7  22259971.487          46.000       -1586.385
  -8794621.782 7  24102070.707          43.000       -3673.266
 -18041866.054 8  22156612.416          49.000        2481.708
 -14342167.235 7  22543994.372          46.000       -2688.184
  -4584971.018 7  24785963.447          42.000       -1806.699
  -5248647.815 5  24931685.870          35.000       -3118.407
 16  6 24  2 42 30.0010000  0 11G07G29S20G13G30G02G06G05G09G16G23
 -21311542.155 8  20896799.182          49.000        -270.229
   1831853.123 6  25587041.344          38.000       -1791.102
  25062685.090 6  38885996.195          40.000         -88.938
  -4464069.119 6  24324845.474          41.000        3161.428
 -20712025.912 8  21077268.950          52.000        1691.905
 -19693153.347 7  22269073.712          45.000       -1603.371
  -8684371.385 7  24123049.550          42.000       -3677.080
 -18116155.417 8  22142476.117          49.000        2470.507
 -14261438.446 7  22559357.788          46.000       -2694.572
  -4530484.390 7  24796330.743          42.000       -1825.705
  -5155112.396 5  24949483.888          34.000       -3119.828
 16  6 24  2 43  0.0010000  0 11G07G29S20G13G30G02G06G05G09G16G23
 -21303175.639 8  20898392.072          49.000        -287.689
   1885772.696 6  25597302.735          37.000       -1804.626
  25065351.959 6  38886503.560          40.000         -89.328
  -4558857.158 7  24306810.936          43.000        3158.120
 -20762536.505 8  21067656.672          52.000        1675.365
 -19644811.443 7  22278271.774          44.000       -1619.970
  -8574006.810 7  24144052.196          43.000       -3680.164
 -18190118.571 8  22128402.063          50.000        2459.984
 -14180523.012 7  22574754.516          46.000       -2699.714
  -4475449.583 7  24806802.968          42.000       -1843.478
  -5061509.740 5  24967297.175          35.000       -3121.072
 16  6 24  2 43 30.0010000  0 11G07G29S20G13G30G02G06G05G09G16G23
 -21294278.517 8  20900085.232          49.000        -305.511
   1940097.840 6  25607640.418          36.000       -1817.515
  25068015.120 6  38887009.093          40.000         -88.411
  -4653535.764 7  24288795.924          44.000        3154.420
 -20812538.398 8  21058142.254          52.000        1658.341
 -19595976.109 7  22287565.673          44.000       -1635.910
  -8463538.117 7  24165072.292          43.000       -3684.003
 -18263760.642 8  22114387.566          49.000        2449.684
 -14099429.086 7  22590185.360          45.000       -2705.955
  -4419875.511 7  24817379.126          42.000       -1860.907
  -4967847.709 6  24985121.473          36.000       -3122.456
 16  6 24  2 44  0.0010000  0 11G07G29S20G13G30G02G06G05G09G16G23
 -21284839.607 8  20901881.680          49.000        -323.698
   1994838.803 6  25618056.593          38.000       -1831.066
  25070689.741 6  38887521.117          40.000         -89.043
  -4748092.417 7  24270800.404          42.000        3149.722
 -20862018.536 8  21048727.042          52.000        1640.535
 -19546637.699 7  22296954.885          43.000       -1653.073
  -8352956.404 7  24186116.487          43.000       -3687.739
 -18337067.721 8  22100439.816          49.000        2437.816
 -14018145.807 7  22605652.640          45.000       -2712.804
  -4363752.244 7  24828058.450          42.000       -1880.295
  -4874114.722 6  25002960.464          36.000       -3125.977
 16  6 24  2 44 30.0010000  0 11G07G29S20G13G30G02G06G05G09G16G23
 -21274872.296 8  20903778.449          49.000        -341.529
   2049980.133 6  25628549.496          36.000       -1844.172
  25073362.674 6  38888029.599          41.000         -88.969
  -4842539.042 6  24252825.982          40.000        3146.226
 -20910988.372 8  21039407.648          52.000        1623.788
 -19496810.386 7  22306436.967          44.000       -1669.295
  -8242277.078 7  24207177.783          43.000       -3691.158
 -18410049.982 8  22086550.368          49.000        2427.256
 -13936686.759 7  22621155.396          45.000       -2718.170
  -4307094.441 7  24838840.678          43.000       -1897.963
  -4780324.456 6  25020807.709          36.000       -3126.733
 16  6 24  2 45  0.0010000  0 11G07G29S20G13G30G02G06G05G09G16G23
 -21264378.814 8  20905774.980          49.000        -358.677
   2105518.017 6  25639118.465          36.000       -1858.236
  25076030.654 6  38888537.610          41.000         -89.519
  -4936876.186 6  24234873.250          39.000        3142.752
 -20959448.269 8  21030185.941          52.000        1606.639
 -19446497.555 7  22316010.453          44.000       -1684.872
  -8131504.683 7  24228254.610          42.000       -3693.892
 -18482706.965 8  22072725.223          50.000        2416.275
 -13855054.489 7  22636687.765          45.000       -2724.057
  -4249905.315 7  24849722.913          43.000       -1915.056
  -4686479.383 5  25038665.163          35.000       -3130.116
 16  6 24  2 45 30.0010000  0 11G07G29S20G13G30G02G06G05G09G16G23
 -21253343.625 8  20907874.974          49.000        -376.487
   2161466.031 5  25649764.057          35.000       -1872.334
  25078709.536 6  38889048.831          41.000         -89.041
  -5031086.830 6  24216949.085          41.000        3138.336
 -21007381.070 8  21021064.416          52.000        1589.174
 -19395685.503 7  22325680.753          45.000       -1701.901
  -8020626.073 7  24249354.663          42.000       -3697.626
 -18555020.270 8  22058963.912          50.000        2404.877
 -13773233.934 7  22652259.257          45.000       -2730.304
  -4192170.797 7  24860710.372          44.000       -1933.451
  -4592563.897 5  25056537.152          35.000       -3130.924
 16  6 24  2 46  0.0010000  0 11G07G29S20G13G30G02G06G05G09G16G23
 -21241770.469 8  20910077.436          49.000        -394.917
   2217818.892 5  25660486.553          33.000       -1885.780
  25081393.222 6  38889558.273          41.000         -89.542
  -5125173.239 7  24199044.638          42.000        3133.857
 -21054788.373 8  21012043.753          52.000        1571.355
 -19344378.574 7  22335445.179          46.000       -1718.561
  -7909646.725 7  24270472.864          42.000       -3701.344
 -18626990.707 8  22045268.370          50.000        2393.223
 -13691228.826 7  22667864.027          45.000       -2736.591
  -4133895.711 7  24871799.829          44.000       -1951.995
  -4498581.148 5  25074422.020          35.000       -3134.130
 16  6 24  2 46 30.0010000  0 11G07G29S20G13G30G02G06G05G09G16G23
 -21229668.692 8  20912379.905          48.000        -412.686
   2274566.03015  25671284.067          31.000       -1900.773
  25084073.978 6  38890070.507          41.000         -89.337
  -5219142.999 7  24181160.521          42.000        3129.886
 -21101677.683 8  21003120.566          52.000        1554.118
 -19292587.290 7  22345300.347          46.000       -1735.013
  -7798578.117 6  24291608.288          41.000       -3704.210
 -18698624.985 8  22031637.325          50.000        2381.732
 -13609048.696 7  22683503.505          45.000       -2742.343
  -4075090.876 7  24882990.095          44.000       -1969.325
  -4404540.642 5  25092314.635          33.000       -3133.580
 16  6 24  2 47  0.0010000  0 11G07G29S20G13G30G02G06G05G09G16G23
 -21217039.112 8  20914783.236          48.000        -429.722
   2331704.86214  25682156.635          25.000       -1909.156
  25086753.619 6  38890577.505          41.000         -89.007
  -5312995.233 7  24163302.526          43.000        3126.730
 -21148047.808 8  20994296.253          51.000        1537.223
 -19240313.532 7  22355247.878          46.000       -1749.878
  -7687423.253 7  24312762.105          42.000       -3706.281
 -18769920.756 8  22018069.100          50.000        2370.769
 -13526694.460 7  22699176.052          46.000       -2748.007
  -4015757.842 7  24894280.421          44.000       -1986.370
  -4310442.60515  25110220.496          33.000       -3136.470
 16  6 24  2 47 30.0010000  0 11G07G29S20G13G30G02G06G05G09G16G23
 -21203879.291 8  20917287.639          49.000        -447.002
   2389235.82615  25693104.919          32.000       -1925.074
  25089435.603 6  38891087.471          40.000         -89.594
  -5406726.555 7  24145466.606          43.000        3122.764
 -21193894.833 8  20985571.859          51.000        1519.832
 -19187556.570 7  22365287.791          46.000       -1765.971
  -7576182.048 7  24333929.987          42.000       -3708.589
 -18840872.877 8  22004565.162          49.000        2359.742
 -13444164.181 7  22714879.590          46.000       -2753.189
  -3955895.361 7  24905671.801          44.000       -2003.417
  -4216285.60915  25128140.264          33.000       -3139.662
 16  6 24  2 48  0.0010000  0 11G07G29S20G13G30G02G06G05G09G16G23
 -21190187.590 8  20919892.870          48.000        -465.044
   2447158.764 5  25704128.396          31.000       -1937.832
  25092121.556 6  38891598.657          41.000         -89.347
  -5500333.251 7  24127653.843          42.000        3118.366
 -21239214.840 8  20976948.101          51.000        1501.921
 -19134315.646 7  22375417.835          45.000       -1782.811
  -7464854.446 7  24355115.703          42.000       -3712.233
 -18911476.507 8  21991130.815          48.000        2347.558
 -13361455.954 7  22730618.919          46.000       -2759.913
  -3895503.371 7  24917164.095          44.000       -2022.049
  -4122067.56715  25146071.288          32.000       -3141.863
 16  6 24  2 48 30.0010000  0 11G07G29S20G13G30G02G06G05G09G16G23
 -21175972.351 8  20922597.880          48.000        -482.527
   2505463.87315  25715221.621          31.000       -1949.311
  25094801.904 6  38892109.303          41.000         -89.167
  -5593822.206 6  24109861.932          39.000        3114.454
 -21284014.374 8  20968422.553          51.000        1484.711
 -19080600.084 7  22385639.143          45.000       -1798.343
  -7353450.906 7  24376316.549          43.000       -3714.532
 -18981736.864 8  21977760.964          49.000        2336.511
 -13278578.284 7  22746387.895          45.000       -2765.320
  -3834591.141 7  24928755.088          44.000       -2038.652
  -4027795.668 5  25164012.781          34.000       -3143.027
 16  6 24  2 49  0.0010000  0 11G07G29S20G13G30G02G06G05G09G16G23
 -21161233.040 8  20925402.636          48.000        -499.882
   2564150.33015  25726391.802          35.000       -1962.230
  25097481.620 6  38892617.436          41.000         -89.587
  -5687190.742 6  24092093.911          38.000        3109.801
 -21328291.100 8  20959996.960          51.000        1467.221
 -19026410.857 7  22395948.696          43.000       -1813.517
  -7241972.953 7  24397529.976          43.000       -3717.178
 -19051650.606 8  21964457.023          49.000        2324.967
 -13195530.939 7  22762191.842          45.000       -2771.085
  -3773159.446 7  24940444.361          44.000       -2055.735
  -3933469.927 5  25181960.767          33.000       -3145.476
 16  6 24  2 49 30.0010000  0 11G07G29S20G13G30G02G06G05G09G16G23
 -21145977.333 8  20928305.899          49.000        -516.803
   2623208.541 5  25737630.685          33.000       -1974.575
  25100153.598 6  38893126.319          41.000         -88.184
  -5780444.969 6  24074347.511          40.000        3106.892
 -21372050.744 8  20951669.699          51.000        1450.298
 -18971756.388 7  22406350.911          45.000       -1828.893
  -7130430.277 7  24418753.908          42.000       -3718.675
 -19121222.660 8  21951216.914          49.000        2313.729
 -13112321.496 7  22778027.095          46.000       -2776.466
  -3711217.363 7  24952231.669          44.000       -2072.892
  -3839097.610 5  25199917.006          32.000       -3146.690
 16  6 24  2 50  0.0010000  0 11G07G29S20G13G30G02G06G05G09G16G23
 -21130204.626 8  20931307.423          49.000        -534.180
   2682637.35715  25748939.037          33.000       -1984.313
  25102821.513 6  38893635.028          41.000         -88.992
  -5873583.044 6  24056622.278          40.000        3103.254
 -21415290.897 8  20943441.921          51.000        1432.972
 -18916637.664 7  22416840.621          46.000       -1844.708
  -7018824.196 7  24439993.737          43.000       -3721.158
 -19190449.208 8  21938044.251          49.000        2301.972
 -13028949.495 7  22793891.419          45.000       -2781.409
  -3648765.118 7  24964116.646          44.000       -2089.662
  -3744677.671 5  25217885.844          32.000       -3146.888
 16  6 24  2 50 30.0010000  0 11G07G29S20G13G30G02G06G05G09G16G23
 -21113911.821 8  20934407.315          48.000        -551.928
   2742438.49215  25760320.156          31.000       -1999.349
  25105489.833 6  38894143.231          41.000         -88.604
  -5966599.940 6  24038923.098          41.000        3098.204
 -21458006.538 8  20935313.103          51.000        1415.053
 -18861052.145 7  22427419.257          47.000       -1860.596
  -6907153.475 7  24461243.949          43.000       -3723.396
 -19259324.256 8  21924937.009          49.000        2290.190
 -12945411.776 7  22809789.457          46.000       -2787.561
  -3585801.073 7  24976097.599          44.000       -2107.575
  -3650207.271 5  25235865.501          32.000       -3149.801
 16  6 24  2 51  0.0010000  0 11G07G29S20G13G30G02G06G05G09G16G23
 -21097102.942 8  20937606.551          49.000        -568.431
   2802606.661 6  25771770.657          39.000       -2011.378
  25108153.716 6  38894649.618          41.000         -88.922
  -6059497.899 6  24021246.411          41.000        3094.090
 -21500199.767 8  20927284.119          51.000        1398.024
 -18805005.759 7  22438082.561          46.000       -1875.383
  -6795424.093 6  24482503.811          41.000       -3725.060
 -19327848.494 8  21911897.647          49.000        2278.619
 -12861712.373 7  22825716.062          45.000       -2792.697
  -3522330.361 7  24988176.064          44.000       -2123.239
  -3555689.72715  25253850.743          32.000       -3150.763
 16  6 24  2 51 30.0010000  0 11G07G29S20G13G30G02G06G05G09G16G23
 -21079787.412 8  20940901.204          48.000        -586.021
   2863129.973 6  25783286.039          37.000       -2023.372
  25110803.060 6  38895153.110          41.000         -88.951
  -6152284.783 6  24003587.454          40.000        3090.650
 -21541878.478 8  20919352.977          50.000        1380.320
 -18748509.103 7  22448834.059          46.000       -1891.179
  -6683647.649 7  24503775.469          42.000       -3727.067
 -19396028.685 8  21898923.672          49.000        2266.142
 -12777861.027 7  22841670.010          45.000       -2798.381
  -3458363.901 7  25000348.515          44.000       -2141.151
  -3461133.89215  25271842.284          31.000       -3153.009
 16  6 24  2 52  0.0010000  0 11G07G29S20G13G30G02G06G05G09G16G23
 -21061964.234 8  20944292.933          48.000        -602.632
   2924008.318 6  25794869.546          36.000       -2034.109
  25113442.761 6  38895656.845          41.000         -87.161
  -6244957.632 6  23985953.311          39.000        3086.092
 -21583039.536 8  20911519.958          50.000        1363.535
 -18691562.177 7  22459670.801          46.000       -1905.666
  -6571824.753 7  24525055.277          42.000       -3727.710
 -19463860.417 8  21886016.514          50.000        2255.227
 -12693856.466 7  22857655.352          44.000       -2802.756
  -3393901.622 7  25012616.106          44.000       -2156.855
  -3366539.32415  25289844.138          32.000       -3154.518
 16  6 24  2 52 30.0010000  0 11G07G29S20G13G30G02G06G05G09G16G23
 -21043640.133 8  20947779.626          48.000        -619.234
   2985233.27416  25806521.056          38.000       -2046.666
  25116067.130 6  38896155.851          40.000         -87.958
  -6337521.473 6  23968338.991          39.000        3083.571
 -21623687.903 8  20903785.115          50.000        1346.461
 -18634172.732 7  22470592.526          46.000       -1920.111
  -6459964.136 6  24546340.669          41.000       -3730.170
 -19531347.533 8  21873174.306          50.000        2243.735
 -12609705.439 7  22873671.773          45.000       -2807.514
  -3328951.719 7  25024975.467          44.000       -2173.005
  -3271912.59815  25307850.127          31.000       -3154.721
 16  6 24  2 53  0.0010000  0 11G07G29S20G13G30G02G06G05G09G16G23
 -21024812.725 8  20951362.714          48.000        -636.034
   3046805.820 5  25818239.226          33.000       -2058.291
  25118678.025 6  38896652.886          40.000         -86.900
  -6429972.127 6  23950744.722          39.000        3079.727
 -21663819.203 8  20896147.974          50.000        1329.267
 -18576339.487 7  22481598.012          46.000       -1935.125
  -6348065.072 6  24567632.779          39.000       -3731.768
 -19598484.621 8  21860399.228          50.000        2232.190
 -12525405.303 7  22889713.514          45.000       -2812.453
  -3263512.362 7  25037427.331          44.000       -2189.095
  -3177249.98915  25325866.256          34.000       -3155.263
 16  6 24  2 53 30.0010000  0 11G07G29S20G13G30G02G06G05G09G16G23
 -21005471.101 8  20955043.751          48.000        -653.230
   3108735.691 6  25830024.039          37.000       -2070.071
  25121286.144 6  38897148.647          40.000         -86.298
  -6522296.865 6  23933175.546          39.000        3075.134
 -21703420.453 8  20888611.801          50.000        1311.374
 -18518052.588 7  22492688.760          46.000       -1950.277
  -6236118.277 6  24588934.190          39.000       -3731.464
 -19665257.259 8  21847691.997          50.000        2219.891
 -12440944.960 7  22905786.770          46.000       -2817.849
  -3197574.364 7  25049974.317          44.000       -2206.010
  -3082539.79315  25343885.961          32.000       -3158.074
 16  6 24  2 54  0.0010000  0 11G07G29S20G13G30G02G06G05G09G16G23
 -20985624.912 8  20958819.873          48.000        -669.540
   3171011.119 5  25841875.162          30.000       -2079.447
  25123880.191 6  38897642.540          41.000         -86.309
  -6614503.631 6  23915630.766          40.000        3072.498
 -21742499.992 8  20881175.461          50.000        1293.943
 -18459323.522 7  22503865.711          46.000       -1964.761
  -6124135.826 6  24610245.757          40.000       -3733.266
 -19731672.307 8  21835053.345          50.000        2208.190
 -12356334.466 7  22921886.341          45.000       -2822.833
  -3131148.744 7  25062615.342          45.000       -2222.313
  -2987793.410 5  25361917.184          34.000       -3159.328
 16  6 24  2 54 30.0010000  0 11G07G29S20G13G30G02G06G05G09G16G23
 -20965268.302 8  20962693.507          48.000        -686.822
   3233636.00814  25853789.752          25.000       -2093.216
  25126468.324 6  38898135.212          41.000         -85.818
  -6706584.939 7  23898108.950          42.000        3067.500
 -21781049.927 8  20873840.471          50.000        1276.354
 -18400147.151 7  22515126.808          47.000       -1980.097
  -6012113.311 6  24631564.286          40.000       -3733.869
 -19797720.816 8  21822484.861          50.000        2195.766
 -12271567.621 7  22938017.200          46.000       -2828.176
  -3064230.637 7  25075350.598          46.000       -2238.667
  -2893002.698 5  25379958.109          35.000       -3160.147
