     2.11           OBSERVATION DATA    M (MIXED)           RINEX VERSION / TYPE
teqc  2015Nov6      anonyme             20160627 09:03:21UTCPGM / RUN BY / DATE
Linux 2.4.21-27.ELsmp|Opteron|gcc|Linux x86_64|=+           COMMENT
-Unknown-                                                   MARKER NAME
-Unknown-           -Unknown-                               OBSERVER / AGENCY
-Unknown-           U-BLOX              -Unknown-           REC # / TYPE / VERS
-Unknown-           UBLOX           NONE                    ANT # / TYPE
        0.0000        0.0000        0.0000                  APPROX POSITION XYZ
        0.0000        0.0000        0.0000                  ANTENNA: DELTA H/E/N
     1     0                                                WAVELENGTH FACT L1/2
     4    L1    C1    S1    D1                              # / TYPES OF OBSERV
 SNR is mapped to RINEX snr flag value [0-9]                COMMENT
  L1 & L2: min(max(int(snr_dBHz/6), 0), 9)                  COMMENT
  2016     6     8     0     1    0.0010000     GPS         TIME OF FIRST OBS
    17                                                      LEAP SECONDS
                                                            END OF HEADER
 16  6  8  0  1  0.0010000  0 12G12G03G31G19S20G11G06G22G17G01G09G23
  20542074.34113  25465122.869          23.000       -1425.626
  -7133454.083 7  20758988.663          42.000       -1806.960
  -1259105.069 7  23778240.108          43.000       -1581.722
  -8517203.137 7  22293809.974          47.000        -747.539
 540081288.986 6  38607454.155          41.000        -694.658
  23503662.552 6  24912689.434          41.000       -4610.393
  -7735134.577 7  22694568.586          45.000        2320.976
   3433633.985 7  22078931.867          45.000       -2893.972
 -10651326.267 7  22243905.065          46.000       -2104.348
   1868148.343 7  22823326.169          42.000       -3800.791
  -8223753.721 6  22275230.788          40.000        2446.730
 -13267561.954 7  21138643.366          46.000         826.041
 16  6  8  0  2  0.0010000  0 12G12G03G31G19S20G11G06G22G17G01G09G23
  20629133.93512  25481700.498          14.000       -1469.325
  -7024356.088 7  20779748.105          42.000       -1829.720
  -1162993.255 7  23796527.291          43.000       -1621.308
  -8471049.891 7  22302591.011          46.000        -791.234
 540123006.508 6  38615392.085          41.000        -695.096
  23780403.755 7  24965351.155          42.000       -4614.076
  -7873850.464 7  22668171.973          45.000        2303.195
   3607726.707 7  22112060.529          46.000       -2908.786
 -10523957.774 7  22268142.658          46.000       -2141.115
   2096723.632 6  22866816.597          38.000       -3819.294
  -8369875.352 6  22247427.505          41.000        2424.468
 -13316194.457 7  21129387.552          45.000         794.918
 16  6  8  0  3  0.0010000  0 12G12G03G31G19S20G11G06G22G17G01G09G23
  20718472.05213  25498690.030          23.000       -1506.763
  -6913961.561 6  20800752.487          40.000       -1849.698
  -1064580.732 7  23815254.044          42.000       -1658.769
  -8422354.653 7  22311858.254          47.000        -832.275
 540164718.370 6  38623328.740          41.000        -695.211
  24057299.720 6  25018043.588          40.000       -4615.292
  -8011577.431 7  22641961.580          43.000        2287.206
   3782640.302 7  22145347.230          47.000       -2921.617
 -10394476.142 7  22292780.856          45.000       -2175.338
   2326305.757 7  22910510.302          42.000       -3833.891
  -8514705.634 6  22219865.401          41.000        2402.895
 -13362981.337 7  21120484.198          45.000         765.129
 16  6  8  0  4  0.0010000  0 12G12G03G31G19S20G11G06G22G17G01G09G23
  20810036.73414  25516096.255          25.000       -1545.712
  -6802285.424 6  20822004.444          41.000       -1872.249
   -963884.759 7  23834415.483          42.000       -1696.800
  -8371129.628 7  22321605.143          46.000        -875.023
 540206422.825 6  38631264.079          41.000        -695.687
  24334323.624 6  25070760.364          38.000       -4618.221
  -8148307.282 7  22615945.522          43.000        2270.222
   3958358.924 7  22178783.540          46.000       -2935.259
 -10262907.371 7  22317817.774          46.000       -2209.763
   2556872.750 6  22954383.552          41.000       -3850.748
  -8658239.387 6  22192554.030          41.000        2381.576
 -13407926.777 7  21111932.562          46.000         733.952
 16  6  8  0  5  0.0010000  0 11G03G31G19S20G11G06G22G17G01G09G23
  -6689319.064 7  20843504.989          43.000       -1893.855
   -860897.817 7  23854016.047          44.000       -1735.906
  -8317364.321 7  22331836.389          46.000        -917.590
 540248128.073 6  38639201.336          41.000        -695.651
  24611473.120 6  25123501.841          36.000       -4620.313
  -8284007.691 7  22590119.034          42.000        2252.903
   4134890.947 7  22212378.289          46.000       -2949.194
 -10129250.142 7  22343252.234          47.000       -2245.271
   2788426.552 6  22998447.594          39.000       -3867.275
  -8800447.822 6  22165489.370          41.000        2358.341
 -13451010.974 7  21103731.326          45.000         702.502
 16  6  8  0  6  0.0010000  0 12G12G03G31G19S20G11G06G22G17G01G09G23
  20999009.60713  25552187.450          20.000       -1609.078
  -6574993.561 7  20865260.629          42.000       -1916.402
   -755554.336 7  23874063.049          43.000       -1775.158
  -8260988.572 7  22342565.115          47.000        -960.997
 540289914.142 6  38647151.699          41.000        -697.221
  24888805.62815  25176284.169          32.000       -4622.447
  -8418586.480 7  22564512.864          44.000        2233.884
   4312304.361 7  22246136.232          44.000       -2963.584
  -9993445.813 7  22369094.236          46.000       -2281.119
   3021028.913 6  23042703.702          38.000       -3884.941
  -8941242.319 7  22138701.279          43.000        2335.005
 -13492154.740 7  21095903.620          45.000         669.946
 16  6  8  0  7  0.0010000  0 11G03G31G19S20G11G06G22G17G01G09G23
  -6459370.086 6  20887258.766          41.000       -1937.489
   -647918.234 7  23894544.274          43.000       -1812.520
  -8202062.398 7  22353777.770          47.000       -1002.702
 540331719.132 6  38655106.015          41.000        -696.947
  25166248.44515  25229083.005          30.000       -4624.954
  -8552081.303 7  22539108.156          44.000        2216.352
   4490537.599 7  22280055.119          44.000       -2976.812
  -9855565.865 7  22395332.671          46.000       -2315.203
   3254611.649 6  23087157.913          40.000       -3900.831
  -9080664.209 7  22112170.762          44.000        2312.488
 -13531409.668 7  21088434.482          46.000         639.347
 16  6  8  0  8  0.0010000  0 11G03G31G19S20G11G06G22G17G01G09G23
  -6342470.921 7  20909509.477          43.000       -1959.448
   -538015.441 7  23915459.450          45.000       -1851.121
  -8140606.874 7  22365472.138          46.000       -1045.952
 540373531.644 6  38663062.782          41.000        -697.640
  25443767.85716  25281876.789          37.000       -4626.349
  -8684490.751 7  22513913.985          46.000        2196.798
   4669568.006 7  22314121.940          43.000       -2991.442
  -9715642.101 7  22421958.039          45.000       -2349.644
   3489145.585 7  23131791.801          42.000       -3917.214
  -9218716.049 7  22085899.826          44.000        2288.356
 -13568787.464 7  21081320.186          45.000         606.656
 16  6  8  0  9  0.0010000  0 11G03G31G19S20G11G06G22G17G01G09G23
  -6224247.814 6  20932003.724          41.000       -1980.804
   -425801.177 7  23936812.575          43.000       -1888.995
  -8076574.015 7  22377656.970          46.000       -1088.028
 540415417.433 6  38671034.224          41.000        -697.615
  25721401.215 6  25334709.513          40.000       -4628.015
  -8815743.088 7  22488934.548          45.000        2178.234
   4849443.269 7  22348353.509          43.000       -3004.554
  -9573637.282 7  22448982.205          45.000       -2383.526
   3724671.396 7  23176609.876          42.000       -3932.949
  -9355330.092 6  22059897.702          41.000        2265.311
 -13604230.326 7  21074576.313          45.000         575.008
 16  6  8  0 10  0.0010000  0 11G03G31G19S20G11G06G22G17G01G09G23
  -6104786.859 6  20954737.091          41.000       -2000.733
   -311365.777 7  23958587.245          42.000       -1925.383
  -8010049.491 7  22390317.382          47.000       -1129.243
 540457286.723 6  38679002.308          41.000        -697.923
  25999051.256 6  25387544.445          38.000       -4626.821
  -8945900.621 7  22464169.217          46.000        2160.068
   5030076.892 6  22382723.458          39.000       -3017.193
  -9429647.697 7  22476381.289          45.000       -2415.969
   3961095.990 6  23221601.947          41.000       -3948.191
  -9490573.051 7  22034167.661          44.000        2242.642
 -13637814.492 7  21068187.038          46.000         544.151
 16  6  8  0 11  0.0000000  0 11G03G31G19S20G11G06G22G17G01G09G23
  -5984100.650 6  20677910.353          41.000       -2022.000
   -194726.150 7  23680991.982          42.000       -1962.479
  -7941046.910 8  22103656.033          48.000       -1170.758
 540499123.761 6  38387170.660          41.000        -697.195
  26276694.280 5  25140583.973          33.000       -4628.310
  -9074952.218 7  22139818.416          45.000        2140.951
   5211456.032 6  22117449.689          38.000       -3029.376
  -9283697.224 7  22204362.898          46.000       -2449.001
   4198399.500 6  22966964.757          41.000       -3962.144
  -9624438.204 7  21708900.698          44.000        2218.650
 -13669543.489 7  20762354.086          45.000         513.144
 16  6  8  0 12  0.0000000  0 11G03G31G19S20G11G06G22G17G01G09G23
  -5862133.217 7  20701123.444          42.000       -2042.811
    -75830.805 7  23703616.983          44.000       -1999.849
  -7869510.883 7  22117267.648          47.000       -1212.922
 540540994.540 6  38395138.150          41.000        -697.534
  26554374.87114  25193437.140          25.000       -4629.604
  -9202818.120 7  22115485.292          44.000        2120.941
   5393636.115 6  22152108.509          37.000       -3043.118
  -9135741.768 7  22232518.606          46.000       -2482.429
   4436630.368 6  23012296.462          40.000       -3977.807
  -9756850.450 7  21683702.173          43.000        2194.950
 -13699351.977 7  20756681.866          45.000         480.945
 16  6  8  0 13  0.0000000  0 11G03G31G19S20G11G06G22G17G01G09G23
  -5738940.788 6  20724562.132          38.000       -2062.883
     45258.563 7  23726661.243          45.000       -2036.191
  -7795499.254 8  22131353.010          48.000       -1253.634
 540582845.054 6  38403100.274          41.000        -696.437
  26832030.42014  25246284.121          24.000       -4627.028
  -9329530.825 7  22091373.523          44.000        2102.545
   5576560.436 6  22186925.619          39.000       -3054.380
  -8985848.780 7  22261042.051          46.000       -2513.733
   4675724.983 6  23057794.685          38.000       -3990.902
  -9887847.059 7  21658774.005          43.000        2171.712
 -13727287.553 7  20751368.703          47.000         450.328
 16  6  8  0 14  0.0000000  0 11G03G31G19S20G11G06G22G17G01G09G23
  -5614552.332 6  20748236.127          40.000       -2083.375
    168507.984 7  23750112.390          43.000       -2072.532
  -7719042.735 8  22145902.810          48.000       -1295.478
 540624655.888 6  38411057.547          41.000        -696.735
  27109618.63714  25299098.366          29.000       -4625.165
  -9455095.249 7  22067478.364          45.000        2082.319
   5760200.435 6  22221867.883          38.000       -3067.067
  -8834058.681 7  22289924.360          44.000       -2546.209
   4915646.809 6  23103451.443          41.000       -4006.051
 -10017438.023 7  21634114.221          43.000        2147.792
 -13753370.918 7  20746402.545          46.000         418.610
 16  6  8  0 15  0.0000000  0 11G03G31G19S20G11G06G22G17G01G09G23
  -5488888.221 6  20772143.868          39.000       -2103.444
    293990.663 7  23773993.336          44.000       -2109.400
  -7640063.809 8  22160931.679          48.000       -1336.648
 540666523.392 6  38419025.526          41.000        -697.876
  27387200.09314  25351919.625          29.000       -4625.182
  -9579408.046 7  22043824.315          46.000        2062.046
   5944634.598 7  22256967.844          42.000       -3079.254
  -8680304.835 7  22319182.861          45.000       -2577.991
   5156467.732 7  23149278.717          42.000       -4020.265
 -10145525.127 7  21609739.094          43.000        2122.548
 -13777513.331 7  20741809.927          46.000         386.407
 16  6  8  0 16  0.0000000  0 10G03G31G19S20G06G22G17G01G09G23
  -5362021.533 6  20796289.681          40.000       -2124.371
    421627.963 7  23798279.467          42.000       -2145.052
  -7558637.983 7  22176425.308          47.000       -1376.999
 540708371.570 6  38426987.040          41.000        -696.824
  -9702518.198 7  22020394.605          45.000        2042.031
   6129790.355 6  22292202.539          41.000       -3092.159
  -8524671.617 7  22348801.761          46.000       -2609.045
   5398107.302 6  23195259.482          40.000       -4033.966
 -10272162.757 7  21585642.341          45.000        2098.488
 -13799779.905 7  20737572.639          47.000         355.688
 16  6  8  0 17  0.0000000  0 10G03G31G19S20G06G22G17G01G09G23
  -5233973.184 6  20820660.167          41.000       -2144.152
    551392.935 7  23822971.944          43.000       -2180.957
  -7474789.674 8  22192381.439          48.000       -1417.896
 540750175.942 6  38434943.161          41.000        -696.496
  -9824422.776 7  21997199.287          45.000        2021.294
   6315646.228 6  22327566.530          39.000       -3103.552
  -8367193.821 7  22378768.383          46.000       -2640.128
   5640536.799 6  23241390.677          40.000       -4047.442
 -10397353.480 7  21561817.742          44.000        2074.146
 -13820183.762 7  20733689.957          46.000         324.602
 16  6  8  0 18  0.0000000  0 11G03G31G19S20G11G06G22G17G01G09G23
  -5104678.288 5  20845255.071          35.000       -2165.601
    683343.156 7  23848082.196          43.000       -2217.240
  -7388457.179 8  22208811.089          49.000       -1459.263
 540792012.881 6  38442903.383          41.000        -697.922
  28219402.83814  25510298.272          24.000       -4618.407
  -9945032.919 7  21974244.381          42.000        1999.224
   6502266.940 6  22363084.119          41.000       -3115.929
  -8207819.181 7  22409097.010          46.000       -2671.457
   5883813.251 6  23287681.524          38.000       -4062.145
 -10521014.119 7  21538287.624          44.000        2048.590
 -13838652.195 7  20730176.068          47.000         292.146
 16  6  8  0 19  0.0000000  0 11G03G31G19S20G11G06G22G17G01G09G23
  -4974220.014 6  20870086.966          36.000       -2184.073
    817388.967 7  23873592.295          44.000       -2251.118
  -7299727.346 7  22225694.183          47.000       -1498.431
 540833799.061 6  38450855.195          41.000        -695.167
  28496568.97413  25563037.001          21.000       -4627.309
 -10064407.711 7  21951529.956          43.000        1979.606
   6689569.408 6  22398722.402          39.000       -3126.848
  -8046643.367 7  22439767.591          46.000       -2700.673
   6127845.825 5  23334116.789          33.000       -4074.839
 -10643209.663 7  21515033.324          44.000        2024.486
 -13855260.786 7  20727015.222          46.000         261.395
 16  6  8  0 20  0.0000000  0 11G03G31G19S20G11G06G22G17G01G09G23
  -4842613.774 6  20895125.237          39.000       -2203.071
    953507.402 7  23899494.351          44.000       -2285.980
  -7208620.040 8  22243031.158          48.000       -1538.433
 540875531.174 6  38458796.684          41.000        -696.649
  28773532.78313  25615743.647          19.000       -4607.953
 -10182538.698 7  21929050.481          44.000        1958.228
   6877537.519 6  22434490.096          38.000       -3139.140
  -7883695.586 7  22470773.505          45.000       -2730.872
   6372611.26116  23380696.079          37.000       -4085.883
 -10763937.672 7  21492061.282          44.000        1999.098
 -13870017.971 7  20724205.319          45.000         230.265
 16  6  8  0 21  0.0000000  0 10G03G31G19S20G06G22G17G01G09G23
  -4709792.514 6  20920402.497          39.000       -2223.131
   1091758.087 7  23925802.709          44.000       -2321.527
  -7115072.510 8  22260832.300          48.000       -1579.132
 540917291.456 6  38466743.626          41.000        -696.188
 -10299334.548 7  21906824.147          44.000        1935.671
   7066238.896 6  22470405.375          40.000       -3150.962
  -7718922.191 7  22502129.147          45.000       -2761.052
   6618168.526 7  23427430.799          42.000       -4099.282
 -10883113.016 7  21469383.057          45.000        1973.331
 -13882849.592 7  20721764.417          45.000         197.755
 16  6  8  0 22  0.0000000  0 10G03G31G19S20G06G22G17G01G09G23
  -4575812.441 6  20945899.176          39.000       -2242.595
   1232077.053 7  23952504.631          44.000       -2355.306
  -7019146.563 8  22279086.833          48.000       -1618.182
 540959021.386 6  38474684.147          41.000        -694.790
 -10414827.701 7  21884846.226          43.000        1914.026
   7255617.046 6  22506435.014          36.000       -3162.823
  -7552393.964 7  22533820.086          46.000       -2790.290
   6864453.347 6  23474298.279          41.000       -4111.437
 -11000774.532 7  21446992.055          45.000        1948.654
 -13893805.245 7  20719678.601          45.000         167.414
 16  6  8  0 23  0.0000000  0 10G03G31G19S20G06G22G17G01G09G23
  -4440676.857 5  20971604.934          34.000       -2261.935
   1374452.751 7  23979596.574          42.000       -2390.438
  -6920849.623 8  22297793.754          48.000       -1658.451
 541000712.960 6  38482617.025          41.000        -694.574
 -10528997.310 7  21863122.206          43.000        1891.118
   7445668.125 6  22542602.082          36.000       -3173.666
  -7384127.992 7  22565841.035          46.000       -2819.082
   7111454.567 6  23521301.802          40.000       -4122.730
 -11116907.874 7  21424891.764          45.000        1922.267
 -13902881.382 7  20717951.230          45.000         134.787
 16  6  8  0 24  0.0000000  0 11G03G31G19S20G11G06G22G17G01G09G23
  -4304316.994 6  20997564.725          40.000       -2282.646
   1518945.044 7  24007094.077          43.000       -2425.516
  -6820120.465 8  22316960.794          48.000       -1699.041
 541042448.863 6  38490559.553          41.000        -696.075
    239517.28713  25826245.964          20.000       -4600.601
 -10641750.663 7  21841665.880          43.000        1867.437
   7636461.601 6  22578914.179          37.000       -3185.881
  -7214069.811 7  22598198.746          45.000       -2848.836
   7359232.587 7  23568450.676          42.000       -4136.085
 -11231427.070 7  21403098.431          44.000        1895.486
 -13910003.027 7  20716596.832          46.000         102.641
 16  6  8  0 25  0.0000000  0 11G03G31G19S20G11G06G22G17G01G09G23
  -4166809.950 5  21023719.687          35.000       -2301.774
   1665468.414 7  24034975.599          43.000       -2458.788
  -6717041.199 8  22336577.134          48.000       -1737.227
 541084150.427 6  38498495.231          41.000        -694.387
    515621.30113  25878780.455          20.000       -4606.666
 -10753140.639 7  21820468.970          44.000        1845.613
   7827920.58215  22615336.117          30.000       -3195.284
  -7042310.810 7  22630884.618          46.000       -2876.566
   7607702.493 7  23615732.931          42.000       -4146.963
 -11344391.847 7  21381600.932          44.000        1870.216
 -13915240.620 7  20715599.098          45.000          72.415
 16  6  8  0 26  0.0000000  0 11G03G31G19S20G11G06G22G17G01G09G23
  -4028180.141 6  21050106.824          38.000       -2321.079
   1813989.513 7  24063239.010          42.000       -2491.950
  -6611643.092 8  22356633.157          48.000       -1776.222
 541125805.405 6  38506421.452          41.000        -693.904
    791464.84813  25931273.389          23.000       -4599.643
 -10863167.870 7  21799530.044          43.000        1821.487
   8020019.60614  22651885.877          29.000       -3207.499
  -6868890.091 7  22663885.414          46.000       -2904.915
   7856831.505 6  23663141.281          40.000       -4157.657
 -11455809.889 7  21360401.893          46.000        1843.341
 -13918613.900 7  20714956.529          45.000          40.466
 16  6  8  0 27  0.0000000  0 11G03G31G19S20G11G06G22G17G01G09G23
  -3888353.507 5  21076713.197          35.000       -2340.804
      2823.79017  24091895.112          43.000       -2526.646
  -6503858.921 8  22377144.658          49.000       -1816.144
 541167502.269 6  38514356.354          41.000        -695.684
   1067079.37914  25983722.104          26.000       -4591.630
 -10971734.280 7  21778870.495          44.000        1797.205
   8212833.15215  22688592.611          35.000       -3219.821
  -6693749.446 7  22697213.830          46.000       -2932.930
   8106685.264 6  23710684.949          39.000       -4170.497
 -11565590.313 7  21339509.934          45.000        1816.436
 -13920042.437 7  20714686.120          45.000           7.567
 16  6  8  0 28  0.0000000  0 10G03G31G19S20G06G22G17G01G09G23
  -3747398.245 5  21103531.084          34.000       -2358.337
    152174.33817  24120927.833          44.000       -2558.857
  -6393764.586 8  22398093.671          48.000       -1853.647
 541209172.606 6  38522285.802          41.000        -694.033
 -11078883.954 7  21758482.542          44.000        1774.533
   8406293.96715  22725413.905          30.000       -3230.414
  -6516971.387 7  22730853.818          46.000       -2959.824
   8357187.536 6  23758354.381          41.000       -4179.999
 -11673784.458 7  21318922.787          46.000        1790.344
 -13919588.975 7  20714772.324          45.000         -23.408
 16  6  8  0 29  0.0000000  0 10G03G31G19S20G06G22G17G01G09G23
  -3605333.605 6  21130573.992          39.000       -2376.844
    306697.950 7  24150333.535          43.000       -2591.848
  -6281386.954 8  22419479.331          48.000       -1892.534
 541250808.058 6  38530209.589          40.000        -694.181
 -11184612.453 7  21738362.249          43.000        1749.606
   8600381.51115  22762337.335          35.000       -3241.320
  -6338590.951 7  22764798.026          46.000       -2986.930
   8608310.445 7  23806145.144          44.000       -4191.064
 -11780395.417 7  21298635.006          46.000        1763.115
 -13917267.903 7  20715213.998          45.000         -54.938
 16  6  8  0 30  0.0000000  0  9G03G31G19S20G06G22G17G01G23
  -3462104.612 6  21157823.345          37.000       -2396.065
    463222.894 7  24180115.621          42.000       -2624.978
  -6166678.302 8  22441306.090          48.000       -1931.130
 541292462.271 6  38538136.681          40.000        -694.399
 -11288840.606 7  21718527.861          43.000        1725.055
   8795151.570 6  22799400.978          38.000       -3250.867
  -6158568.345 7  22799055.185          46.000       -3013.882
   8860100.959 7  23854060.179          45.000       -4201.660
 -13913018.936 7  20716021.332          44.000         -86.675
 16  6  8  0 31  0.0000000  0 11G03G31G19S20G11G06G22G17G01G09G23
  -3317740.870 6  21185295.589          40.000       -2415.900
    621707.983 7  24210275.679          43.000       -2657.434
  -6049677.348 7  22463568.371          46.000       -1969.237
 541334101.095 6  38546059.360          40.000        -693.971
   2166811.17012  26192961.103          16.000       -4571.760
 -11391574.305 7  21698976.488          42.000        1699.763
   8990574.756 7  22836591.868          42.000       -3262.296
  -5976949.535 7  22833618.770          47.000       -3040.164
   9112520.740 7  23902092.688          43.000       -4212.691
   -102996.79217  21259001.391          46.000        1707.687
 -13906867.326 7  20717194.161          46.000        -118.650
 16  6  8  0 32  0.0000000  0 11G03G31G19S20G11G06G22G17G01G09G23
  -3172208.558 6  21212991.737          40.000       -2434.664
    782177.039 7  24240811.413          43.000       -2690.288
  -5930358.789 7  22486276.950          47.000       -2007.171
 541375771.454 6  38553989.864          41.000        -694.430
   2440974.90612  26245131.592          16.000       -4568.722
 -11492755.935 7  21679726.298          45.000        1673.982
   9186684.743 7  22873912.736          43.000       -3273.926
  -5793716.069 7  22868483.328          45.000       -3066.631
   9365595.129 7  23950251.310          43.000       -4222.934
   -204621.190 7  21239662.624          46.000        1679.965
 -13898774.613 7  20718731.787          43.000        -150.477
 16  6  8  0 33  0.0000000  0 10G03G31G19S20G06G22G17G01G09G23
  -3025568.146 6  21240897.925          41.000       -2452.776
    944558.590 7  24271710.889          43.000       -2721.598
  -5808792.637 8  22509412.466          48.000       -2044.444
 541417413.322 6  38561912.874          41.000        -693.411
 -11592422.182 7  21660760.014          45.000        1648.951
   9383421.297 6  22911342.049          40.000       -3284.081
  -5608945.042 7  22903644.156          45.000       -3091.658
   9619255.071 7  23998521.510          43.000       -4232.002
   -304599.616 7  21220635.622          45.000        1653.145
 -13888797.210 7  20720632.352          46.000        -182.085
 16  6  8  0 34  0.0000000  0 10G03G31G19S20G06G22G17G01G09G23
  -2877843.207 7  21269010.793          42.000       -2471.328
   1108818.311 7  24302967.466          42.000       -2753.477
  -5685011.042 8  22532967.904          48.000       -2081.494
 541459013.367 6  38569829.566          40.000        -693.341
 -11690572.868 7  21642080.542          44.000        1623.185
   9580760.939 7  22948900.737          42.000       -3294.082
  -5422675.597 7  22939090.896          45.000       -3117.191
   9873468.470 7  24046897.745          44.000       -4242.004
   -402940.108 7  21201923.055          46.000        1625.214
 -13876954.540 7  20722887.531          46.000        -213.207
 16  6  8  0 35  0.0000000  0 10G03G31G19S20G06G22G17G01G09G23
  -2728958.799 7  21297339.563          42.000       -2490.833
   1275019.818 7  24334597.347          43.000       -2785.507
  -5558949.263 7  22556954.031          47.000       -2119.586
 541500662.107 6  38577754.661          41.000        -694.730
 -11787109.240 7  21623705.934          42.000        1595.782
   9778778.968 7  22986582.650          42.000       -3305.744
  -5234849.721 7  22974833.959          46.000       -3143.230
  10128301.838 7  24095391.594          44.000       -4252.360
   -499552.176 7  21183539.452          47.000        1595.866
 -13863167.623 7  20725508.431          45.000        -245.420
 16  6  8  0 36  0.0000000  0 10G03G31G19S20G06G22G17G01G09G23
  -2578977.030 7  21325882.562          43.000       -2509.066
   1443089.325 7  24366580.281          42.000       -2816.785
  -5430679.959 7  22581363.509          47.000       -2156.061
 541542296.090 6  38585677.505          41.000        -693.841
 -11882069.880 7  21605638.947          44.000        1569.450
   9977413.421 6  23024375.817          41.000       -3315.476
  -5045546.355 7  23010855.257          45.000       -3167.705
  10383684.235 7  24143989.317          43.000       -4260.617
   -594482.947 7  21165475.082          47.000        1568.366
 -13847495.187 7  20728493.291          47.000        -276.885
 16  6  8  0 37  0.0000000  0 10G03G31G19S20G06G22G17G01G09G23
  -2427921.132 7  21354627.607          43.000       -2526.878
   1612991.999 7  24398912.803          42.000       -2847.170
  -5300236.296 7  22606184.481          46.000       -2192.895
 541583900.205 6  38593595.245          41.000        -693.346
 -11975454.526 7  21587868.099          44.000        1542.938
  10176641.313 7  23062294.616          45.000       -3325.626
  -4854805.105 7  23047153.900          46.000       -3191.232
  10639583.712 7  24192684.952          42.000       -4269.934
   -687740.731 7  21147727.757          47.000        1540.057
 -13829956.649 7  20731824.878          43.000        -308.360
 16  6  8  0 38  0.0000000  0 10G03G31G19S20G06G22G17G01G09G23
  -2275726.907 7  21383587.151          42.000       -2545.979
   1784779.732 7  24431602.819          42.000       -2878.767
  -5167565.020 7  22631432.686          47.000       -2229.379
 541625539.630 6  38601518.097          41.000        -694.112
 -12067175.487 7  21570416.250          45.000        1515.127
  10376526.632 7  23100331.179          45.000       -3336.624
  -4662579.339 7  23083734.512          46.000       -3215.511
  10896055.681 7  24241488.613          42.000       -4278.456
   -779246.565 7  21130313.844          46.000        1510.703
 -13810485.290 7  20735533.232          45.000        -340.423
 16  6  8  0 39  0.0000000  0 10G03G31G19S20G06G22G17G01G09G23
  -2122448.225 7  21412755.434          42.000       -2564.078
   1958387.142 7  24464639.711          42.000       -2908.977
  -5032731.309 7  22657089.942          46.000       -2265.099
 541667158.807 6  38609438.132          41.000        -693.435
 -12157263.274 7  21553272.196          44.000        1487.572
  10577016.351 7  23138478.934          44.000       -3346.823
  -4468939.350 7  23120581.371          46.000       -3239.143
  11153037.473 7  24290391.426          43.000       -4287.571
   -869039.799 7  21113227.560          46.000        1482.419
 -13789132.117 8  20739601.044          48.000        -371.918
 16  6  8  0 40  0.0000000  0 10G03G31G19S20G06G22G17G01G09G23
  -1968062.943 7  21442135.877          43.000       -2581.868
   2133823.882 6  24498023.339          40.000       -2938.259
  -4895724.221 7  22683162.051          46.000       -2300.783
 541708792.078 6  38617360.661          41.000        -693.930
 -12245672.249 7  21536448.572          45.000        1460.100
  10778132.245 7  23176750.237          44.000       -3356.879
  -4273880.119 7  23157698.613          45.000       -3261.733
  11410542.491 7  24339392.239          44.000       -4295.292
   -957083.799 7  21096474.417          47.000        1453.410
 -13765871.929 6  20744012.511          38.000        -403.846
 16  6  8  0 41  0.0000000  0 10G03G31G19S20G06G22G17G01G09G23
  -1812619.667 7  21471716.090          44.000       -2598.844
   2311028.794 6  24531745.815          38.000       -2967.570
  -4756603.870 7  22709635.671          46.000       -2335.902
 541750404.682 6  38625279.605          41.000        -693.140
 -12332427.861 7  21519939.915          45.000        1432.180
  10979826.137 7  23215131.109          42.000       -3365.942
  -4077467.921 7  23195077.293          45.000       -3284.746
  11668513.348 7  24388483.689          44.000       -4303.867
  -1043413.082 7  21080043.545          45.000        1424.635
 -13740750.235 8  20748808.529          48.000        -433.822
 16  6  8  0 42  0.0010000  0 10G03G31G19S20G06G22G17G01G09G23
  -1656036.935 7  21501512.058          44.000       -2619.858
   2490070.862 5  24565813.256          35.000       -2999.275
  -4615301.421 7  22736522.609          44.000       -2373.296
 541792075.974 6  38633209.979          41.000        -694.762
 -12417429.538 7  21503763.695          46.000        1401.583
  11182181.120 7  23253638.950          42.000       -3378.609
  -3879638.179 7  23232723.005          46.000       -3308.761
  11927024.253 7  24437676.760          44.000       -4313.554
  -1127936.282 7  21063962.637          47.000        1393.085
 -13713686.451 7  20753950.820          43.000        -467.362
 16  6  8  0 43  0.0010000  0 10G03G31G19S20G06G22G17G01G09G23
  -1498351.735 7  21531517.960          45.000       -2636.602
   2670899.850 5  24600225.748          34.000       -3028.121
  -4471865.561 7  22763818.588          45.000       -2407.586
 541833783.859 6  38641146.957          40.000        -695.672
 -12500683.193 7  21487922.334          46.000        1373.554
  11385157.975 7  23292266.647          43.000       -3387.275
  -3680446.705 7  23270628.107          45.000       -3330.371
  12186025.864 7  24486960.834          43.000       -4320.481
  -1210668.621 7  21048218.274          47.000        1364.741
 -13684710.909 7  20759470.690          47.000        -498.704
 16  6  8  0 44  0.0010000  0 10G03G31G19S20G06G22G17G01G09G23
  -1339646.679 7  21561720.998          45.000       -2654.474
      1804.06016  24634962.980          38.000       -3055.506
  -4326391.728 7  22791500.541          45.000       -2441.587
 541875442.452 6  38649073.413          40.000        -694.472
 -12582252.412 7  21472399.258          46.000        1344.784
  11588675.876 7  23330994.954          44.000       -3396.743
  -3479992.979 7  23308773.916          46.000       -3351.392
  12445428.371 6  24536319.665          40.000       -4326.478
  -1291683.111 7  21032801.033          47.000        1335.716
 -13653906.130 7  20765330.578          46.000        -528.931
 16  6  8  0 45  0.0010000  0 10G03G31G19S20G06G22G17G01G09G23
  -1179899.062 7  21592118.396          45.000       -2671.811
    186024.44316  24670014.587          39.000       -3084.754
  -4178870.243 7  22819573.779          45.000       -2476.221
 541917070.346 6  38656993.090          40.000        -694.411
 -12662091.661 7  21457208.930          47.000        1315.945
  11792757.444 7  23369832.088          46.000       -3406.628
  -3278272.657 7  23347158.593          45.000       -3372.694
  12705245.555 6  24585763.130          40.000       -4333.591
  -1370943.628 7  21017719.621          47.000        1305.945
 -13621247.751 7  20771543.397          44.000        -560.602
 16  6  8  0 46  0.0010000  0 10G03G31G19S20G06G22G17G01G09G23
  -1019036.786 7  21622729.402          45.000       -2689.168
    372004.482 6  24705403.131          39.000       -3113.707
  -4029242.043 7  22848047.361          45.000       -2511.001
 541958752.905 6  38664926.570          40.000        -694.493
 -12740106.107 7  21442362.940          47.000        1285.648
  11997475.200 7  23408786.707          46.000       -3416.833
  -3075231.357 7  23385795.652          45.000       -3393.928
  12965540.624 6  24635298.548          41.000       -4341.442
  -1448365.083 7  21002984.980          46.000        1275.257
 -13586662.510 7  20778127.242          46.000        -592.070
 16  6  8  0 47  0.0010000  0 10G03G31G19S20G06G22G17G01G09G23
   -857092.487 7  21653546.670          46.000       -2709.055
    559697.579 6  24741120.438          39.000       -3142.782
  -3877553.684 7  22876911.548          44.000       -2545.893
 542000471.771 6  38672866.340          40.000        -696.125
 -12816305.819 7  21427861.111          46.000        1254.085
  12202796.704 7  23447857.413          46.000       -3427.171
  -2870919.788 7  23424674.938          44.000       -3416.553
  13226271.923 7  24684915.284          42.000       -4349.247
  -1523967.157 7  20988599.125          46.000        1243.907
 -13550181.807 7  20785068.912          45.000        -624.635
 16  6  8  0 48  0.0010000  0 10G03G31G19S20G06G22G17G01G09G23
   -694021.949 7  21684580.949          47.000       -2726.746
    749134.359 6  24777169.342          40.000       -3170.884
  -3723773.980 7  22906176.618          44.000       -2580.009
 542042271.612 6  38680819.015          40.000        -696.387
 -12890624.063 7  21413717.657          46.000        1223.980
  12408766.604 7  23487051.946          46.000       -3437.915
  -2665310.973 7  23463804.059          46.000       -3436.923
  13487474.536 6  24734618.731          41.000       -4357.060
  -1597692.994 7  20974569.534          47.000        1213.511
 -13511760.135 7  20792377.308          42.000        -656.018
 16  6  8  0 49  0.0010000  0 10G03G31G19S20G06G22G17G01G09G23
   -529883.032 7  21715813.444          47.000       -2743.896
    940243.285 6  24813533.711          39.000       -3198.979
  -3567975.284 7  22935824.451          45.000       -2613.147
 542084104.981 6  38688781.584          40.000        -696.872
 -12963096.366 7  21399928.154          47.000        1193.077
  12615327.214 7  23526356.624          45.000       -3447.134
  -2458482.177 7  23503161.655          46.000       -3456.992
  13749081.444 6  24784400.119          40.000       -4362.302
  -1669587.930 7  20960886.749          46.000        1183.623
 -13471454.418 7  20800050.326          45.000        -686.556
 16  6  8  0 50  0.0010000  0 10G03G31G19S20G06G22G17G01G09G23
   -364699.810 7  21747248.197          47.000       -2762.250
   1132986.163 6  24850212.358          38.000       -3227.156
  -3410195.331 7  22965849.601          46.000       -2646.775
 542125946.399 6  38696743.822          40.000        -697.692
 -13033724.464 7  21386488.154          47.000        1161.011
  12822454.767 7  23565773.394          45.000       -3457.562
  -2250475.349 7  23542744.743          45.000       -3476.971
  14011059.597 6  24834251.395          40.000       -4369.185
  -1739663.687 8  20947553.945          48.000        1152.359
 -13429288.287 7  20808072.330          44.000        -717.893
 16  6  8  0 51  0.0010000  0 10G03G31G19S20G06G22G17G01G09G23
   -198405.963 7  21778892.439          46.000       -2780.378
   1327414.507 6  24887215.179          36.000       -3253.997
  -3250383.143 7  22996259.659          45.000       -2679.891
 542167857.769 6  38704717.559          40.000        -698.072
 -13102420.031 7  21373416.056          47.000        1129.288
  13030215.942 7  23605310.370          46.000       -3467.405
  -2041242.640 7  23582556.856          43.000       -3497.235
  14273466.128 6  24884182.628          39.000       -4377.247
  -1807841.937 8  20934580.615          48.000        1120.847
 -13385194.498 7  20816463.390          44.000        -750.637
 16  6  8  0 52  0.0010000  0 10G03G31G19S20G06G22G17G01G09G23
    -31079.198 7  21810730.117          44.000       -2796.489
   1523436.999 5  24924514.880          34.000       -3279.996
  -3088629.916 7  23027041.390          45.000       -2711.326
 542209774.700 6  38712694.071          40.000        -698.261
 -13169238.709 7  21360699.681          46.000        1098.445
  13238533.535 7  23644948.662          44.000       -3476.315
  -1830879.999 7  23622590.326          44.000       -3514.844
  14536214.317 6  24934180.799          37.000       -4381.440
  -1874188.414 8  20921954.737          48.000        1090.939
 -13339250.507 7  20825207.380          45.000        -780.785
 16  6  8  0 53  0.0000000  0 10G03G31G19S20G06G22G17G01G09G23
    137257.583 7  21542973.644          45.000       -2814.541
   1721015.67714  24662317.872          28.000       -3306.817
  -2924975.306 7  22758391.745          46.000       -2744.039
 542251690.145 6  38420878.251          40.000        -698.649
 -13234181.649 7  21048549.645          47.000        1066.344
  13447384.948 7  23384904.417          46.000       -3486.132
  -1619429.557 7  23363035.159          45.000       -3533.506
  14799272.051 6  24684450.262          39.000       -4386.457
  -1938714.450 7  20609882.808          47.000        1059.503
 -13291479.671 7  20534504.796          44.000        -811.766
 16  6  8  0 54  0.0000000  0 10G03G31G19S20G06G22G17G01G09G23
    306648.493 7  21575208.105          46.000       -2831.395
   1920180.89514  24700212.102          28.000       -3330.620
  -2759389.268 7  22789900.591          45.000       -2775.022
 542293645.790 6  38428861.464          40.000        -699.621
 -13297182.961 7  21036560.159          47.000        1034.310
  13656814.379 7  23424756.527          44.000       -3494.620
  -1406865.401 7  23403483.071          44.000       -3551.535
  15062674.561 6  24734577.705          39.000       -4392.593
  -2001364.409 7  20597961.012          47.000        1029.277
 -13241837.468 7  20543949.325          43.000        -841.891
 16  6  8  0 55  0.0000000  0 10G03G31G19S20G06G22G17G01G09G23
    477045.940 7  21607633.699          45.000       -2848.452
   2120869.53315  24738409.878          34.000       -3357.254
  -2591935.301 7  22821766.940          46.000       -2806.231
 542335605.690 6  38436847.521          40.000        -699.009
 -13358268.833 7  21024936.796          47.000        1002.002
  13866774.514 7  23464705.572          42.000       -3503.367
  -1193254.113 7  23444132.062          45.000       -3569.265
  15326365.094 6  24784758.790          40.000       -4397.104
  -2062174.758 7  20586389.423          47.000         997.925
 -13190372.041 7  20553747.378          45.000        -873.303
 16  6  8  0 56  0.0000000  0 10G03G31G19S20G06G22G17G01G09G23
    648464.793 7  21640252.361          45.000       -2865.709
   2323082.538 6  24776891.988          38.000       -3382.942
  -2422613.613 7  22853987.406          46.000       -2837.188
 542377584.323 6  38444835.759          40.000        -699.791
 -13417403.020 7  21013682.609          47.000         969.305
  14077281.048 7  23504769.754          44.000       -3512.795
   -978599.212 7  23484978.973          44.000       -3585.758
  15590349.188 6  24834993.134          37.000       -4402.192
  -2121119.567 7  20575172.162          47.000         967.321
 -13137068.510 7  20563884.767          42.000        -903.739
 16  6  8  0 57  0.0000000  0 10G03G31G19S20G06G22G17G01G09G23
    820859.867 7  21673058.963          46.000       -2881.348
   2526759.107 6  24815649.567          39.000       -3407.126
  -2251486.034 7  22886551.728          45.000       -2866.889
 542419540.430 6  38452819.304          40.000        -698.807
 -13474609.697 8  21002799.118          48.000         937.382
  14288288.881 7  23544926.875          43.000       -3520.631
   -762965.050 7  23526015.010          45.000       -3601.710
  15854572.193 6  24885275.727          37.000       -4406.128
  -2178233.508 7  20564303.416          47.000         936.738
 -13081973.043 7  20574368.893          42.000        -933.076
 16  6  8  0 58  0.0000000  0 10G03G31G19S20G06G22G17G01G09G23
    994246.116 7  21706053.782          46.000       -2898.698
   2731899.566 6  24854684.012          38.000       -3431.449
  -2078552.542 7  22919459.925          45.000       -2897.715
 542461495.180 6  38460803.407          39.000        -700.114
 -13529852.569 8  20992285.449          48.000         903.589
  14499813.504 5  23585169.869          35.000       -3530.032
   -546354.845 7  23567231.395          44.000       -3618.963
  16119040.429 6  24935606.343          39.000       -4410.335
  -2233490.601 7  20553788.874          47.000         905.147
 -13025070.803 7  20585200.488          44.000        -963.957
 16  6  8  1  1  0.0000000  0 10G03G31G19S20G06G22G17G01G09G23
   1520540.568 7  21806202.885          46.000       -2949.784
   3356140.971 6  24973474.938          38.000       -3504.887
  -1548897.082 7  23020251.877          46.000       -2987.786
 542587572.784 6  38484795.659          39.000        -702.027
 -13683403.298 8  20963066.037          48.000         800.740
  15137678.852 7  23706564.386          43.000       -3557.971
    109328.149 7  23692007.362          46.000       -3666.790
  16914012.335 6  25086889.086          36.000       -4423.369
  -2387830.921 7  20524418.168          47.000         809.144
 -12843348.347 7  20619783.050          45.000       -1056.013
 16  6  8  1  2  0.0000000  0 10G03G31G19S20G06G22G17G01G09G23
   1698033.420 7  21839979.788          47.000       -2966.407
   3567126.737 6  25013623.195          37.000       -3527.584
  -1368765.833 7  23054528.414          46.000       -3016.370
 542629717.990 6  38492816.058          39.000        -702.574
 -13730443.264 8  20954115.907          48.000         766.414
  15351415.634 5  23747228.523          30.000       -3565.083
    329793.294 7  23733959.954          46.000       -3681.478
  17179511.20215  25137410.747          31.000       -4428.468
  -2435418.174 8  20515363.809          48.000         777.554
 -12779089.885 7  20632009.964          44.000       -1085.625
 16  6  8  1  3  0.0000000  0 10G03G31G19S20G06G22G17G01G09G23
   1876514.268 7  21873941.280          45.000       -2982.542
   3779496.502 5  25054034.741          34.000       -3552.193
  -1186916.439 7  23089133.383          46.000       -3044.591
 542671891.911 6  38500841.954          40.000        -702.707
 -13775420.500 8  20945556.157          49.000         732.562
  15565663.84716  23788008.094          37.000       -3575.512
    551135.643 7  23776080.399          46.000       -3696.077
  17445205.94114  25187959.403          25.000       -4429.533
  -2481102.350 8  20506670.232          48.000         745.333
 -12713034.709 7  20644580.682          45.000       -1115.538
 16  6  8  1  4  0.0000000  0 10G03G31G19S20G06G22G17G01G09G23
   2056005.402 7  21908101.494          46.000       -3000.998
   3993257.489 5  25094714.653          34.000       -3574.745
  -1003342.623 7  23124066.537          46.000       -3074.076
 542714118.295 6  38508877.046          39.000        -704.999
 -13818292.834 8  20937398.023          49.000         696.383
  15780453.852 6  23828882.734          41.000       -3584.432
    773359.106 7  23818368.332          45.000       -3711.622
  17711110.37014  25238581.909          27.000       -4434.008
  -2524851.922 8  20498345.030          48.000         712.392
 -12645161.978 7  20657495.780          45.000       -1146.731
 16  6  8  1  5  0.0000000  0 10G03G31G19S20G06G22G17G01G09G23
   2236560.152 7  21942454.743          44.000       -3018.013
   4208447.538 6  25135664.277          36.000       -3598.865
   -818009.223 7  23159332.974          45.000       -3103.352
 542756444.735 6  38516930.758          39.000        -705.584
 -13858987.423 8  20929652.901          48.000         659.836
  15995835.155 6  23869868.340          40.000       -3594.628
    996497.324 7  23860828.307          44.000       -3726.696
  17977267.21913  25289224.012          23.000       -4438.719
  -2566604.452 8  20490397.957          48.000         679.547
 -12575420.649 7  20670764.768          43.000       -1177.741
 16  6  8  1  6  0.0000000  0 10G03G31G19S20G06G22G17G01G09G23
   2418111.031 7  21977008.251          46.000       -3033.925
   4424983.542 6  25176869.493          37.000       -3619.653
   -631001.195 7  23194920.703          45.000       -3130.231
 542798816.941 6  38524994.294          40.000        -705.456
 -13897552.124 8  20922314.840          48.000         625.281
  16211740.736 5  23910955.959          33.000       -3603.677
   1220464.299 7  23903448.579          44.000       -3739.411
  18243597.72413  25339914.887          23.000       -4439.673
  -2606418.563 8  20482823.288          49.000         647.627
 -12503879.584 7  20684380.406          45.000       -1206.763
 16  6  8  1  7  0.0000000  0  9G03G31G19S20G06G22G17G09G23
   2600651.724 7  22011743.416          45.000       -3050.673
   4642843.141 5  25218325.365          34.000       -3642.659
   -442342.377 7  23230820.495          45.000       -3158.166
 542841244.565 6  38533069.260          40.000        -706.753
 -13933974.239 8  20915382.723          48.000         588.939
  16428165.19114  23952163.898          28.000       -3611.534
   1445234.349 7  23946222.657          45.000       -3753.346
  -2644292.132 8  20475614.569          48.000         614.795
 -12430547.571 7  20698335.449          45.000       -1237.321
 16  6  8  1  8  0.0000000  0  8G03G19S20G06G22G17G09G23
   2784260.260 7  22046678.769          43.000       -3068.231
   -251972.222 7  23267046.764          45.000       -3186.504
 542883802.993 6  38541167.837          40.000        -710.050
 -13968156.611 8  20908878.539          48.000         551.384
  16645186.90416  23993443.400          37.000       -3620.144
   1670866.543 7  23989156.126          43.000       -3766.596
  -2680138.513 8  20468793.034          48.000         581.197
 -12355349.055 7  20712646.931          45.000       -1268.035
 16  6  8  1  9  0.0000000  0  9G03G31G19S20G06G22G17G09G23
   2968886.426 7  22081816.615          46.000       -3085.186
    220224.21114  25302031.756          28.000       -3686.852
    -59959.453 7  23303585.408          45.000       -3213.746
 542926454.331 6  38549283.881          40.000        -712.014
 -14000130.721 8  20902795.393          49.000         514.446
  16862755.224 6  24034842.140          41.000       -3630.728
   1897291.482 7  24032245.128          43.000       -3779.950
  -2713999.860 8  20462351.112          49.000         547.611
 -12278336.292 7  20727298.658          44.000       -1298.205
 16  6  8  1 10  0.0000000  0  9G03G31G19S20G06G22G17G09G23
   3154553.656 7  22117143.045          43.000       -3102.129
    442118.43914  25344246.799          25.000       -3708.192
    133701.642 7  23340437.267          45.000       -3240.406
 542969222.408 6  38557423.011          40.000        -712.736
 -14029854.528 8  20897138.346          48.000         477.501
  17080894.530 7  24076353.206          43.000       -3639.576
   2124514.064 7  24075484.622          43.000       -3793.125
  -2745844.623 8  20456290.250          49.000         514.523
 -12199488.654 7  20742304.170          45.000       -1328.659
 16  6  8  1 11  0.0000000  0 10G03G31G19S20G06G22G17G01G09G23
   3341214.802 7  22152670.781          45.000       -3119.267
    665277.54914  25386718.605          29.000       -3730.138
    328945.444 7  23377591.816          46.000       -3266.807
 543012053.544 6  38565571.670          40.000        -714.399
 -14057357.050 8  20891905.200          48.000         439.946
  17299558.103 6  24117968.032          37.000       -3648.404
   2352467.052 7  24118863.053          44.000       -3804.810
  19576275.26913  25593833.721          21.000       -4452.285
  -2775712.359 8  20450607.988          49.000         481.694
 -12118855.982 7  20757649.193          45.000       -1359.004
 16  6  8  1 12  0.0000000  0 10G03G31G19S20G06G22G17G01G09G23
   3528910.247 7  22188382.896          43.000       -3136.542
    889726.88614  25429422.952          29.000       -3750.842
    525794.361 7  23415049.581          46.000       -3293.810
 543055001.956 6  38573745.404          40.000        -716.704
 -14082579.728 8  20887104.122          48.000         402.034
  17518786.58815  24159700.228          32.000       -3657.894
   2581172.289 7  24162384.647          45.000       -3817.461
  19843686.23012  25644723.686          15.000       -4470.526
  -2803555.013 8  20445309.369          48.000         447.465
 -12036400.957 7  20773337.393          44.000       -1388.695
 16  6  8  1 13  0.0000000  0  9G03G31G19S20G06G22G17G09G23
   3717571.052 7  22224287.382          43.000       -3151.882
   1115381.21914  25472359.300          28.000       -3769.858
    724160.570 7  23452798.538          46.000       -3317.806
 543098013.381 6  38581930.847          40.000        -717.163
 -14105573.813 8  20882728.602          49.000         365.022
  17738511.246 6  24201492.539          40.000       -3666.397
   2810542.123 7  24206032.248          44.000       -3827.453
  -2829434.197 8  20440383.888          48.000         415.426
 -11952194.929 7  20789360.933          43.000       -1417.549
 16  6  8  1 14  0.0000000  0  9G03G31G19S20G06G22G17G09G23
   3907172.855 7  22260365.602          42.000       -3168.258
   1342200.23815  25515525.817          31.000       -3790.408
    924001.217 7  23490825.581          45.000       -3343.499
 543141063.920 6  38590124.126          40.000        -717.396
 -14126346.127 8  20878776.075          49.000         327.708
  17958707.887 7  24243396.131          42.000       -3674.473
   3040532.915 7  24249796.906          45.000       -3838.173
  -2853367.289 8  20435829.625          48.000         382.740
 -11866265.846 7  20805713.776          44.000       -1446.574
 16  6  8  1 15  0.0000000  0  9G03G31G19S20G06G22G17G09G23
   4097797.104 7  22296636.979          42.000       -3184.533
   1570249.62215  25558919.099          31.000       -3810.205
   1125379.520 7  23529148.598          45.000       -3368.046
 543184228.954 6  38598337.786          40.000        -718.664
 -14144797.808 8  20875264.062          48.000         288.926
  18179458.591 6  24285407.321          41.000       -3683.904
   3271206.811 7  24293691.585          43.000       -3849.594
  -2875265.721 8  20431661.606          48.000         348.901
 -11778534.675 7  20822410.563          45.000       -1476.478
 16  6  8  1 16  0.0000000  0  9G03G31G19S20G06G22G17G09G23
   4289362.908 7  22333095.510          45.000       -3200.904
   1799432.72415  25602533.353          31.000       -3828.073
   1328195.630 7  23567742.913          44.000       -3392.018
 543227440.902 6  38606560.189          40.000        -720.351
 -14160992.719 8  20872182.389          48.000         251.206
  18400683.003 6  24327508.711          40.000       -3691.037
   3502464.155 7  24337697.090          42.000       -3859.163
  -2895203.732 8  20427867.353          48.000         315.818
 -11689086.352 7  20839428.365          44.000       -1505.358
 16  6  8  1 17  0.0000000  0  9G03G31G19S20G06G22G17G09G23
   4481877.800 7  22369729.240          44.000       -3216.763
   2029741.44715  25646362.017          31.000       -3846.496
   1532438.441 7  23606608.020          44.000       -3416.100
 543270706.634 6  38614794.179          41.000        -721.558
 -14174906.718 8  20869535.348          48.000         212.559
  18622388.727 6  24369703.669          39.000       -3699.524
   3734293.487 7  24381812.619          42.000       -3868.620
  -2913167.451 8  20424450.425          48.000         282.676
 -11597916.508 7  20856780.408          45.000       -1534.014
 16  6  8  1 18  0.0000000  0  9G03G31G19S20G06G22G17G09G23
   4675271.126 7  22406528.190          42.000       -3230.582
   2261089.49114  25690384.868          26.000       -3864.502
   1738018.040 7  23645729.786          44.000       -3437.252
 543313967.850 6  38623026.058          41.000        -722.010
 -14186593.858 8  20867311.282          48.000         176.045
  18844505.743 7  24411967.363          42.000       -3705.589
   3966605.948 7  24426021.961          44.000       -3876.048
  -2929221.044 8  20421394.386          48.000         251.417
 -11505099.011 7  20874442.506          45.000       -1560.858
 16  6  8  1 19  0.0000000  0  8G03G19S20G06G22G17G09G23
   4869514.154 7  22443496.336          44.000       -3245.269
   1944886.566 7  23685093.219          42.000       -3459.830
 543357211.404 6  38631256.680          41.000        -721.937
 -14196066.605 8  20865508.343          48.000         138.617
  19067005.415 7  24454304.855          44.000       -3712.520
   4199353.259 7  24470313.946          44.000       -3883.495
  -2943387.258 8  20418698.485          48.000         219.657
 -11410666.595 7  20892410.088          43.000       -1587.976
 16  6  8  1 20  0.0000000  0  8G03G19S20G06G22G17G09G23
   5064684.507 6  22480631.831          41.000       -3260.496
   2153102.618 7  23724716.504          43.000       -3481.236
 543400512.607 6  38639495.765          41.000        -721.573
 -14203231.546 8  20864144.504          48.000         100.558
  19289965.578 7  24496730.557          45.000       -3719.502
   4432594.325 7  24514697.737          45.000       -3891.013
  -2955582.584 8  20416379.089          49.000         187.053
 -11314545.336 7  20910701.127          43.000       -1615.962
 16  6  8  1 21  0.0000000  0  8G03G19S20G06G22G17G09G23
   5260744.153 7  22517943.188          43.000       -3275.115
   2362609.315 6  23764581.840          41.000       -3502.330
 543443830.132 6  38647738.166          41.000        -722.067
 -14208110.825 8  20863217.287          49.000          62.527
  19513348.695 7  24539240.003          45.000       -3726.565
   4666272.542 7  24559163.789          44.000       -3898.201
  -2965839.304 8  20414426.741          48.000         154.865
 -11216776.791 7  20929308.259          44.000       -1643.242
 16  6  8  1 22  0.0000000  0  8G03G19S20G06G22G17G09G23
   5457746.341 7  22555434.458          43.000       -3291.334
   2573441.229 7  23804706.260          44.000       -3524.293
 543487229.155 6  38655997.040          41.000        -724.198
 -14210636.011 8  20862737.476          49.000          22.731
  19737208.484 7  24581839.597          43.000       -3734.478
   4900422.679 7  24603722.955          43.000       -3905.623
  -2974098.768 8  20412855.227          48.000         121.332
 -11117311.540 7  20948235.097          43.000       -1670.503
 16  6  8  1 23  0.0010000  0  8G03G19S20G06G22G17G09G23
   5655651.828 6  22593083.739          37.000       -3305.983
   2785539.340 7  23845065.926          44.000       -3545.698
 543530666.903 6  38664262.179          41.000        -725.341
 -14210834.478 8  20862698.719          49.000         -16.471
  19961506.438 7  24624520.945          43.000       -3741.963
   5134986.974 7  24648357.802          43.000       -3913.469
  -2980398.289 8  20411655.193          48.000          88.406
 -11016194.514 7  20967477.556          42.000       -1699.295
 16  6  8  1 24  0.0010000  0  8G03G19S20G06G22G17G09G23
   5854499.191 6  22630932.127          41.000       -3321.096
   2998922.472 7  23885672.269          44.000       -3566.647
 543574200.673 6  38672547.141          41.000        -725.900
 -14208646.229 8  20863116.233          49.000         -55.556
  20186280.536 7  24667295.023          42.000       -3749.141
   5369984.645 7  24693075.887          42.000       -3919.926
  -2984687.393 8  20410840.669          48.000          55.295
 -10913388.068 7  20987041.362          43.000       -1727.129
 16  6  8  1 25  0.0010000  0  8G03G19S20G06G22G17G09G23
   6054236.260 6  22668939.259          41.000       -3336.936
   3213519.084 7  23926510.856          45.000       -3586.740
 543617774.298 6  38680838.332          41.000        -727.152
 -14204112.359 8  20863978.395          49.000         -95.195
  20411479.426 7  24710145.830          42.000       -3756.863
   5605345.248 7  24737863.634          42.000       -3926.256
  -2987016.887 7  20410394.013          47.000          22.336
 -10808949.887 7  21006914.403          43.000       -1754.234
 16  6  8  1 26  0.0010000  0  8G03G19S20G06G22G17G09G23
   6254907.063 6  22707120.737          38.000       -3352.335
   3429354.627 7  23967582.422          44.000       -3606.697
 543661444.972 6  38689148.754          41.000        -728.166
 -14197174.458 8  20865297.562          48.000        -135.728
  20637147.474 6  24753086.924          40.000       -3765.272
   5841095.127 7  24782728.650          42.000       -3931.855
  -2987337.801 7  20410333.950          47.000         -11.833
 -10702840.268 6  21027105.526          41.000       -1782.509
 16  6  8  1 27  0.0010000  0  8G03G19S20G06G22G17G09G23
   6456476.446 6  22745485.145          41.000       -3367.531
   3646374.155 7  24008878.205          44.000       -3626.585
 543705191.810 6  38697472.456          41.000        -729.012
 -14187854.049 8  20867073.506          50.000        -175.399
  20863250.025 6  24796116.823          37.000       -3771.383
   6077180.452 6  24827652.979          41.000       -3937.818
  -2985681.090 8  20410651.055          48.000         -44.155
 -10595099.041 7  21047608.258          42.000       -1809.009
 16  6  8  1 28  0.0010000  0  8G03G19S20G06G22G17G09G23
   6658949.116 6  22784008.246          38.000       -3382.122
   3864563.170 7  24050397.194          43.000       -3645.559
 543749019.504 6  38705812.124          40.000        -730.903
 -14176132.623 8  20869302.038          49.000        -215.093
  21089791.898 6  24839226.661          36.000       -3777.772
   6313587.628 7  24872643.322          43.000       -3942.481
  -2982037.622 7  20411343.113          47.000         -76.862
 -10485725.299 7  21068422.512          43.000       -1836.063
 16  6  8  1 29  0.0010000  0  9G03G19S20G06G22G17G02G09G23
   6862273.323 6  22822702.865          40.000       -3396.218
   4083849.135 7  24092125.900          44.000       -3664.427
 543792871.476 6  38714156.906          41.000        -731.361
 -14162048.773 8  20871983.508          50.000        -254.489
  21316721.663 5  24882414.624          34.000       -3784.779
   6550245.836 6  24917673.295          40.000       -3947.216
   -137142.09717  23679881.642          42.000        2281.404
  -2976454.942 7  20412403.790          46.000        -109.085
 -10374775.244 7  21089537.676          43.000       -1862.648
 16  6  8  1 30  0.0010000  0  9G03G19S20G06G22G17G02G09G23
   7066477.271 6  22861562.528          39.000       -3410.927
   4304242.015 7  24134066.346          45.000       -3682.557
 543836788.565 6  38722513.449          41.000        -731.940
 -14145561.359 8  20875119.766          49.000        -294.693
  21544067.93416  24925673.085          36.000       -3792.432
   6787165.950 6  24962759.230          40.000       -3951.436
   -273459.391 7  23653946.744          44.000        2263.191
  -2968901.128 7  20413843.555          46.000        -142.324
 -10262225.234 6  21110948.710          39.000       -1888.985
 16  6  8  1 31  0.0010000  0  9G03G19S20G06G22G17G02G09G23
   7271495.925 6  22900576.625          39.000       -3423.578
   4525658.088 7  24176199.705          45.000       -3698.861
 543880705.552 6  38730870.602          41.000        -732.091
 -14126722.685 8  20878704.547          49.000        -333.928
  21771766.488 5  24969003.739          35.000       -3798.151
   7024265.577 6  25007873.645          37.000       -3953.527
   -408734.539 7  23628206.347          44.000        2245.553
  -2959437.263 7  20415645.709          47.000        -174.095
 -10148144.990 6  21132660.881          41.000       -1914.050
 16  6  8  1 32  0.0010000  0  9G03G19S20G06G22G17G02G09G23
   7477432.480 6  22939761.753          37.000       -3440.280
   4748179.141 7  24218545.258          45.000       -3718.077
 543924738.041 6  38739249.848          41.000        -734.816
 -14105417.282 8  20882758.285          49.000        -375.940
  21999919.629 5  25012419.810          35.000       -3806.721
   7261629.140 6  25053042.766          37.000       -3959.593
   -542840.066 7  23602682.018          44.000        2225.366
  -2947956.614 7  20417829.010          46.000        -208.913
 -10032434.913 7  21154682.847          43.000       -1942.561
 16  6  8  1 33  0.0000000  0  9G03G19S20G06G22G17G02G09G23
   7684331.892 5  22679342.695          35.000       -3456.207
   4971831.556 7  23961310.918          45.000       -3737.073
 543968946.285 6  38447869.602          40.000        -738.719
 -14081588.266 8  20587501.962          50.000        -418.188
  22228573.50015  24756138.444          32.000       -3816.177
   7499283.738 5  24798473.964          35.000       -3962.513
   -675705.576 7  23277606.553          45.000        2203.629
  -2934410.998 7  20120613.446          46.000        -243.254
  -9915056.120 6  20877224.140          41.000       -1970.677
 16  6  8  1 34  0.0000000  0  8G19S20G06G17G02G09G23G07
   5196412.981 7  24004049.293          46.000       -3750.552
 544013146.987 6  38456280.834          40.000        -736.814
 -14055406.688 8  20592484.854          50.000        -455.780
   7737029.012 5  24843717.108          34.000       -3962.457
   -807489.519 7  23252532.946          46.000        2187.199
  -2918979.940 7  20123549.166          45.000        -272.575
  -9796195.447 6  20899841.961          40.000       -1994.147
    -70182.18417  23525318.240          42.000        2795.396
 16  6  8  1 35  0.0000000  0  8G19S20G06G17G02G09G23G07
   5421909.287 7  24046960.408          45.000       -3765.639
 544057340.673 6  38464688.907          40.000        -736.025
 -14026856.296 8  20597915.519          49.000        -495.116
   7974852.479 5  24888980.844          35.000       -3963.712
   -938161.398 7  23227663.175          45.000        2169.105
  -2901655.439 7  20126848.113          47.000        -304.394
  -9675852.834 7  20922744.831          42.000       -2017.034
   -237606.162 7  23493458.069          42.000        2786.117
 16  6  8  1 36  0.0000000  0  9G19S20G06G22G17G02G09G23G07
   5648268.262 7  24090034.282          46.000       -3780.443
 544101508.168 6  38473093.037          40.000        -736.821
 -13995957.823 8  20603795.632          49.000        -535.372
  22915924.03514  24887032.615          27.000       -3829.332
   8212704.403 5  24934239.868          34.000       -3964.779
  -1067728.492 7  23203006.279          44.000        2149.505
  -2882466.351 7  20130497.860          46.000        -336.251
  -9554064.542 6  20945922.629          41.000       -2043.113
   -404476.317 6  23461700.732          39.000        2775.959
 16  6  8  1 37  0.0000000  0 10G03G19S20G06G22G17G02G09G23G07
   8518065.39614  22838298.142          28.000       -3506.175
   5875525.267 7  24133279.202          46.000       -3793.861
 544145704.590 6  38481504.111          40.000        -736.780
 -13962646.193 8  20610135.854          49.000        -574.384
  23145858.87214  24930788.163          26.000       -3834.879
   8450622.615 5  24979513.027          31.000       -3966.897
  -1196111.289 7  23178574.107          43.000        2130.445
  -2861355.707 7  20134515.843          46.000        -367.313
  -9430780.865 6  20969381.480          41.000       -2066.804
   -570711.038 6  23430068.914          41.000        2765.754
 16  6  8  1 38  0.0000000  0 10G30G03G19S20G06G17G02G09G23G07
   -159875.75213  25548796.157          22.000        3078.121
   8728822.95015  22878408.689          33.000       -3518.213
   6103586.215 7  24176678.399          46.000       -3807.270
 544189866.495 6  38489907.944          40.000        -735.245
 -13926986.316 8  20616920.848          49.000        -613.295
   8688513.82113  25024773.762          23.000       -3964.186
  -1323360.078 7  23154360.901          43.000        2111.791
  -2838396.133 7  20138885.377          47.000        -397.409
  -9306082.377 6  20993104.946          37.000       -2089.056
   -736358.169 7  23398547.294          42.000        2756.660
 16  6  8  1 39  0.0000000  0  8G03G19S20G06G02G09G23G07
   8940355.84915  22918659.047          32.000       -3532.078
   6332473.491 7  24220234.632          45.000       -3821.435
 544234053.145 6  38498316.576          40.000        -736.932
 -13888925.409 8  20624164.555          50.000        -654.584
  -1449406.841 7  23130378.840          45.000        2090.456
  -2813542.575 7  20143614.561          47.000        -429.932
  -9179930.893 6  21017114.648          37.000       -2114.906
   -901348.418 6  23367146.657          39.000        2744.070
 16  6  8  1 40  0.0000000  0  9G03G19S20G06G17G02G09G23G07
   9152647.208 6  22959066.806          37.000       -3544.656
   6562151.905 7  24263941.878          44.000       -3834.110
 544278245.679 6  38506726.255          40.000        -735.973
 -13848470.667 8  20631861.550          49.000        -693.915
   9164359.67714  25115315.229          28.000       -3962.642
  -1574243.463 7  23106620.228          43.000        2071.074
  -2786809.645 7  20148701.491          47.000        -460.746
  -9052347.631 6  21041392.037          38.000       -2137.843
  -1065670.340 6  23335872.865          36.000        2733.451
 16  6  8  1 41  0.0000000  0  9G03G19S20G06G17G02G09G23G07
   9365655.597 6  22999604.186          38.000       -3557.633
   6792559.685 7  24307784.852          43.000       -3847.163
 544322399.707 6  38515127.505          41.000        -736.002
 -13805654.174 8  20640009.510          49.000        -734.512
   9402121.25514  25160560.380          26.000       -3962.769
  -1697886.053 7  23083087.476          42.000        2050.150
  -2758236.799 8  20154140.375          48.000        -492.238
  -8923379.869 5  21065931.807          35.000       -2162.106
  -1229338.881 6  23304726.670          36.000        2721.884
 16  6  8  1 42  0.0000000  0  9G30G03G19S20G06G02G09G23G07
   -305556.64514  25407941.193          27.000        3092.111
   9579581.752 5  23040300.641          33.000       -3571.642
   7023878.318 6  24351802.293          41.000       -3862.213
 544366730.461 6  38523564.895          40.000        -740.293
 -13760265.962 8  20648646.565          49.000        -777.700
  -1820108.576 7  23059831.588          43.000        2025.436
  -2727621.218 7  20159961.768          46.000        -527.188
  -8792830.893 6  21090772.803          37.000       -2188.775
  -1392126.035 6  23273752.830          38.000        2705.248
 16  6  8  1 43  0.0000000  0 10G30G16G03G19S20G06G02G09G23G07
   -491269.25914  25372602.496          27.000        3097.924
    -25855.67013  25377101.354          22.000        1861.396
   9794180.625 6  23081145.301          38.000       -3581.483
   7255844.120 7  24395948.186          43.000       -3870.360
 544410990.221 6  38531985.619          40.000        -735.824
 -13712542.670 8  20657726.489          48.000        -814.006
  -1941131.566 7  23036806.375          45.000        2007.516
  -2695206.374 7  20166132.200          47.000        -554.518
  -8660950.792 6  21115871.294          37.000       -2207.455
  -1554248.577 6  23242905.016          40.000        2696.807
 16  6  8  1 44  0.0000000  0  9G16G03G19S20G06G02G09G23G07
   -136989.56012  25355971.042          14.000        1840.719
  10009380.996 6  23122104.225          40.000       -3591.662
   7488366.646 7  24440195.062          43.000       -3880.216
 544455121.292 6  38540384.025          40.000        -736.189
 -13662547.314 8  20667242.756          50.000        -853.264
  -2061001.109 7  23013996.026          46.000        1987.460
  -2661062.033 8  20172632.092          48.000        -584.017
  -8527816.054 6  21141201.664          36.000       -2229.578
  -1715750.817 6  23212166.370          37.000        2686.191
 16  6  8  1 45  0.0000000  0  9G03G19S20G06G17G02G09G23G07
  10225252.572 6  23163173.575          37.000       -3602.309
   7721495.799 7  24484556.797          42.000       -3890.592
 544499209.335 6  38548774.456          40.000        -734.091
 -13610201.937 8  20677203.951          49.000        -891.539
    597511.33713  25341381.596          21.000       -3954.067
  -2179621.620 7  22991421.220          45.000        1966.613
  -2625116.829 7  20179471.268          47.000        -613.757
  -8393361.815 5  21166786.562          35.000       -2250.360
  -1876536.017 6  23181573.189          39.000        2673.553
 16  6  8  1 46  0.0000000  0  9G30G03G19S20G06G02G09G23G07
  -1050710.27715  25266192.691          31.000        3115.440
  10441742.354 6  23204377.866          41.000       -3612.883
   7955160.320 7  24529023.180          43.000       -3898.768
 544543200.773 6  38557145.186          41.000        -733.109
 -13555552.156 8  20687603.024          49.000        -930.102
  -2297021.797 7  22969079.287          45.000        1946.228
  -2587422.646 7  20186642.540          46.000        -642.672
  -8257645.979 6  21192613.547          36.000       -2272.156
  -2036629.384 6  23151111.775          41.000        2662.719
 16  6  8  1 47  0.0000000  0 10G30G16G03G19S20G06G02G09G23G07
  -1237671.02115  25230616.862          32.000        3118.721
   -245660.32913  25293771.800          18.000        1788.056
  10658887.205 6  23245700.558          41.000       -3624.447
   8189377.252 7  24573591.507          43.000       -3908.058
 544587143.948 6  38565509.372          41.000        -731.487
 -13498553.799 8  20698449.539          49.000        -969.140
  -2413139.627 7  22946985.270          47.000        1924.664
  -2547941.615 7  20194155.487          46.000        -672.381
  -8120636.737 6  21218684.888          37.000       -2294.089
  -2195967.601 6  23120790.311          40.000        2649.611
 16  6  8  1 48  0.0000000  0 10G30G16G03G19S20G06G02G09G23G07
  -1424923.16415  25194982.366          34.000        3122.249
   -352351.28913  25273469.344          19.000        1778.898
  10876625.915 6  23287132.453          36.000       -3632.655
   8424066.030 7  24618249.633          43.000       -3915.023
 544630978.199 6  38573850.559          40.000        -729.412
 -13439261.239 8  20709732.553          49.000       -1007.327
  -2528011.101 8  22925126.482          48.000        1904.121
  -2506733.806 8  20201999.971          48.000        -701.221
  -7982400.554 6  21244994.564          39.000       -2313.164
  -2354583.870 7  23090607.909          42.000        2637.778
 16  6  8  1 49  0.0000000  0 10G30G16G03G19S20G06G02G09G23G07
  -1612436.745 6  25159301.644          36.000        3126.956
   -457861.73813  25253386.307          20.000        1747.295
  11094963.005 6  23328673.010          37.000       -3644.770
   8659213.110 7  24662999.896          44.000       -3923.060
 544674704.760 6  38582169.200          41.000        -728.609
 -13377663.172 8  20721453.585          49.000       -1046.073
  -2641606.239 7  22903505.889          46.000        1882.235
  -2463793.864 7  20210168.679          46.000        -730.542
  -7842937.304 6  21271533.414          39.000       -2334.440
  -2512446.674 6  23060565.387          39.000        2624.237
 16  6  8  1 50  0.0000000  0 10G30G16G03G19S20G06G02G09G23G07
  -1800138.761 6  25123582.706          37.000        3129.650
   -562140.71714  25233557.852          28.000        1727.542
  11313946.278 7  23370354.967          42.000       -3654.507
   8894847.185 7  24707839.801          44.000       -3930.721
 544718384.513 6  38590481.663          40.000        -726.883
 -13313705.967 8  20733624.554          48.000       -1085.466
  -2753853.151 7  22882145.077          46.000        1859.638
  -2419073.566 7  20218678.330          45.000        -759.736
  -7702204.490 6  21298314.821          39.000       -2355.886
  -2669480.780 7  23030684.664          42.000        2610.769
 16  6  8  1 51  0.0000000  0 10G30G16G03G19S20G06G02G09G23G07
  -1988034.239 6  25087829.932          38.000        3133.370
   -665185.25915  25213949.164          31.000        1708.096
  11533544.749 6  23412138.484          39.000       -3665.352
   9130918.838 7  24752759.436          43.000       -3938.425
 544762002.663 6  38598784.006          41.000        -726.765
 -13247414.511 8  20746239.578          48.000       -1124.352
  -2864757.120 7  22861042.442          46.000        1837.083
  -2372603.138 7  20227523.305          47.000        -788.871
  -7560237.972 6  21325327.147          39.000       -2376.156
  -2825689.673 6  23000954.588          39.000        2596.892
 16  6  8  1 52  0.0000000  0 10G30G16G03G19S20G06G02G09G23G07
  -2176051.158 6  25052052.640          39.000        3135.286
   -766919.48215  25194583.139          30.000        1685.087
  11753804.570 6  23454048.096          39.000       -3675.933
   9367454.976 7  24797771.854          43.000       -3945.383
 544805605.848 6  38607081.288          41.000        -726.311
 -13178737.066 7  20759307.330          47.000       -1164.246
  -2974247.009 7  22840209.709          47.000        1813.240
  -2324335.855 7  20236707.895          47.000        -818.930
  -7416996.483 6  21352586.551          41.000       -2398.390
  -2981000.298 6  22971399.730          39.000        2581.197
 16  6  8  1 53  0.0000000  0 10G30G16G03G19S20G06G02G09G23G07
  -2364201.289 6  25016248.563          39.000        3138.101
   -867350.27515  25175475.203          31.000        1663.524
  11974688.211 7  23496091.027          43.000       -3686.077
   9604399.256 7  24842859.430          43.000       -3951.347
 544849167.497 6  38615372.270          41.000        -724.777
 -13107706.278 8  20772825.717          48.000       -1202.855
  -3082335.653 7  22819641.242          47.000        1789.886
  -2274309.277 7  20246226.780          46.000        -848.232
  -7272522.738 6  21380076.682          40.000       -2417.887
  -3135423.441 6  22942014.384          40.000        2565.994
 16  6  8  1 54  0.0000000  0 10G30G16G03G19S20G06G02G09G23G07
  -2552471.769 6  24980417.647          36.000        3138.417
   -966459.64615  25156609.686          30.000        1639.665
  12196182.377 6  23538234.839          41.000       -3697.326
   9841720.296 7  24888019.547          42.000       -3959.600
 544892675.110 6  38623649.589          41.000        -724.567
 -13034330.514 8  20786788.387          48.000       -1242.879
  -3189011.403 7  22799339.658          46.000        1765.608
  -2222536.374 7  20256078.719          46.000        -877.928
  -7126834.902 6  21407799.913          40.000       -2438.925
  -3288943.977 7  22912804.656          43.000        2550.379
 16  6  8  1 55  0.0000000  0 10G30G16G03G19S20G06G02G09G23G07
  -2740776.012 5  24944572.718          32.000        3139.038
  -1064156.13515  25138017.212          32.000        1616.199
  12418347.520 6  23580508.009          40.000       -3708.017
  10079459.895 7  24933260.527          42.000       -3965.537
 544936184.829 6  38631929.019          41.000        -725.074
 -12958544.744 8  20801208.409          48.000       -1282.972
  -3294188.610 7  22779327.888          45.000        1740.412
  -2168956.482 7  20266275.579          46.000        -907.845
  -6979876.874 6  21435764.428          38.000       -2459.632
  -3441474.612 7  22883777.842          42.000        2534.479
 16  6  8  1 56  0.0000000  0 10G30G16G03G19S20G06G02G09G23G07
  -2929120.26415  24908730.669          32.000        3138.845
  -1160441.12315  25119689.510          32.000        1592.121
  12641151.457 7  23622913.835          44.000       -3719.058
  10317567.079 7  24978572.897          43.000       -3971.389
 544979678.880 6  38640206.321          41.000        -724.186
 -12880377.324 8  20816086.500          48.000       -1322.627
  -3397875.206 7  22759596.526          45.000        1715.577
  -2113602.120 7  20276808.914          46.000        -936.899
  -6831686.061 6  21463966.632          39.000       -2479.170
  -3593020.875 6  22854936.994          41.000        2517.679
 16  6  8  1 57  0.0000000  0 10G30G16G03G19S20G06G02G09G23G07
  -3117497.66616  24872895.792          37.000        3139.195
  -1255303.78215  25101642.372          33.000        1568.858
  12864574.528 6  23665425.969          41.000       -3729.484
  10556004.574 7  25023945.226          42.000       -3976.753
 545023137.159 6  38648475.089          41.000        -723.771
 -12799844.096 8  20831410.915          48.000       -1362.164
  -3500065.943 7  22740151.068          46.000        1690.529
  -2056493.040 7  20287677.015          47.000        -966.789
  -6682287.489 6  21492396.474          40.000       -2499.888
  -3743575.506 6  22826287.140          41.000        2501.017
 16  6  8  1 58  0.0000000  0 10G30G16G03G19S20G06G02G09G23G07
  -3305816.050 6  24837062.415          41.000        3138.180
  -1348646.92416  25083883.460          36.000        1542.312
  13088682.433 6  23708061.841          37.000       -3740.028
  10794819.913 7  25069393.899          43.000       -3983.134
 545066639.765 7  38656755.287          42.000        -725.254
 -12716875.766 8  20847198.109          48.000       -1402.745
  -3600670.089 7  22721005.107          46.000        1664.142
  -1997563.612 7  20298888.012          45.000        -996.403
  -6531619.427 6  21521067.514          41.000       -2521.339
  -3893044.789 7  22797845.239          43.000        2483.291
 16  6  8  2  1  0.0000000  0 11G30G16G03G19S20G26G06G02G09G23G07
  -3870596.794 6  24729585.303          40.000        3136.063
  -1619702.853 6  25032305.695          38.000        1467.658
  13764670.277 5  23836710.430          33.000       -3769.709
  11512906.301 6  25206037.061          39.000       -3994.713
 545197070.812 6  38681575.290          41.000        -723.706
   6799745.63914  25180088.605          27.000        -103.946
 -12453777.144 7  20897262.871          47.000       -1519.875
  -3893162.667 7  22665344.602          47.000        1585.846
  -1810303.889 7  20334523.695          46.000       -1083.417
  -6072493.253 7  21608439.899          43.000       -2580.077
  -4335117.560 7  22713722.364          43.000        2429.332
 16  6  8  2  2  0.0000000  0 11G30G16G03G04G19S20G06G02G09G23G07
  -4058855.259 6  24693757.249          38.000        3137.666
  -1707107.963 6  25015670.228          37.000        1444.546
  13991088.16415  23879808.088          34.000       -3777.666
   6035427.50915  25138017.927          34.000        -878.319
  11752610.467 6  25251654.199          41.000       -3995.772
 545240394.788 6  38689819.506          41.000        -720.397
 -12361483.949 8  20914826.550          48.000       -1556.989
  -3987617.143 7  22647370.022          47.000        1561.772
  -1744540.850 7  20347038.485          45.000       -1109.566
  -5917237.916 7  21637982.105          43.000       -2596.135
  -4480419.037 7  22686071.482          42.000        2413.287
 16  6  8  2  3  0.0010000  0 11G30G16G03G04G19S20G06G02G09G23G07
  -4247172.960 6  24657920.539          38.000        3138.947
  -1793092.346 6  24999306.007          37.000        1420.731
  14217933.446 6  23922971.446          41.000       -3784.172
   6089191.18215  25148250.316          33.000        -915.064
  11992358.163 6  25297277.147          41.000       -3996.301
 545283539.226 6  38698029.746          41.000        -718.653
 -12266991.060 8  20932808.075          48.000       -1593.340
  -4080613.119 7  22629672.605          47.000        1537.620
  -1677208.218 7  20359850.452          45.000       -1135.604
  -5760983.457 6  21667714.345          41.000       -2613.251
  -4624751.265 7  22658605.799          43.000        2397.086
 16  6  8  2  4  0.0010000  0 12G30G16G03G04G19S20G26G06G02G09G23G07
  -4435483.199 6  24622090.025          40.000        3137.494
  -1877590.45115  24983222.944          33.000        1393.644
  14445244.780 6  23966230.379          41.000       -3794.048
   6145209.670 5  25158908.682          35.000        -952.179
  12232157.847 6  25342907.879          40.000       -3998.185
 545326551.127 6  38706213.532          41.000        -716.704
   6825528.15814  25185287.932          29.000        -203.212
 -12170266.659 8  20951214.355          48.000       -1631.357
  -4172089.242 7  22612266.780          47.000        1511.034
  -1608275.360 7  20372965.198          43.000       -1163.103
  -5603705.516 7  21697645.743          43.000       -2631.172
  -4768049.543 7  22631335.750          42.000        2378.672
 16  6  8  2  5  0.0010000  0 11G30G16G03G04G19S20G26G02G09G23G07
  -4623679.665 7  24586279.176          42.000        3136.613
  -1960489.98314  24967451.385          29.000        1368.714
  14673108.258 6  24009599.475          36.000       -3801.703
   6203572.834 5  25170016.810          33.000        -990.442
  12472078.077 6  25388566.670          41.000       -3999.311
 545369530.321 6  38714394.106          41.000        -715.888
   6838541.34914  25187817.516          24.000        -238.290
  -4261940.183 7  22595167.993          47.000        1483.828
  -1537659.912 7  20386406.333          45.000       -1190.412
  -5445323.943 7  21727783.508          43.000       -2648.652
  -4910206.599 7  22604285.121          43.000        2359.928
 16  6  8  2  6  0.0010000  0 11G30G16G03G04G19S20G06G02G09G23G07
  -4811793.670 7  24550481.869          42.000        3134.372
  -2041821.72615  24951980.109          33.000        1339.286
  14901465.659 5  24053067.653          33.000       -3810.353
   6264228.00515  25181557.355          31.000       -1029.283
  12712043.668 6  25434227.050          39.000       -3999.074
 545412417.819 6  38722554.788          41.000        -713.575
    101339.60217  20989337.165          47.000       -1706.866
  -4350200.585 7  22578373.310          47.000        1458.006
  -1465421.245 7  20400155.691          47.000       -1217.561
  -5285901.254 7  21758124.307          44.000       -2665.234
  -5051254.880 7  22577446.058          45.000        2341.514
 16  6  8  2  7  0.0010000  0 11G30G16G03G04G19S20G26G02G09G23G07
  -4999838.453 7  24514699.360          42.000        3133.309
  -2121596.55615  24936806.237          30.000        1316.539
  15130276.384 6  24096593.749          38.000       -3816.891
   6327140.43515  25193532.584          32.000       -1066.820
  12951996.485 6  25479890.587          38.000       -3999.161
 545455186.886 6  38730693.901          41.000        -711.975
   6869795.46214  25194007.021          26.000        -305.669
  -4436886.818 7  22561876.118          46.000        1431.357
  -1391601.111 7  20414198.876          44.000       -1243.556
  -5125482.548 7  21788651.212          46.000       -2682.071
  -5191207.545 7  22550815.437          45.000        2323.376
 16  6  8  2  8  0.0010000  0 11G30G03G04G19S20G26G06G02G09G23G07
  -5187778.948 6  24478934.109          40.000        3130.563
  15359547.915 7  24140217.304          42.000       -3825.575
   6392323.35714  25205936.042          28.000       -1105.330
  13191927.674 6  25525548.279          37.000       -3999.507
 545497844.246 6  38738811.202          41.000        -710.009
   6889165.49514  25197690.029          24.000        -338.567
    105833.85518  21029159.906          48.000       -1781.545
  -4521967.441 7  22545686.417          45.000        1404.075
  -1316192.834 7  20428550.773          45.000       -1270.745
  -4964064.507 7  21819366.649          46.000       -2699.008
  -5330030.107 7  22524397.483          45.000        2303.453
 16  6  8  2  9  0.0010000  0 11G30G03G04G29G19S20G26G02G09G23G07
  -5375516.613 6  24443208.506          40.000        3126.756
  15589351.754 7  24183946.712          42.000       -3834.030
   6459851.94214  25218778.913          29.000       -1144.298
   -981352.38514  25487377.813          25.000        1066.726
  13431891.520 6  25571208.519          36.000       -3998.493
 545540460.102 6  38746920.004          41.000        -709.615
   6910668.96112  25201777.585          15.000        -367.652
  -4605347.330 7  22529819.911          45.000        1375.784
  -1239126.508 7  20443215.779          46.000       -1298.297
  -4801580.229 7  21850286.288          46.000       -2717.118
  -5467625.024 7  22498211.878          43.000        2283.281
 16  6  8  2 10  0.0010000  0 11G30G03G04G19S20G26G06G02G09G23G07
  -5563065.376 6  24407517.331          40.000        3124.772
  15819646.411 6  24227777.715          38.000       -3842.465
   6529689.51815  25232074.828          33.000       -1183.100
  13671829.341 6  25616867.590          37.000       -3998.503
 545583005.243 6  38755017.114          41.000        -707.934
   6934276.35013  25206276.147          23.000        -411.400
    110354.64517  21070707.810          47.000       -1856.774
  -4687043.914 7  22514274.053          45.000        1347.877
  -1160445.101 7  20458188.066          46.000       -1324.662
  -4638075.462 7  21881401.998          47.000       -2733.173
  -5604007.468 7  22472257.576          43.000        2263.031
 16  6  8  2 11  0.0010000  0 12G30G16G03G04G19S20G26G06G02G09G23G07
  -5750418.071 6  24371867.252          41.000        3120.853
  -1114884.88915  24879239.068          32.000        1205.581
  16050411.701 5  24271697.819          35.000       -3851.286
   6601820.205 5  25245800.174          33.000       -1222.666
  13911704.629 6  25662517.691          38.000       -3996.811
 545625477.229 6  38763098.589          41.000        -707.757
   6959994.69715  25211168.629          30.000        -446.270
    222884.805 7  21092121.757          47.000       -1894.426
  -4767054.388 7  22499049.052          46.000        1318.965
  -1080170.146 7  20473463.707          45.000       -1351.611
  -4473574.364 7  21912703.431          46.000       -2750.416
  -5739171.642 7  22446539.428          44.000        2242.827
 16  6  8  2 12  0.0000000  0 12G30G16G03G04G19S20G26G06G02G09G23G07
  -5937513.431 6  24036472.287          40.000        3116.474
  -1186246.12114  24565859.298          24.000        1175.078
  16281681.327 6  24015908.322          36.000       -3857.898
   6676281.75815  24960179.286          31.000       -1260.460
  14151534.949 6  25408365.391          38.000       -3995.488
 545667910.019 6  38471381.013          40.000        -706.404
   6987832.89612  24916681.582          17.000        -480.615
    337681.095 7  20814173.921          47.000       -1931.543
  -4845321.194 7  22184362.313          47.000        1290.199
   -998269.524 7  20189256.670          45.000       -1378.315
  -4308047.713 7  21644409.125          46.000       -2766.752
  -5873056.907 7  22121270.789          46.000        2221.029
 16  6  8  2 13  0.0000000  0 11G30G03G04G19S20G26G06G02G09G23G07
  -6124385.183 6  24000907.225          37.000        3112.071
  16513393.911 5  24059999.246          34.000       -3864.749
   6753014.84315  24974780.912          30.000       -1297.851
  14391242.023 6  25453979.056          36.000       -3994.365
 545710254.361 6  38479439.628          41.000        -705.347
   7017717.70214  24922384.487          29.000        -518.117
    454680.478 7  20836438.218          47.000       -1968.214
  -4921882.425 7  22169792.516          47.000        1261.874
   -914806.123 7  20205138.759          45.000       -1404.496
  -4141560.764 7  21676089.926          47.000       -2782.737
  -6005698.364 7  22096028.613          43.000        2200.539
 16  6  8  2 14  0.0000000  0 12G30G16G03G04G19S20G26G06G02G09G23G07
  -6311009.373 5  23965386.609          34.000        3108.965
  -1324976.42813  24539675.107          22.000        1122.519
  16745545.279 6  24104173.408          37.000       -3873.158
   6832018.70714  24989821.203          29.000       -1336.543
  14630805.71315  25499568.657          33.000       -3992.793
 545752507.382 6  38487480.200          40.000        -703.384
   7049787.51914  24928503.040          25.000        -550.418
    573876.998 8  20859122.192          48.000       -2004.714
  -4996718.884 7  22155550.974          47.000        1232.769
   -829785.706 7  20221318.862          45.000       -1429.810
  -3974121.602 7  21707953.447          47.000       -2798.043
  -6137073.633 7  22071029.152          45.000        2178.285
 16  6  8  2 15  0.0000000  0 12G30G16G03G04G19S20G26G06G02G09G23G07
  -6497320.842 6  23929940.295          37.000        3102.390
  -1391073.85714  24527111.665          29.000        1087.182
  16978173.275 6  24148438.695          38.000       -3880.385
   6913334.18715  25005290.507          32.000       -1374.048
  14870248.09515  25545126.883          30.000       -3989.599
 545794704.305 6  38495508.696          40.000        -702.533
   7083896.76014  24935000.838          25.000        -588.156
    695306.055 7  20882227.798          47.000       -2041.981
  -5069770.111 7  22141649.590          47.000        1202.656
   -743172.104 7  20237799.668          45.000       -1456.205
  -3805696.586 8  21740006.164          49.000       -2815.014
  -6267119.340 7  22046279.473          43.000        2157.030
 16  6  8  2 16  0.0000000  0 12G30G16G03G04G19S20G26G06G02G09G23G07
  -6683339.719 6  23894546.717          40.000        3098.828
  -1455414.79714  24514865.818          26.000        1057.933
  17211229.751 6  24192789.086          38.000       -3886.923
   6996914.39115  25021194.478          34.000       -1412.661
  15109504.54114  25590647.940          28.000       -3985.614
 545836811.034 6  38503522.063          40.000        -700.496
   7120234.28914  24941918.296          27.000        -623.593
    818917.029 7  20905751.268          47.000       -2077.858
  -5141060.687 7  22128084.227          46.000        1174.013
   -655015.152 7  20254575.348          45.000       -1481.584
  -3636337.546 7  21772232.755          47.000       -2830.320
  -6395857.359 7  22021784.777          45.000        2134.962
 16  6  8  2 17  0.0000000  0 12G30G16G03G04G19S20G26G06G02G09G23G07
  -6869045.524 6  23859208.403          41.000        3092.566
  -1518218.26715  24502989.566          31.000        1025.656
  17444707.404 6  24237219.661          39.000       -3894.487
   7082754.725 5  25037526.207          31.000       -1448.434
  15348552.77214  25636137.394          27.000       -3982.691
 545878837.686 6  38511520.178          40.000        -699.705
   7158695.30315  24949245.293          32.000        -657.421
    944699.490 7  20929685.847          47.000       -2114.781
  -5210575.394 7  22114857.066          46.000        1143.724
   -565324.176 7  20271641.329          44.000       -1508.083
  -3466055.792 7  21804635.367          47.000       -2846.123
  -6523269.412 7  21997538.258          45.000        2111.788
 16  6  8  2 18  0.0000000  0 12G30G16G03G04G19S20G26G06G02G09G23G07
  -7054333.228 6  23823945.457          39.000        3085.094
  -1578796.42115  24491460.521          32.000         993.814
  17678683.235 6  24281746.126          40.000       -3903.153
   7170933.01215  25054307.174          33.000       -1487.403
  15587453.77515  25681610.253          30.000       -3980.134
 545920860.801 6  38519517.369          40.000        -700.528
   7199363.75215  24956978.322          32.000        -696.592
   1072727.291 7  20954047.502          46.000       -2152.346
  -5278215.066 7  22101985.506          46.000        1111.620
   -474023.978 7  20289016.528          44.000       -1534.935
  -3294777.751 8  21837229.913          48.000       -2862.438
  -6649252.707 7  21973563.194          44.000        2087.932
 16  6  8  2 19  0.0000000  0 12G30G16G03G04G19S20G26G06G02G09G23G07
  -7239228.381 6  23788754.091          36.000        3078.091
  -1637488.48615  24480296.780          35.000         961.903
  17913103.754 6  24326356.455          39.000       -3911.112
   7261396.847 6  25071525.338          38.000       -1526.615
  15826138.86014  25727032.350          27.000       -3977.889
 545962840.950 6  38527506.532          40.000        -699.863
   7242195.35715  24965118.430          30.000        -731.637
   1202943.337 7  20978826.655          47.000       -2188.470
  -5344010.398 7  22089464.242          45.000        1081.598
   -381169.927 7  20306686.252          44.000       -1560.354
  -3122561.210 7  21870000.602          47.000       -2877.679
  -6773835.001 7  21949855.590          44.000        2064.618
 16  6  8  2 20  0.0000000  0 12G30G16G03G04G19S20G26G06G02G09G23G07
  -7423761.887 6  23753639.978          38.000        3072.956
  -1694326.282 5  24469471.572          33.000         932.301
  18147909.834 6  24371040.844          40.000       -3916.522
   7354087.894 6  25089161.401          37.000       -1563.125
  16064533.06114  25772403.980          28.000       -3971.038
 546004719.438 6  38535476.431          40.000        -697.018
   7287140.35615  24973679.873          34.000        -766.416
   1335284.763 7  21004011.315          47.000       -2223.644
  -5407998.058 7  22077287.236          45.000        1051.062
   -286823.149 7  20324640.973          45.000       -1585.050
  -2949468.622 8  21902939.476          48.000       -2891.947
  -6897049.985 7  21926410.943          44.000        2041.675
 16  6  8  2 21  0.0000000  0 11G30G16G03G04S20G26G06G02G09G23G07
  -7607868.466 7  23718612.313          42.000        3064.563
  -1749246.18015  24459006.921          30.000         899.022
  18383138.747 6  24415803.794          40.000       -3924.513
   7449043.499 6  25107232.602          37.000       -1600.570
 546046531.737 6  38543431.165          40.000        -696.613
   7334246.24614  24982640.770          29.000        -804.037
   1469784.705 7  21029605.043          47.000       -2259.741
  -5470118.827 7  22065467.000          46.000        1019.289
   -190948.191 7  20342883.955          45.000       -1611.188
  -2775465.677 8  21936051.508          48.000       -2908.035
  -7018834.762 7  21903236.147          46.000        2017.822
 16  6  8  2 22  0.0000000  0 11G30G16G03G04S20G26G06G02G09G23G07
  -7791475.534 6  23683672.143          40.000        3056.192
  -1802172.53512  24448923.609          17.000         858.232
  18618834.901 7  24460653.785          42.000       -3932.907
   7546308.214 5  25125739.256          35.000       -1640.189
 546088335.612 6  38551387.208          40.000        -696.616
   7383564.91814  24992029.283          29.000        -839.911
   1606483.191 7  21055618.222          46.000       -2296.364
  -5530306.144 7  22054015.259          47.000         986.976
    -93502.723 7  20361427.219          44.000       -1637.005
  -2600512.195 7  21969345.285          47.000       -2923.921
  -7139119.540 7  21880342.456          44.000        1991.746
 16  6  8  2 23  0.0000000  0 11G30G16G03G04S20G26G06G02G09G23G07
  -7974598.143 6  23648822.243          38.000        3047.174
  -1853133.60514  24439237.220          29.000         832.816
  18854954.902 7  24505583.611          43.000       -3939.314
   7645837.945 6  25144678.536          38.000       -1679.120
 546130089.133 6  38559332.257          40.000        -695.987
   7435061.98715  25001830.617          31.000        -878.259
   1745332.137 7  21082041.045          46.000       -2332.377
  -5588581.701 7  22042925.384          47.000         954.654
      5467.944 7  20380260.297          44.000       -1662.202
  -2424654.084 7  22002808.852          47.000       -2938.675
  -7257922.794 7  21857737.723          46.000        1967.449
 16  6  8  2 24  0.0000000  0 10G30G16G03G04S20G06G02G09G23G07
  -8157232.645 6  23614066.191          38.000        3037.575
  -1902122.54615  24429911.998          30.000         797.791
  19091474.069 7  24550592.469          44.000       -3945.683
   7747607.609 6  25164045.136          38.000       -1715.758
 546171781.440 6  38567265.789          40.000        -695.045
   1886301.922 7  21108866.044          45.000       -2367.675
  -5644948.486 7  22032197.758          46.000         922.894
    105936.913 7  20399380.971          45.000       -1687.755
  -2247919.755 7  22036439.906          47.000       -2953.589
  -7375243.794 7  21835412.002          46.000        1942.121
 16  6  8  2 25  0.0000000  0 11G30G16G03G04S20G26G06G02G09G23G07
  -8339298.900 6  23579423.146          39.000        3030.226
  -1949062.67215  24420986.561          31.000         766.593
  19328444.325 7  24595685.594          44.000       -3952.844
   7851668.439 6  25183849.633          36.000       -1752.805
 546213482.086 6  38575201.956          40.000        -693.888
   7544507.59615  25022673.332          30.000        -948.201
   2029439.174 7  21136103.076          45.000       -2403.004
  -5699333.042 7  22021849.465          47.000         890.448
    207954.069 7  20418795.298          46.000       -1712.870
  -2070260.319 7  22070245.829          45.000       -2968.006
  -7491005.522 7  21813382.533          45.000        1916.343
 16  6  8  2 26  0.0000000  0 11G30G16G03G04S20G26G06G02G09G23G07
  -8520825.385 6  23544881.644          41.000        3021.448
  -1993984.69615  24412427.717          30.000         734.310
  19565808.883 7  24640855.221          44.000       -3959.482
   7957961.855 6  25204075.046          37.000       -1790.175
 546255132.921 6  38583128.054          40.000        -692.845
   7602559.50514  25033718.848          28.000        -985.312
   2174681.421 7  21163743.139          46.000       -2438.220
  -5751771.140 7  22011870.017          47.000         857.569
    311460.454 7  20438490.330          45.000       -1737.645
  -1891736.040 7  22104215.784          45.000       -2982.784
  -7605240.057 7  21791645.041          44.000        1891.360
 16  6  8  2 27  0.0000000  0 10G30G16G03G04S20G06G02G09G23G07
  -8701792.877 6  23510443.605          41.000        3011.343
  -2036874.19116  24404273.458          37.000         697.706
  19803558.484 7  24686098.016          43.000       -3966.057
   8066476.532 5  25224722.388          34.000       -1827.148
 546296724.487 6  38591041.082          41.000        -692.715
   2322013.692 7  21191779.008          45.000       -2473.195
  -5802250.760 7  22002264.806          47.000         824.672
    416444.747 7  20458467.985          44.000       -1762.678
  -1712359.023 7  22138353.366          46.000       -2996.794
  -7717932.128 7  21770198.444          43.000        1864.965
 16  6  8  2 28  0.0000000  0 10G30G16G03G04S20G06G02G09G23G07
  -8882113.668 6  23476123.808          38.000        2999.325
  -2077647.16513  24396504.150          21.000         664.666
  20041752.455 6  24731427.452          41.000       -3973.644
   8177269.550 6  25245808.969          36.000       -1864.732
 546338329.977 6  38598958.997          41.000        -693.451
   2471489.163 7  21220223.334          44.000       -2508.846
  -5850692.023 7  21993045.437          46.000         790.037
    522963.962 7  20478738.733          46.000       -1788.381
  -1532072.901 7  22172660.127          46.000       -3012.382
  -7828997.742 7  21749064.939          45.000        1837.340
 16  6  8  2 29  0.0000000  0 11G30G16G03G04G19S20G06G02G09G23G07
  -9061813.928 6  23441927.628          38.000        2990.800
  -2116336.83216  24389157.241          37.000         628.000
  20280336.060 6  24776833.233          36.000       -3980.302
   8290284.50915  25267312.122          31.000       -1902.674
  18194010.79711  26178099.067           9.000       -3920.530
 546379895.621 6  38606867.976          41.000        -692.518
   2623046.737 7  21249063.955          45.000       -2543.654
  -5897129.072 7  21984209.363          46.000         756.904
    630961.289 7  20499289.837          46.000       -1812.184
  -1350934.815 7  22207129.019          46.000       -3026.073
  -7938467.055 7  21728234.719          46.000        1810.610
 16  6  8  2 30  0.0000000  0 12G30G16G03G04G19S20G26G06G02G09G23G07
  -9240893.154 6  23407852.588          40.000        2978.587
  -2152940.75015  24382188.951          31.000         591.755
  20519281.467 5  24822306.372          34.000       -3985.870
   8405489.60315  25289234.028          32.000       -1939.600
  18428704.09113  26222810.207          19.000       -3908.618
 546421407.640 6  38614769.033          41.000        -691.856
   7852644.49213  25082070.889          22.000       -1134.016
   2776651.868 7  21278294.902          46.000       -2577.974
  -5941569.217 7  21975751.609          45.000         723.372
    740406.566 7  20520117.231          45.000       -1836.933
  -1168976.223 8  22241756.760          48.000       -3039.973
  -8046343.680 7  21707706.160          46.000        1784.058
 16  6  8  2 31  0.0000000  0 12G30G16G03G04G29S20G26G06G02G09G23G07
  -9419190.472 6  23373927.585          41.000        2965.753
  -2187306.21214  24375651.872          29.000         555.995
  20758720.83815  24867860.933          32.000       -3994.951
   8523015.43715  25311601.490          32.000       -1978.227
    789544.88015  25010257.188          31.000         324.083
 546463016.992 6  38622686.721          41.000        -693.784
   7921755.25714  25095227.795          28.000       -1170.807
   2932429.955 7  21307938.145          46.000       -2613.980
  -5983860.046 7  21967703.952          45.000         687.536
    851429.913 7  20541243.040          45.000       -1862.746
   -986066.889 7  22276561.463          47.000       -3055.713
  -8152471.362 7  21687510.378          45.000        1754.450
 16  6  8  2 32  0.0000000  0 10G30G03G04G29S20G06G02G09G23G07
  -9596701.089 6  23340146.406          41.000        2952.607
  20998630.45315  24913510.615          30.000       -4001.179
   8642833.25715  25334402.887          31.000       -2014.585
    771234.60114  25006769.517          29.000         286.823
 546504699.471 6  38630618.525          41.000        -695.213
   3090350.159 7  21337988.170          45.000       -2649.549
  -6024004.558 7  21960065.660          46.000         651.575
    964005.398 7  20562666.376          46.000       -1888.338
   -802233.149 7  22311544.840          47.000       -3071.247
  -8256850.337 7  21667649.063          45.000        1725.488
 16  6  8  2 33  0.0000000  0 11G30G16G03G04S20G26G06G02G09G23G07
  -9773580.583 6  23306485.041          40.000        2941.585
  18748611.65914  24363832.543          29.000         483.780
  21238826.24315  24959204.691          30.000       -4006.187
   8764756.35315  25357601.468          31.000       -2048.954
 546546285.621 6  38638532.286          41.000        -692.483
     73360.73515  25122799.488          30.000       -1239.964
   3250220.845 7  21368409.920          44.000       -2681.047
  -6062168.346 7  21952802.548          45.000         619.233
   1077946.489 7  20584346.736          44.000       -1910.692
   -617662.119 7  22346668.027          47.000       -3082.709
  -8359640.121 7  21648088.347          45.000        1699.671
 16  6  8  2 34  0.0000000  0 12G30G16G03G04G29S20G26G06G02G09G23G07
  -9949750.278 6  23272961.523          40.000        2930.063
  18720726.02214  24358504.459          26.000         447.520
  21479361.64013  25004957.844          21.000       -3998.544
   8888829.95115  25381215.844          30.000       -2085.338
    740005.93114  25001012.577          29.000         216.563
 546587825.093 6  38646437.261          41.000        -691.573
    149023.50415  25137202.068          34.000       -1279.571
   3412084.500 7  21399210.697          44.000       -2714.109
  -6098281.334 7  21945930.661          45.000         584.495
   1193301.194 7  20606297.565          43.000       -1934.399
   -432305.407 8  22381941.208          48.000       -3095.716
  -8460767.334 7  21628844.360          45.000        1671.260
 16  6  8  2 35  0.0000000  0 11G30G03G04G29S20G26G06G02G09G23G07
 -10125182.501 7  23239580.513          42.000        2917.488
  21720223.00414  25050825.829          28.000       -4017.219
   9015049.20115  25405235.301          31.000       -2121.019
    728074.80814  24998736.370          26.000         180.295
 546629316.312 6  38654331.303          41.000        -691.104
    226851.19415  25152011.178          32.000       -1313.691
   3575932.296 7  21430393.922          46.000       -2747.112
  -6132325.275 7  21939453.000          46.000         549.847
   1310066.321 7  20628518.306          43.000       -1957.998
   -246166.896 7  22417359.269          47.000       -3108.827
  -8560209.220 7  21609921.640          45.000        1643.052
 16  6  8  2 36  0.0000000  0 11G30G16G03G29S20G26G06G02G09G23G07
 -10299846.569 6  23206346.068          41.000        2903.635
  18670318.58014  24349147.129          25.000         374.341
  21961427.11015  25096733.844          32.000       -4021.611
    718302.58613  24996863.072          21.000         138.896
 546670776.981 6  38662221.646          41.000        -691.391
    306847.95415  25167230.926          32.000       -1353.238
   3741758.167 7  21461946.725          45.000       -2780.933
  -6164279.198 7  21933372.402          46.000         514.111
   1428241.661 7  20651006.524          43.000       -1982.271
    -59246.437 7  22452930.090          47.000       -3122.694
  -8657940.575 7  21591322.203          44.000        1613.438
 16  6  8  2 37  0.0000000  0 11G30G16G03G04S20G26G06G02G09G23G07
 -10473635.327 7  23173274.991          42.000        2889.283
  18649078.88615  24345089.639          31.000         336.533
  22203047.15815  25142711.503          35.000       -4031.310
   9272836.17815  25454510.737          30.000       -2194.087
 546712301.613 6  38670124.413          41.000        -692.740
    389096.26615  25182884.697          34.000       -1390.421
   3909632.360 7  21493893.851          45.000       -2814.247
  -6194045.154 7  21927708.533          46.000         478.020
   1547903.521 7  20673778.150          43.000       -2006.490
    128532.307 7  22488665.082          47.000       -3136.223
  -8753859.820 7  21573067.827          43.000        1583.818
 16  6  8  2 38  0.0000000  0 12G30G16G03G04G29S20G26G06G02G09G23G07
 -10646586.485 6  23140361.681          39.000        2876.540
  18630090.49114  24341466.834          27.000         297.933
  22445016.532 6  25188755.456          37.000       -4034.301
   9405558.88214  25479765.862          28.000       -2229.846
    704782.84515  24994451.714          31.000          70.071
 546753825.525 6  38678026.134          41.000        -691.814
    473534.01315  25198958.040          33.000       -1426.631
   4079479.838 7  21526215.040          45.000       -2846.754
  -6221671.183 7  21922451.410          46.000         442.902
   1668983.337 7  20696817.655          43.000       -2029.555
    317100.987 7  22524546.377          47.000       -3149.458
  -8848010.259 7  21555151.549          42.000        1554.831
 16  6  8  2 39  0.0000000  0 12G30G16G03G04G29S20G26G06G02G09G23G07
 -10818630.075 6  23107620.571          40.000        2859.100
  18613414.87015  24338300.231          31.000         254.643
  22687376.559 6  25234875.666          38.000       -4043.244
   9540462.29115  25505436.493          31.000       -2269.162
    701767.41514  24993867.952          28.000          30.181
 546795404.610 6  38685938.411          41.000        -693.866
    560204.94415  25215446.611          34.000       -1464.497
   4251333.158 7  21558916.399          45.000       -2882.033
  -6247098.059 7  21917611.976          46.000         404.609
   1791520.139 7  20720138.144          44.000       -2055.465
    506499.081 7  22560590.203          47.000       -3164.248
  -8940327.919 7  21537585.619          43.000        1522.163
 16  6  8  2 40  0.0000000  0 10G30G03G04S20G26G06G02G09G23G07
 -10989625.184 6  23075079.806          39.000        2841.344
  22930239.639 6  25281090.002          38.000       -4052.220
   9677651.96714  25531544.148          28.000       -2304.338
 546837152.241 6  38693881.873          41.000        -697.052
      1567.04615  25232384.560          34.000       -1501.981
   4425295.466 7  21592019.287          44.000       -2916.820
  -6270195.107 7  21913216.842          46.000         365.880
   1915624.148 6  20743748.201          40.000       -2080.993
    696836.517 7  22596805.809          45.000       -3179.921
  -9030678.006 7  21520392.583          44.000        1490.017
 16  6  8  2 41  0.0000000  0 12G30G16G03G04G29S20G26G06G02G09G23G07
 -11159762.242 6  23042703.946          38.000        2829.042
    -12295.87814  24333307.845          27.000         181.253
  23173386.676 6  25327358.627          38.000       -4053.711
   9816903.92014  25558041.239          29.000       -2337.655
    701927.91114  24994046.764          27.000         -43.540
 546878847.834 6  38701815.771          41.000        -692.898
     90995.63716  25249733.793          36.000       -1536.315
   4601138.576 7  21625481.511          44.000       -2945.760
  -6291164.242 7  21909228.822          47.000         332.369
   2041073.948 6  20767624.968          41.000       -2100.705
    887893.252 7  22633166.880          45.000       -3189.440
  -9119256.792 7  21503538.150          45.000        1462.250
 16  6  8  2 42  0.0000000  0 12G30G16G03G04G29S20G26G06G02G09G23G07
 -11329058.496 6  23010486.865          39.000        2812.969
    -22057.73815  24331457.477          35.000         142.425
  23416771.760 6  25373671.382          36.000       -4058.513
   9958164.71314  25584916.599          24.000       -2371.863
    705638.19414  24994756.307          25.000         -80.877
 546920460.223 6  38709735.500          41.000        -693.495
    184233.78015  25267474.435          34.000       -1571.217
   4778807.145 7  21659291.116          44.000       -2976.545
  -6310032.972 7  21905636.154          47.000         296.688
   2167821.661 7  20791743.612          42.000       -2123.779
   1079621.119 7  22669650.294          45.000       -3201.357
  -9206088.244 7  21487012.742          44.000        1431.979
 16  6  8  2 43  0.0000000  0 12G30G16G03G04S20G26G06G02G09G23G05G07
 -11497340.685 7  22978466.327          42.000        2795.603
    -29432.84214  24330046.836          29.000         103.225
  23660539.477 5  25420059.523          35.000       -4065.629
  10101573.29214  25612214.812          28.000       -2401.757
 546962152.144 6  38717669.294          41.000        -694.802
    279705.694 5  25285645.801          34.000       -1609.243
   4958435.996 7  21693475.813          46.000       -3009.729
  -6326639.963 7  21902476.547          47.000         258.152
   2296009.408 7  20816136.416          42.000       -2148.133
   1272163.400 7  22706290.831          45.000       -3215.622
    422483.77015  24177204.672          34.000        2679.870
  -9291005.336 7  21470852.619          44.000        1399.422
 16  6  8  2 44  0.0010000  0 12G30G16G03G04S20G26G06G02G09G23G05G07
 -11664632.394 6  22946631.633          41.000        2780.771
    -34459.68715  24329100.581          30.000          64.631
  23904644.72115  25466511.340          32.000       -4071.220
  10247074.93614  25639898.448          25.000       -2440.807
 547003876.819 6  38725608.637          41.000        -694.797
    377364.99215  25304226.601          34.000       -1645.288
   5139968.980 7  21728022.010          46.000       -3040.354
  -6341018.236 7  21899740.685          47.000         221.577
   2425588.062 6  20840795.040          41.000       -2170.032
   1465472.370 7  22743073.848          43.000       -3227.344
    261913.79914  24146619.204          29.000        2671.836
  -9374037.699 7  21455053.279          44.000        1368.830
 16  6  8  2 45  0.0010000  0 12G30G16G03G04S20G26G06G02G09G23G05G07
 -11831034.549 6  22914965.665          41.000        2765.950
    -37241.10115  24328573.183          32.000          27.983
  24148944.00015  25513001.878          30.000       -4073.890
  10394522.52713  25667953.879          20.000       -2477.743
 547045511.066 6  38733531.734          41.000        -691.989
    477074.60316  25323202.003          36.000       -1678.696
   5323254.952 7  21762897.352          45.000       -3068.278
  -6353285.404 7  21897404.817          46.000         187.025
   2556416.067 6  20865690.969          41.000       -2189.797
   1659405.340 7  22779981.007          44.000       -3236.798
    101601.05716  24116129.660          39.000        2670.525
  -9455295.482 7  21439591.932          45.000        1339.281
 16  6  8  2 46  0.0010000  0 11G30G16G04S20G26G06G02G09G23G05G07
 -11996527.644 6  22883466.888          39.000        2750.303
    -37771.079 5  24328466.039          33.000         -11.934
  10543867.12412  25696386.409          15.000       -2504.713
 547087050.675 6  38741436.055          41.000        -690.978
    578830.435 6  25342564.084          37.000       -1713.298
   5508280.226 7  21798105.591          44.000       -3098.556
  -6363431.722 7  21895475.398          47.000         150.789
   2688487.077 6  20890820.905          40.000       -2211.423
   1853957.497 6  22817000.178          41.000       -3248.488
    -58441.89314  24085676.169          28.000        2661.063
  -9534765.356 7  21424468.527          44.000        1309.177
 16  6  8  2 47  0.0010000  0 12G30G16G04G29S20G26G06G02G09G23G05G07
 -12161008.177 6  22852170.795          40.000        2732.779
    -35956.42615  24328806.929          32.000         -48.269
  10695244.74512  25725198.446          15.000       -2527.627
    756441.86614  25004664.541          26.000        -266.199
 547128569.656 6  38749336.274          41.000        -691.328
    682707.776 6  25362329.701          36.000       -1748.093
   5695109.442 7  21833657.513          44.000       -3128.352
  -6371365.948 7  21893965.326          47.000         114.055
   2821873.960 7  20916208.529          42.000       -2233.575
   2049203.120 6  22854148.498          39.000       -3259.901
   -218125.06314  24055276.668          27.000        2658.920
  -9612351.013 7  21409705.398          46.000        1277.568
 16  6  8  2 48  0.0010000  0 11G30G16G03S20G26G06G02G09G23G05G07
 -12324415.558 7  22821078.503          43.000        2714.753
    -31747.69115  24329617.805          32.000         -91.585
  24826755.34213  25652727.395          19.000       -4083.746
 547170114.155 6  38757242.183          41.000        -692.484
    788738.873 6  25382511.506          37.000       -1785.538
   5883763.924 7  21869557.759          45.000       -3158.830
  -6377040.686 8  21892885.751          48.000          75.947
   2956606.896 6  20941843.213          39.000       -2256.552
   2245172.852 6  22891444.377          41.000       -3271.412
   -377386.76316  24024980.943          38.000        2650.165
  -9687999.396 7  21395307.782          45.000        1245.013
 16  6  8  2 49  0.0010000  0 10G30G03G29S20G06G02G09G23G05G07
 -12486695.037 7  22790198.772          43.000        2695.160
  25072141.80514  25699425.399          26.000       -4092.108
    791609.60014  25011617.685          26.000        -343.078
 547211714.449 6  38765157.741          41.000        -693.633
   6074259.185 7  21905809.208          46.000       -3190.073
  -6380413.812 7  21892242.868          46.000          37.043
   3092709.877 6  20967744.711          40.000       -2279.448
   2441892.212 7  22928880.905          42.000       -3284.613
   -536183.88414  23994741.618          29.000        2643.779
  -9761663.666 7  21381290.580          45.000        1211.140
 16  6  8  2 50  0.0010000  0 12G30G16G03G29S20G26G06G02G09G23G05G07
 -12647902.191 7  22759517.991          42.000        2678.510
      9003.55613  24332576.821          23.000        -169.220
  25317767.76814  25746169.402          25.000       -4096.133
    813239.50514  25015727.578          28.000        -378.639
 547253299.826 6  38773069.408          41.000        -692.175
    110108.12915  25424089.302          32.000       -1855.556
   6266500.249 7  21942391.443          45.000       -3217.555
  -6381554.118 7  21892025.263          46.000           0.763
   3230096.999 6  20993888.016          38.000       -2298.512
   2639275.987 6  22966439.148          41.000       -3294.608
   -694580.10515  23964614.969          34.000        2637.423
  -9833407.186 7  21367638.106          45.000        1180.558
 16  6  8  2 51  0.0010000  0 11G30G16G29S20G26G06G02G09G23G05G07
 -12808085.308 7  22729038.673          43.000        2660.306
     20356.33215  24334750.647          35.000        -209.252
    837035.20713  25020261.930          22.000        -417.163
 547294811.813 6  38780971.495          41.000        -692.750
    222431.98315  25445465.278          32.000       -1889.832
   6460399.146 7  21979288.620          44.000       -3245.900
  -6380523.692 7  21892222.713          47.000         -36.102
   3368689.567 6  21020258.890          37.000       -2320.843
   2837246.789 7  23004115.146          44.000       -3304.971
   -852631.73414  23934526.972          29.000        2630.860
  -9903287.154 7  21354339.731          44.000        1148.654
 16  6  8  2 52  0.0010000  0 11G30G16G29S20G26G06G02G09G23G05G07
 -12967209.396 7  22698760.015          45.000        2642.555
     34018.79016  24337354.586          37.000        -247.957
    862998.57415  25025208.997          32.000        -450.129
 547336258.652 6  38788857.493          40.000        -690.603
    336779.49415  25467223.780          33.000       -1922.917
   6655951.279 7  22016500.703          44.000       -3273.105
  -6377301.638 8  21892837.222          48.000         -72.511
   3508492.175 6  21046864.434          38.000       -2341.006
   3035811.077 7  23041904.465          46.000       -3315.455
  -1010310.31416  23904535.318          38.000        2623.833
  -9971275.491 7  21341401.634          43.000        1117.031
 16  6  8  2 53  0.0010000  0 11G30G16G29S20G26G06G02G09G23G05G07
 -13125180.824 7  22668698.106          44.000        2623.132
     50096.31715  24340408.776          35.000        -286.093
    891233.86314  25030574.642          26.000        -489.602
 547377704.310 6  38796743.961          40.000        -689.921
    453214.35015  25489381.735          33.000       -1959.010
   6853210.447 7  22054039.524          44.000       -3301.021
  -6371807.775 7  21893882.211          47.000        -109.967
   3649568.325 6  21073709.727          36.000       -2360.009
   3235032.654 7  23079811.747          46.000       -3325.430
  -1167529.44415  23874607.688          35.000        2618.640
 -10037288.058 7  21328841.229          44.000        1083.913
 16  6  8  2 54  0.0000000  0 11G30G16G29S20G26G06G02G09G23G05G07
 -13282030.704 6  22339050.911          41.000        2604.210
     68544.69015  24044126.920          33.000        -327.581
    921677.20313  24736598.728          21.000        -528.178
 547419102.881 6  38504830.908          40.000        -689.608
    571675.72015  25212131.436          32.000       -1990.014
   7052105.505 7  21792095.841          44.000       -3328.250
  -6364087.970 7  21595557.336          46.000        -146.586
   3791856.64716  20800994.757          38.000       -2381.322
   3434851.831 7  22818045.567          47.000       -3335.265
  -1324327.57716  23544981.904          37.000        2609.152
 -10101364.076 7  21016856.149          44.000        1052.009
 16  6  8  2 55  0.0000000  0 12G30G16G04G29S20G26G06G02G09G23G05G07
 -13437746.026 7  22309424.734          45.000        2585.394
     89363.74114  24048072.519          28.000        -366.336
  11969843.90212  25669251.913          14.000       -2798.893
    954316.59911  24742787.710           8.000        -555.179
 547460443.516 6  38512695.145          40.000        -688.855
    692145.46414  25235058.335          29.000       -2023.928
   7252609.585 7  21830251.004          45.000       -3355.860
  -6354143.873 7  21597450.266          47.000        -185.320
   3935340.100 6  20828293.424          37.000       -2401.948
   3635253.262 7  22856179.249          46.000       -3345.583
  -1480697.70815  23515217.103          33.000        2602.187
 -10163499.968 7  21005029.125          43.000        1018.934
 16  6  8  2 56  0.0000000  0 11G30G16G29S20G26G06G02G09G23G05G07
 -13592236.383 7  22280026.684          45.000        2565.196
    112630.59616  24052516.531          39.000        -408.203
    989131.38814  24749434.777          24.000        -599.956
 547501802.904 6  38520565.054          40.000        -688.219
    814684.02914  25258377.165          29.000       -2059.220
   7454772.936 7  21868721.998          44.000       -3382.598
  -6341899.853 7  21599779.783          46.000        -222.656
   4080079.137 6  20855838.383          39.000       -2422.302
   3836298.725 7  22894435.484          45.000       -3355.363
  -1636556.258 6  23485565.379          39.000        2594.097
 -10223614.113 7  20993591.973          44.000         985.363
 16  6  8  2 57  0.0000000  0 11G30G16G29S20G26G06G02G09G23G05G07
 -13745554.578 7  22250852.799          46.000        2545.725
    138278.29715  24057397.218          34.000        -447.235
   1026214.95915  24756489.917          30.000        -637.156
 547543116.951 6  38528428.680          40.000        -688.250
    939208.45815  25282073.846          32.000       -2091.839
   7658502.553 7  21907487.063          42.000       -3408.853
  -6327424.069 7  21602534.823          47.000        -260.001
   4225991.117 6  20883606.950          40.000       -2442.061
   4037906.976 7  22932801.375          45.000       -3365.033
  -1791962.736 6  23455983.717          37.000        2586.713
 -10281768.834 7  20982526.074          45.000         952.979
 16  6  8  2 58  0.0000000  0 11G30G16G29S20G26G06G02G09G23G05G07
 -13897634.780 7  22221910.897          45.000        2524.139
    166358.29015  24062737.630          35.000        -487.958
   1065537.55415  24763975.415          33.000        -674.233
 547584426.743 6  38536289.567          40.000        -688.357
   1065752.71815  25306151.604          32.000       -2127.794
   7863824.043 7  21946557.996          42.000       -3435.047
  -6310666.169 7  21605723.990          47.000        -298.432
   4373112.131 6  20911601.043          41.000       -2461.617
   4240115.654 7  22971279.960          45.000       -3375.040
  -1946857.116 7  23426520.456          42.000        2576.045
 -10337907.374 7  20971841.690          43.000         918.687
 16  6  8  3  1  0.0000000  0 11G30G16G29S20G26G06G02G09G23G05G07
 -14346123.790 7  22136564.238          44.000        2459.530
     68579.78415  24081575.873          33.000        -609.882
     91601.22013  24789015.884          22.000        -788.954
 547708410.761 6  38559881.232          40.000        -688.151
    263710.34515  25380700.801          34.000       -2225.400
   8489259.800 6  22065573.210          41.000       -3512.564
  -6246532.587 8  21617928.341          48.000        -413.176
   4821756.710 6  20996977.053          41.000       -2520.971
   4850389.161 7  23087413.393          46.000       -3403.988
  -2408203.524 7  23338720.854          42.000        2550.050
 -10494000.675 7  20942139.186          44.000         816.027
 16  6  8  3  2  0.0000000  0 11G30G16G29S20G26G06G02G09G23G05G07
 -14493023.879 7  22108612.637          46.000        2437.510
    106468.921 5  24088787.647          35.000        -650.796
    139866.46915  24798183.600          32.000        -824.200
 547749710.857 6  38567740.443          40.000        -688.177
    398252.347 6  25406306.779          36.000       -2257.814
   8700773.027 6  22105822.015          41.000       -3537.212
  -6220577.067 8  21622868.812          48.000        -451.133
   4973646.481 6  21025878.488          40.000       -2540.211
   5054949.669 7  23126339.925          45.000       -3414.062
  -2560878.918 7  23309673.274          45.000        2540.096
 -10541945.350 7  20933017.032          45.000         782.190
 16  6  8  3  3  0.0000000  0 11G30G16G29S20G26G06G02G09G23G05G07
 -14638656.458 7  22080900.609          46.000        2416.923
    146744.865 5  24096452.218          35.000        -691.275
    190288.89114  24807789.893          27.000        -857.685
 547790945.586 6  38575586.585          39.000        -687.145
    534686.983 5  25432269.074          31.000       -2290.103
   8913705.656 7  22146345.330          43.000       -3559.924
  -6192390.514 7  21628231.578          47.000        -488.208
   5126627.674 7  21054992.710          42.000       -2558.464
   5260001.659 7  23165361.317          45.000       -3421.395
  -2713040.825 7  23280712.317          43.000        2532.531
 -10587894.542 7  20924271.716          44.000         749.616
 16  6  8  3  4  0.0000000  0 11G30G16G29S20G26G06G02G09G23G05G07
 -14782977.758 7  22053436.235          46.000        2393.799
    189433.753 5  24104575.906          35.000        -732.682
    242882.82914  24817774.262          27.000        -895.043
 547832133.891 6  38583425.258          40.000        -686.305
    673026.86215  25458591.453          31.000       -2325.588
   9128060.838 7  22187134.324          43.000       -3585.172
  -6161946.086 8  21634025.085          48.000        -527.009
   5280715.036 7  21084313.037          42.000       -2578.140
   5465562.148 7  23204477.219          44.000       -3430.896
  -2864650.516 7  23251867.578          46.000        2521.561
 -10631814.520 7  20915912.032          43.000         714.576
 16  6  8  3  5  0.0000000  0 11G30G16G29S20G26G06G02G09G23G05G07
 -14925895.105 7  22026236.493          45.000        2370.324
    234612.275 5  24113174.151          34.000        -773.298
    297709.06213  24828262.035          19.000        -926.302
 547873337.883 6  38591265.623          40.000        -686.491
    813331.19815  25485293.620          33.000       -2354.716
   9343890.697 7  22228205.034          42.000       -3609.421
  -6129169.075 8  21640262.665          48.000        -565.647
   5435972.527 6  21113855.994          41.000       -2597.372
   5671696.076 7  23243701.208          43.000       -3439.760
  -3015618.755 7  23223134.329          44.000        2511.221
 -10673623.979 7  20907958.327          46.000         679.115
 16  6  8  3  6  0.0000000  0 11G30G16G29S20G26G06G02G09G23G05G07
 -15067443.256 7  21999302.920          46.000        2347.996
    282228.769 6  24122235.386          36.000        -814.465
    354747.00715  24839069.496          30.000        -965.397
 547914511.553 6  38599100.108          40.000        -685.430
    955534.009 5  25512354.859          33.000       -2385.184
   9561120.025 6  22269539.941          41.000       -3631.315
  -6094111.253 8  21646935.367          48.000        -602.739
   5592336.517 6  21143613.048          40.000       -2615.672
   5878342.739 7  23283026.041          42.000       -3448.374
  -3165985.920 7  23194522.777          46.000        2501.358
 -10713368.451 7  20900395.019          45.000         645.279
 16  6  8  3  7  0.0000000  0 11G30G16G29S20G26G06G02G09G23G05G07
 -15207611.818 7  21972630.017          46.000        2323.766
    332276.897 5  24131752.596          31.000        -855.094
    413931.68813  24850331.430          22.000       -1011.928
 547955642.723 6  38606926.844          40.000        -686.081
   1099613.19015  25539768.174          30.000       -2418.097
   9779718.789 7  22311142.883          44.000       -3654.471
  -6056779.894 8  21654037.640          48.000        -641.896
   5749789.100 6  21173573.972          41.000       -2634.083
   6085485.487 6  23322442.907          40.000       -3457.630
  -3315744.962 7  23166024.949          46.000        2489.942
 -10751048.152 7  20893224.044          44.000         610.230
 16  6  8  3  8  0.0000000  0 11G30G16G29S20G26G06G02G09G23G05G07
 -15346309.959 7  21946236.476          46.000        2299.586
    384829.35216  24141758.690          36.000        -896.272
    475351.03215  24862020.807          31.000       -1041.773
 547996809.372 6  38614761.312          40.000        -687.077
   1245626.29114  25567555.342          29.000       -2449.061
   9999737.140 7  22353011.225          44.000       -3679.003
  -6017102.396 8  21661587.669          48.000        -680.718
   5908392.405 6  21203754.089          41.000       -2652.917
   6293188.794 6  23361963.986          39.000       -3466.604
  -3464809.818 7  23137657.090          46.000        2478.656
 -10786583.802 7  20886461.893          45.000         574.291
 16  6  8  3  9  0.0000000  0 11G30G16G29S20G26G06G02G09G23G05G07
 -15483532.401 7  21920124.424          45.000        2275.482
    439873.734 6  24152240.809          38.000        -937.465
    538982.44414  24874125.168          28.000       -1078.317
 548038007.284 6  38622600.647          40.000        -686.178
   1393546.47514  25595703.677          29.000       -2482.304
  10221139.956 7  22395143.589          44.000       -3700.552
  -5975091.807 8  21669583.219          48.000        -719.219
   6068123.652 7  21234152.107          42.000       -2670.767
   6501432.045 6  23401595.786          41.000       -3474.066
  -3613178.731 8  23109427.000          48.000        2467.244
 -10819981.453 7  20880107.099          44.000         538.751
 16  6  8  3 10  0.0000000  0 10G30G16G29S20G06G02G09G23G05G07
 -15619277.107 7  21894292.273          45.000        2249.439
    497394.423 6  24163176.023          36.000        -980.339
    604830.73215  24886656.222          30.000       -1116.974
 548079213.738 6  38630441.292          40.000        -687.897
  10443888.794 7  22437532.105          44.000       -3723.994
  -5930764.098 8  21678016.526          48.000        -758.546
   6228956.605 7  21264759.544          44.000       -2690.366
   6710190.776 6  23441316.757          40.000       -3483.883
  -3760853.026 7  23081320.353          47.000        2454.931
 -10851250.846 7  20874155.284          44.000         502.694
 16  6  8  3 11  0.0000000  0 11G30G16G29S20G26G06G02G09G23G05G07
 -15753530.467 7  21868744.474          45.000        2225.100
    557386.114 5  24174592.863          35.000       -1020.221
    672834.06315  24899590.376          31.000       -1151.145
 548120414.253 6  38638281.884          39.000        -686.454
   1694398.48714  25653059.559          26.000       -2540.573
  10667956.859 7  22480170.037          44.000       -3744.626
  -5884125.050 8  21686893.294          49.000        -795.872
   6390877.093 7  21295571.812          43.000       -2706.795
   6919453.240 7  23481142.848          42.000       -3490.739
  -3907822.846 8  23053355.315          48.000        2444.083
 -10880389.745 7  20868610.337          43.000         468.899
 16  6  8  3 12  0.0000000  0 10G30G16G29S20G06G02G09G23G05G07
 -15886315.712 7  21843475.756          45.000        2200.441
    619807.210 6  24186479.288          40.000       -1061.145
    742969.45613  24912928.833          21.000       -1182.643
 548161574.860 6  38646114.816          40.000        -685.577
  10893280.570 7  22523049.881          45.000       -3766.029
  -5835215.953 8  21696199.984          48.000        -834.179
   6553834.210 7  21326579.994          43.000       -2724.663
   7129170.150 6  23521046.051          41.000       -3498.618
  -4054114.044 7  23025514.522          47.000        2432.533
 -10907433.531 7  20863465.053          43.000         432.917
 16  6  8  3 13  0.0000000  0  9G30G16S20G06G02G09G23G05G07
 -16017587.555 7  21818495.682          45.000        2174.810
    684683.987 6  24198820.221          39.000       -1102.080
 548202716.954 6  38653943.263          40.000        -685.659
  11119864.890 7  22566166.333          45.000       -3787.615
  -5784010.908 7  21705944.046          47.000        -873.173
   6717845.657 7  21357790.494          43.000       -2742.845
   7339362.071 7  23561045.981          42.000       -3507.820
  -4199684.641 8  22997816.611          49.000        2419.608
 -10932348.907 7  20858721.299          42.000         397.214
 16  6  8  3 14  0.0000000  0 10G30G16G29S20G06G02G09G23G05G07
 -16147280.219 7  21793817.113          45.000        2148.278
    752063.245 6  24211637.371          37.000       -1142.927
    889552.96214  24940860.856          26.000       -1259.573
 548243894.764 6  38661779.074          40.000        -686.191
  11347735.335 7  22609526.058          42.000       -3808.632
  -5730464.302 7  21716132.164          47.000        -911.625
   6882949.881 7  21389208.372          44.000       -2761.189
   7550069.429 7  23601146.320          44.000       -3515.649
  -4344471.136 8  22970263.538          48.000        2406.910
 -10955081.970 7  20854396.681          43.000         360.684
 16  6  8  3 15  0.0000000  0 10G30G16G29S20G06G02G09G23G05G07
 -16275425.065 7  21769432.126          46.000        2122.824
    821893.840 6  24224926.812          37.000       -1184.238
    966152.60214  24955443.916          26.000       -1293.722
 548285053.945 6  38669609.353          40.000        -686.365
  11576820.446 7  22653118.307          42.000       -3828.721
  -5674626.871 7  21726757.409          47.000        -949.871
   7049088.376 7  21420825.026          45.000       -2777.463
   7761235.689 7  23641326.511          43.000       -3523.557
  -4488507.407 8  22942854.673          48.000        2394.144
 -10975676.920 7  20850479.753          44.000         324.889
 16  6  8  3 16  0.0000000  0 10G30G16G29S20G06G02G09G23G05G07
 -16402008.493 7  21745344.387          46.000        2096.480
    894169.443 6  24238690.479          39.000       -1224.553
   1044860.95913  24970417.476          18.000       -1326.486
 548326195.760 6  38677439.178          40.000        -684.972
  11807093.633 7  22696937.863          42.000       -3848.212
  -5616503.873 7  21737818.858          47.000        -987.662
   7216247.753 7  21452635.272          45.000       -2794.211
   7972850.134 7  23681600.043          45.000       -3530.585
  -4631781.813 8  22915591.098          48.000        2381.348
 -10994131.772 7  20846967.757          44.000         289.531
 16  6  8  3 17  0.0000000  0 10G30G16G29S20G06G02G09G23G05G07
 -16526962.809 7  21721565.760          45.000        2068.771
    968937.677 5  24252910.295          35.000       -1265.693
   1125787.89414  24985813.908          26.000       -1366.200
 548367381.865 6  38685278.479          40.000        -687.601
  12038582.594 7  22740989.768          42.000       -3867.790
  -5556048.718 7  21749324.554          47.000       -1027.253
   7384469.000 7  21484647.243          45.000       -2812.639
   8184955.147 7  23721960.896          43.000       -3539.619
  -4774228.473 7  22888479.672          47.000        2366.782
 -11010392.806 7  20843870.710          42.000         252.048
 16  6  8  3 18  0.0000000  0 10G30G16G29S20G06G02G09G23G05G07
 -16650300.813 7  21698096.718          46.000        2041.556
   1046165.396 6  24267609.102          41.000       -1307.884
   1208811.65614  25001622.724          26.000       -1401.738
 548408574.238 6  38693116.332          40.000        -686.130
  12271234.653 7  22785264.286          43.000       -3887.579
  -5493294.001 7  21761265.808          47.000       -1065.452
   7553712.707 7  21516850.066          44.000       -2829.541
   8397514.533 6  23762407.551          41.000       -3546.583
  -4915862.002 8  22861533.273          48.000        2353.548
 -11024484.512 7  20841191.735          44.000         216.767
 16  6  8  3 19  0.0000000  0 10G30G16G29S20G06G02G09G23G05G07
 -16771979.385 7  21674942.513          46.000        2014.516
   1125875.204 6  24282776.081          40.000       -1349.074
   1293953.44813  25017825.268          23.000       -1439.565
 548449790.890 6  38700958.756          40.000        -686.043
  12505053.154 7  22829757.072          43.000       -3905.809
  -5428217.015 7  21773648.448          46.000       -1103.441
   7723995.876 7  21549256.918          45.000       -2846.478
   8610547.532 6  23802946.833          41.000       -3553.720
  -5056640.463 8  22834743.262          48.000        2339.845
 -11036376.950 7  20838927.046          44.000         180.680
 16  6  8  3 20  0.0000000  0 10G30G16G29S20G06G02G09G23G05G07
 -16892029.882 7  21652093.512          44.000        1987.250
   1208014.825 6  24298406.293          38.000       -1390.106
   1381189.95012  25034414.196          16.000       -1476.908
 548490989.115 6  38708799.697          40.000        -686.938
  12739966.974 7  22874460.237          42.000       -3924.520
  -5360870.116 7  21786463.905          46.000       -1141.238
   7895260.702 7  21581844.728          44.000       -2862.701
   8823998.078 7  23843568.671          43.000       -3561.144
  -5196596.558 7  22808108.140          47.000        2325.782
 -11046115.100 7  20837073.728          42.000         145.071
 16  6  8  3 21  0.0000000  0 10G30G16G29S20G06G02G09G23G05G07
 -17010424.575 7  21629565.804          45.000        1959.694
   1292591.301 6  24314502.845          40.000       -1430.117
   1470504.66814  25051410.045          26.000       -1506.297
 548532176.114 6  38716635.316          40.000        -685.996
  12975964.473 7  22919371.705          43.000       -3942.750
  -5291246.213 7  21799710.871          44.000       -1179.618
   8067509.346 7  21614624.055          44.000       -2879.053
   9037871.583 6  23884261.794          41.000       -3568.926
  -5335703.314 7  22781638.166          47.000        2310.926
 -11053683.865 7  20835632.811          43.000         107.824
 16  6  8  3 22  0.0000000  0  9G30G16S20G06G02G09G23G05G07
 -17127101.696 7  21607362.740          44.000        1931.003
   1379644.417 6  24331065.213          36.000       -1471.262
 548573403.241 6  38724480.777          40.000        -687.066
  13213067.846 6  22964486.835          41.000       -3959.986
  -5219304.448 7  21813400.689          44.000       -1217.841
   8240777.802 7  21647598.213          45.000       -2895.655
   9252205.218 7  23925049.235          43.000       -3575.969
  -5473899.528 8  22755339.117          48.000        2296.052
 -11059034.822 7  20834614.643          42.000          71.063
 16  6  8  3 23  0.0000000  0  9G30G16S20G06G02G09G23G05G07
 -17242088.993 7  21585481.982          45.000        1902.355
   1469125.135 5  24348090.501          35.000       -1512.675
 548614635.059 6  38732328.978          40.000        -687.031
  13451210.020 6  23009801.909          40.000       -3977.767
  -5145094.232 7  21827525.629          45.000       -1255.565
   8415012.894 7  21680748.916          43.000       -2911.447
   9466948.904 7  23965913.579          42.000       -3582.119
  -5611212.782 8  22729212.686          49.000        2281.260
 -11062209.785 7  20834012.279          43.000          34.457
 16  6  8  3 24  0.0000000  0 10G30G16G29S20G06G02G09G23G05G07
 -17355375.442 7  21563923.948          44.000        1872.993
   1561022.708 6  24365583.489          40.000       -1552.962
   1748263.85115  25104795.025          31.000       -1608.127
 548655861.434 6  38740173.182          40.000        -687.507
  13690362.844 6  23055312.810          40.000       -3994.987
  -5068625.737 7  21842073.788          44.000       -1294.406
   8590200.373 7  21714089.877          46.000       -2928.394
   9682090.973 7  24006857.723          43.000       -3589.770
  -5747632.710 8  22703248.054          48.000        2265.502
 -11063210.756 7  20833822.386          44.000          -1.757
 16  6  8  3 25  0.0010000  0  9G30G16S20G06G02G09G23G05G07
 -17466897.311 7  21542702.337          45.000        1844.365
   1655382.721 6  24383536.605          38.000       -1592.342
 548697138.410 6  38748028.887          40.000        -688.443
  13930556.997 6  23101021.684          41.000       -4011.451
  -4989853.961 7  21857066.405          45.000       -1331.593
   8766383.923 7  21747617.295          45.000       -2943.727
   9897677.77316  24047880.463          41.000       -3596.821
  -5883095.881 8  22677473.105          49.000        2250.100
 -11061985.781 7  20834055.050          43.000         -38.528
 16  6  8  3 26  0.0010000  0  9G30G16S20G06G02G09G23G05G07
 -17576655.532 7  21521817.515          45.000        1814.537
   1752174.591 6  24401956.409          40.000       -1633.650
 548738438.573 6  38755887.173          40.000        -688.683
  14171740.970 6  23146915.408          39.000       -4028.447
  -4908807.265 7  21872488.907          45.000       -1369.963
   8943528.218 7  21781320.855          43.000       -2960.766
  10113675.264 6  24088980.332          41.000       -3602.965
  -6017601.773 8  22651876.166          48.000        2233.623
 -11058553.670 7  20834708.945          43.000         -76.024
 16  6  8  3 27  0.0010000  0  9G30G16S20G06G02G09G23G05G07
 -17684591.496 7  21501276.864          45.000        1784.098
   1851437.722 7  24420848.818          42.000       -1674.550
 548779797.264 6  38763756.297          40.000        -689.073
  14413940.451 7  23193008.430          42.000       -4044.789
  -4825446.903 7  21888352.324          46.000       -1407.874
   9121672.320 7  21815225.651          45.000       -2977.093
  10330125.402 6  24130173.735          41.000       -3611.186
  -6151091.372 8  22626475.228          48.000        2216.664
 -11052867.735 7  20835789.619          42.000        -112.947
 16  6  8  3 28  0.0010000  0  9G30G16S20G06G02G09G23G05G07
 -17790730.105 7  21481080.733          46.000        1752.974
   1953125.385 6  24440197.636          39.000       -1716.055
 548821182.188 6  38771631.423          40.000        -691.073
  14657092.160 6  23239275.833          40.000       -4061.133
  -4739819.047 7  21904645.749          45.000       -1446.646
   9300767.159 7  21849302.122          43.000       -2993.637
  10546981.862 6  24171437.358          39.000       -3617.967
  -6283588.478 7  22601260.274          47.000        2199.188
 -11044967.503 7  20837293.619          43.000        -150.939
 16  6  8  3 29  0.0010000  0  9G30G16S20G06G02G09G23G05G07
 -17895011.102 7  21461235.996          46.000        1722.726
   2057274.351 6  24460016.320          39.000       -1755.896
 548862647.580 6  38779521.504          40.000        -690.969
  14901218.059 6  23285732.169          41.000       -4076.606
  -4651885.944 7  21921381.171          47.000       -1484.180
   9480848.873 7  21883574.978          46.000       -3009.315
  10764282.935 6  24212791.913          40.000       -3626.104
  -6415031.897 7  22576248.772          47.000        2182.033
 -11034805.766 7  20839225.794          42.000        -188.072
 16  6  8  3 30  0.0010000  0  9G30G16S20G06G02G09G23G05G07
 -17997485.431 7  21441733.510          45.000        1693.358
   2163810.582 6  24480291.588          40.000       -1794.389
 548904122.765 6  38787415.808          40.000        -690.913
  15146228.987 6  23332355.085          40.000       -4090.603
  -4561720.801 7  21938538.295          46.000       -1520.955
   9661842.926 7  21918019.387          46.000       -3023.237
  10981957.067 7  24254220.178          42.000       -3630.613
  -6545470.592 7  22551426.972          47.000        2166.134
 -11022448.285 7  20841576.914          42.000        -223.075
 16  6  8  3 31  0.0010000  0  9G30G16S20G06G02G09G23G05G07
 -18098156.009 7  21422576.801          45.000        1661.761
   2272708.166 6  24501010.965          38.000       -1834.898
 548945594.623 6  38795307.774          40.000        -691.663
  15392084.107 6  23379141.440          41.000       -4105.398
  -4469349.382 7  21956114.922          46.000       -1558.769
   9843723.006 7  21952625.507          44.000       -3039.058
  11199979.551 5  24295705.297          34.000       -3637.080
  -6674906.251 8  22526796.234          48.000        2147.848
 -11007912.468 7  20844341.954          42.000        -260.838
 16  6  8  3 32  0.0010000  0  9G30G16S20G06G02G09G23G05G07
 -18196939.066 7  21403780.334          45.000        1631.046
   2384027.902 6  24522195.791          38.000       -1874.369
 548987127.235 6  38803210.244          40.000        -691.667
  15638829.570 6  23426092.018          39.000       -4119.100
  -4374710.917 7  21974125.955          47.000       -1595.484
  10026549.755 7  21987419.182          45.000       -3054.473
  11418413.87916  24337278.556          40.000       -3642.959
  -6803252.243 8  22502371.687          48.000        2130.280
 -10991128.840 7  20847538.886          43.000        -297.776
 16  6  8  3 33  0.0010000  0  9G30G16S20G06G02G09G23G05G07
 -18293856.812 7  21385336.222          44.000        1600.090
   2497723.409 5  24543833.625          35.000       -1914.716
 549028675.261 6  38811116.240          40.000        -692.241
  15886405.556 6  23473205.739          39.000       -4132.357
  -4277849.483 7  21992556.945          47.000       -1632.674
  10210278.078 7  22022377.291          42.000       -3069.158
  11637217.897 7  24378914.618          42.000       -3650.043
  -6930529.155 8  22478152.443          49.000        2112.373
 -10972134.037 7  20851151.831          42.000        -335.139
 16  6  8  3 34  0.0010000  0  9G30G16S20G06G02G09G23G05G07
 -18388866.844 7  21367256.836          45.000        1567.224
   2613814.37815  24565922.215          31.000       -1956.946
 549070273.862 6  38819033.090          40.000        -693.659
  16134817.198 6  23520478.710          40.000       -4145.970
  -4178746.739 7  22011414.837          46.000       -1670.332
  10394927.695 7  22057518.382          43.000       -3084.944
  11856413.624 6  24420638.124          37.000       -3656.068
  -7056692.061 8  22454144.713          49.000        2093.279
 -10950900.465 6  20855190.597          41.000        -372.750
 16  6  8  3 35  0.0000000  0  9G30G16S20G06G02G09G23G05G07
 -18482000.935 7  21049742.865          46.000        1536.742
   2732243.25016  24288668.182          37.000       -1992.811
 549111887.366 6  38527159.526          40.000        -693.502
  16383995.730 6  23268103.226          40.000       -4158.729
  -4077457.283 7  21730898.328          47.000       -1706.073
  10580444.736 7  21793026.321          42.000       -3099.136
  12075822.74416  24162617.965          36.000       -3661.466
  -7181768.738 7  22130550.248          47.000        2075.493
 -10927474.488 7  20559857.789          42.000        -408.374
 16  6  8  3 36  0.0000000  0 10G30G16G29S20G06G02G09G23G05G07
 -18573272.252 7  21032373.913          47.000        1504.722
   2852974.967 6  24311643.348          39.000       -2032.684
   3040903.48114  25053275.857          26.000       -2008.092
 549153482.949 6  38535075.520          40.000        -693.779
  16633891.031 6  23315652.940          38.000       -4172.446
  -3974017.227 7  21750580.028          46.000       -1742.700
  10766793.772 7  21828490.242          44.000       -3113.474
  12295665.519 6  24204445.980          41.000       -3666.841
  -7305769.984 7  22106953.540          47.000        2056.690
 -10901884.285 7  20564727.988          43.000        -445.038
 16  6  8  3 37  0.0000000  0 10G30G16G29S20G06G02G09G23G05G07
 -18662601.742 7  21015375.621          47.000        1472.435
   2976063.074 6  24335060.301          37.000       -2071.156
   3162278.19514  25076354.206          24.000       -2037.318
 549195131.682 6  38543000.554          40.000        -694.449
  16884545.601 6  23363349.673          36.000       -4184.214
  -3868370.980 7  21770685.942          47.000       -1779.055
  10954032.155 7  21864118.386          44.000       -3127.976
  12515875.288 6  24246349.170          36.000       -3672.398
  -7428613.555 7  22083578.868          47.000        2037.729
 -10874065.410 6  20570018.999          41.000        -481.941
 16  6  8  3 38  0.0000000  0  9G30G16S20G06G02G09G23G05G07
 -18750011.647 7  20998740.921          46.000        1440.858
   3101461.584 6  24358925.254          39.000       -2108.366
 549236793.491 6  38550929.567          39.000        -694.208
  17135900.894 6  23411179.969          36.000       -4194.002
  -3760564.150 8  21791202.826          48.000       -1814.728
  11142116.357 6  21899908.626          41.000       -3141.540
  12736335.35714  24288291.693          26.000       -3678.165
  -7550317.079 8  22060418.503          48.000        2018.675
 -10844054.801 6  20575730.385          40.000        -518.471
 16  6  8  3 39  0.0000000  0 10G30G16G29S20G06G02G09G23G05G07
 -18835452.114 7  20982482.362          46.000        1408.051
   3229196.361 6  24383234.733          41.000       -2147.693
   3409068.47414  25123622.099          26.000       -2100.009
 549278511.105 6  38558867.828          40.000        -695.564
  17387970.612 6  23459149.396          38.000       -4206.615
  -3650570.701 7  21812129.616          46.000       -1851.177
  11331074.915 7  21935868.342          43.000       -3156.172
  12957228.07916  24330344.641          36.000       -3683.300
  -7670827.082 8  22037486.648          48.000        1998.633
 -10811817.713 6  20581864.835          41.000        -555.526
 16  6  8  3 40  0.0000000  0 10G30G16G29S20G06G02G09G23G05G07
 -18918960.319 7  20966591.862          47.000        1375.895
   3359205.678 6  24407972.197          39.000       -2185.442
   3535694.18613  25147811.748          22.000       -2137.243
 549320228.692 6  38566806.543          40.000        -693.627
  17640681.805 6  23507242.772          40.000       -4217.095
  -3538450.983 7  21833467.742          46.000       -1885.709
  11520849.942 6  21971980.730          41.000       -3169.229
  13178422.231 6  24372440.046          37.000       -3688.396
  -7790176.672 8  22014775.242          48.000        1979.721
 -10777406.395 6  20588413.605          41.000        -590.923
 16  6  8  3 41  0.0000000  0  9G30G16S20G06G02G09G23G05G07
 -19000539.456 7  20951068.933          47.000        1342.872
   3491461.338 6  24433140.105          40.000       -2222.904
 549361937.427 6  38574745.205          40.000        -695.503
  17893995.747 6  23555448.597          40.000       -4226.185
  -3424232.569 7  21855202.389          46.000       -1921.549
  11711417.561 7  22008245.615          42.000       -3183.698
  13399896.36315  24414575.953          31.000       -3694.554
  -7908364.669 7  21992285.524          47.000        1959.441
 -10740839.366 7  20595373.624          42.000        -627.397
 16  6  8  3 42  0.0000000  0 10G30G16G29S20G06G02G09G23G05G07
 -19080109.173 7  20935926.734          47.000        1310.116
   3626019.081 6  24458748.212          40.000       -2261.910
   3794558.03014  25197142.135          25.000       -2190.527
 549403700.668 6  38582692.314          40.000        -695.442
  18147957.345 6  23603777.499          40.000       -4237.833
  -3307858.879 7  21877347.885          47.000       -1956.664
  11902838.009 7  22044671.427          42.000       -3196.951
  13621713.13214  24456774.348          29.000       -3698.639
  -8025305.138 7  21970027.841          44.000        1939.287
 -10702051.040 6  20602752.414          41.000        -664.735
 16  6  8  3 43  0.0000000  0  9G30G16S20G06G02G09G23G05G07
 -19157700.301 8  20921162.349          48.000        1276.385
   3762823.183 6  24484779.243          37.000       -2299.261
 549445480.614 6  38590642.511          39.000        -696.506
  18402500.883 6  23652210.561          38.000       -4247.868
  -3189384.124 7  21899893.531          47.000       -1992.447
  12095060.396 6  22081248.322          40.000       -3211.118
  13843686.37415  24499046.785          30.000       -3703.674
  -8141023.944 7  21948010.046          45.000        1918.362
 -10661087.372 6  20610547.967          41.000        -702.096
 16  6  8  3 44  0.0000000  0  9G30G16S20G06G02G09G23G05G07
 -19233273.192 7  20906778.501          46.000        1243.122
   3901888.678 6  24511246.878          39.000       -2336.218
 549487299.806 6  38598600.525          39.000        -696.492
  18657631.128 6  23700756.892          37.000       -4256.756
  -3068792.637 7  21922838.788          45.000       -2027.164
  12288104.816 6  22117983.334          41.000       -3222.972
  14066114.67816  24541389.390          36.000       -3708.972
  -8255476.143 7  21926230.586          46.000        1897.189
 -10617924.079 7  20618763.704          42.000        -737.279
 16  6  8  3 45  0.0000000  0  9G30G16S20G06G02G09G23G05G07
 -19306876.317 7  20892770.530          44.000        1210.508
   4043142.167 6  24538121.662          39.000       -2372.101
 549529099.327 6  38606554.718          39.000        -696.029
  18913265.293 6  23749402.672          37.000       -4265.059
  -2946157.451 7  21946174.859          44.000       -2060.806
  12481903.530 7  22154865.398          43.000       -3236.022
  14288794.872 6  24583768.395          41.000       -3713.124
  -8368704.618 7  21904683.808          46.000        1877.234
 -10572624.624 6  20627379.138          40.000        -772.174
 16  6  8  3 46  0.0000000  0 10G30G16G29S20G06G02G09G23G05G07
 -19378507.686 7  20879143.481          47.000        1176.944
   4186561.104 6  24565413.506          40.000       -2409.543
   4331674.52813  25299933.969          21.000       -2301.472
 549570866.963 6  38614502.577          39.000        -696.138
  19169371.102 6  23798143.468          38.000       -4272.668
  -2821499.914 7  21969896.057          44.000       -2094.931
  12676439.416 6  22191880.800          41.000       -3248.144
  14511711.737 5  24626193.364          34.000       -3716.769
  -8480701.212 7  21883371.543          46.000        1856.100
 -10525202.512 7  20636408.980          43.000        -808.877
 16  6  8  3 47  0.0000000  0 10G30G16G29S20G06G02G09G23G05G07
 -19448031.731 7  20865912.534          46.000        1141.291
   4332255.381 7  24593138.639          42.000       -2446.440
   4470753.04913  25326448.563          18.000       -2331.844
 549612722.562 6  38622467.904          39.000        -697.681
  19426050.375 6  23846990.205          37.000       -4283.073
  -2694708.685 7  21994024.927          44.000       -2130.435
  12871829.569 7  22229066.569          44.000       -3263.245
  14734984.43815  24668683.458          35.000       -3723.818
  -8591324.173 7  21862321.363          46.000        1832.665
 -10475537.509 7  20645857.732          42.000        -846.741
 16  6  8  3 48  0.0000000  0 10G30G16G29S20G06G02G09G23G05G07
 -19515538.936 7  20853065.596          46.000        1108.451
   4480109.420 6  24621273.433          41.000       -2482.710
   4611548.30314  25353277.226          25.000       -2365.349
 549654569.693 6  38630430.595          39.000        -697.146
  19683179.066 6  23895921.069          39.000       -4289.143
  -2565898.811 7  22018537.108          44.000       -2163.570
  13067964.939 7  22266388.327          44.000       -3274.449
  14958507.897 6  24711218.503          41.000       -3726.873
  -8700657.757 7  21841514.456          45.000        1811.501
 -10423735.421 7  20655717.053          43.000        -881.106
 16  6  8  3 49  0.0000000  0 10G30G16G29S20G06G02G09G23G05G07
 -19580937.548 7  20840621.689          46.000        1071.721
   4630190.218 6  24649833.366          41.000       -2520.029
   4754376.65812  25380470.563          17.000       -2392.659
 549696501.410 6  38638411.016          39.000        -699.336
  19940815.609 6  23944945.502          39.000       -4298.573
  -2435002.594 7  22043445.933          44.000       -2198.804
  13264919.337 7  22303869.894          43.000       -3289.712
  15182357.166 6  24753814.939          41.000       -3734.069
  -8808602.743 7  21820975.515          46.000        1787.458
 -10369719.327 7  20665996.627          43.000        -919.217
 16  6  8  3 50  0.0000000  0 10G30G16G29S20G06G02G09G23G05G07
 -19644331.523 7  20828558.074          46.000        1040.402
   4782368.750 7  24678793.364          42.000       -2553.059
   4898831.95013  25407904.504          19.000       -2414.863
 549738395.624 6  38646382.607          39.000        -696.833
  20198823.093 6  23994040.782          37.000       -4301.772
  -2302148.355 7  22068726.098          44.000       -2230.261
  13462571.282 6  22341477.992          41.000       -3299.347
  15406413.53115  24796469.553          30.000       -3733.557
  -8915256.616 7  21800676.095          45.000        1767.688
 -10313608.602 7  20676672.827          42.000        -951.946
 16  6  8  3 51  0.0000000  0  9G30G16S20G06G02G09G23G05G07
 -19705659.466 7  20816886.461          45.000        1004.341
   4936681.319 6  24708156.060          41.000       -2590.240
 549780294.844 6  38654356.327          39.000        -699.154
  20457230.349 6  24043211.290          36.000       -4310.512
  -2167298.869 7  22094387.847          44.000       -2264.376
  13660964.548 7  22379232.725          42.000       -3313.125
  15630723.55615  24839125.598          35.000       -3741.755
  -9020550.078 7  21780641.500          46.000        1743.052
 -10255357.295 7  20687760.102          43.000        -989.080
 16  6  8  3 52  0.0000000  0  7G30S20G06G02G09G05G07
 -19764924.789 7  20805609.467          46.000         971.204
 549822193.450 6  38662329.000          39.000        -697.263
  20716001.702 6  24092454.845          37.000       -4313.552
  -2030481.556 7  22120419.838          43.000       -2296.205
  13860078.830 6  22417120.707          37.000       -3324.669
  -9124479.675 7  21760863.912          46.000        1721.216
 -10194984.332 7  20699249.256          44.000       -1023.695
 16  6  8  3 53  0.0000000  0  9G30G16S20G06G02G09G23G05G07
 -19822181.240 7  20794712.749          45.000         936.625
    158243.73317  24768074.105          43.000       -2658.348
 549864023.018 6  38670288.184          40.000        -697.595
  20975051.483 6  24141750.785          37.000       -4319.734
  -1891774.492 7  22146818.841          45.000       -2328.082
  14059843.873 6  22455136.809          39.000       -3335.526
    224422.73415  24924648.347          30.000       -3746.760
  -9227090.605 7  21741338.078          46.000        1698.376
 -10132557.990 7  20711127.741          43.000       -1058.303
 16  6  8  3 54  0.0000000  0 10G30G16G29S20G06G02G09G23G05G07
 -19877361.093 7  20784212.778          45.000         902.436
    318755.905 7  24798618.390          42.000       -2692.675
   5492108.58414  25520867.668          26.000       -2525.192
 549905848.918 6  38678248.327          40.000        -697.742
  21234415.826 6  24191108.935          38.000       -4324.947
  -1751134.514 7  22173581.472          45.000       -2360.109
  14260310.690 6  22493279.199          39.000       -3347.718
    449356.16816  24967437.485          36.000       -3752.244
  -9328306.955 7  21722078.849          46.000        1675.613
 -10068026.258 7  20723407.878          44.000       -1092.681
 16  6  8  3 55  0.0000000  0 10G30G16G29S20G06G02G09G23G05G07
 -19930507.961 7  20774100.011          46.000         869.003
    481268.155 6  24829540.665          40.000       -2725.133
   5643523.10011  25549466.900           9.000       -2497.504
 549947629.253 6  38686198.297          40.000        -696.448
  21494019.799 6  24240510.484          37.000       -4329.084
  -1608628.934 7  22200699.564          46.000       -2390.251
  14461419.742 6  22531556.879          39.000       -3356.520
    674452.942 6  25010263.722          39.000       -3751.842
  -9428164.329 7  21703075.911          46.000        1652.805
 -10001447.922 7  20736077.975          45.000       -1126.752
 16  6  8  3 56  0.0000000  0 10G30G16G29S20G06G02G09G23G05G07
 -19981562.329 7  20764386.312          47.000         833.097
    645815.097 7  24860856.319          42.000       -2759.679
   5796791.73911  25579078.506          11.000       -2579.969
 549989407.209 6  38694149.786          40.000        -697.247
  21753891.997 6  24289964.489          37.000       -4333.644
  -1464223.040 7  22228177.131          45.000       -2423.035
  14663215.19215  22569954.391          34.000       -3369.829
    899759.419 5  25053140.914          34.000       -3756.111
  -9526594.581 7  21684344.550          45.000        1627.947
  -9932779.256 7  20749143.180          44.000       -1162.434
 16  6  8  3 57  0.0000000  0 10G30G16G29S20G06G02G09G23G05G07
 -20030483.456 7  20755074.474          46.000         798.099
    812412.090 7  24892558.200          42.000       -2793.552
   5951755.90611  25608618.706          10.000       -2591.310
 550031212.143 6  38702104.258          40.000        -697.157
  22014042.607 6  24339466.394          37.000       -4338.909
  -1317899.998 7  22256023.333          45.000       -2454.244
  14865721.969 6  22608482.098          36.000       -3381.090
   1125303.80214  25096068.345          25.000       -3760.344
  -9623547.651 7  21665895.901          47.000        1603.914
  -9861994.063 7  20762614.173          44.000       -1196.726
 16  6  8  3 58  0.0000000  0  9G30G16S20G06G02G09G23G05G07
 -20077314.945 7  20746162.543          46.000         762.719
    980990.249 6  24924639.291          41.000       -2827.000
 550072995.195 6  38710056.113          40.000        -696.680
  22274397.847 6  24389012.954          39.000       -4342.274
  -1169727.839 7  22284220.128          45.000       -2485.170
  15068881.570 6  22647151.851          41.000       -3391.475
   1351003.58515  25138998.725          35.000       -3763.652
  -9719057.830 7  21647720.539          47.000        1579.249
  -9789151.145 7  20776474.497          43.000       -1231.764
 16  6  8  4  1  0.0000000  0  9G30G16S20G06G02G09G23G05G07
 -20204985.476 7  20721866.169          44.000         655.605
   1498647.732 6  25023148.335          37.000       -2924.663
 550198414.988 6  38733922.305          40.000        -697.425
  23056680.300 6  24537875.387          37.000       -4351.233
   -714071.189 7  22370928.986          45.000       -2576.944
  15682419.943 7  22763904.644          43.000       -3425.543
   2029430.12813  25268147.507          23.000       -3771.072
  -9996549.906 7  21594916.163          47.000        1503.648
  -9558140.589 6  20820433.427          41.000       -1335.975
 16  6  8  4  2  0.0000000  0 10G30G16G13S20G06G02G09G23G05G07
 -20243218.232 7  20714593.547          46.000         619.306
   1675141.396 6  25056732.692          38.000       -2957.419
   -145625.32517  23677500.952          42.000        2427.719
 550240285.802 6  38741890.231          40.000        -697.472
  23317799.242 5  24587564.009          35.000       -4351.350
   -558503.111 7  22400532.530          46.000       -2607.124
  15888288.747 6  22803074.083          37.000       -3436.634
   2256000.49915  25311220.630          33.000       -3778.113
 -10085951.780 7  21577903.335          47.000        1476.828
  -9476976.949 7  20835881.774          42.000       -1369.444
 16  6  8  4  3  0.0000000  0 10G30G16G13S20G06G02G09G23G05G07
 -20279334.326 7  20707718.300          45.000         584.758
   1853518.405 6  25090673.139          37.000       -2988.433
   -291036.298 7  23649828.885          43.000        2419.422
 550282137.331 6  38749854.406          40.000        -696.506
  23579004.47415  24637267.534          34.000       -4352.967
   -401179.481 7  22430468.414          45.000       -2635.922
  16094767.758 6  22842370.351          39.000       -3445.420
   2482722.134 5  25354366.660          33.000       -3780.709
 -10173833.727 7  21561180.652          47.000        1452.568
  -9393803.984 6  20851706.277          41.000       -1402.673
 16  6  8  4  4  0.0000000  0 10G30G16G13S20G06G02G09G23G05G07
 -20313279.935 7  20701260.446          46.000         547.406
   2033807.563 5  25124982.117          35.000       -3020.927
   -435882.946 7  23622263.212          46.000        2409.270
 550324011.398 6  38757822.769          40.000        -698.168
  23840320.53315  24686988.527          32.000       -4355.995
   -242069.893 7  22460747.403          45.000       -2666.680
  16301897.895 7  22881789.922          43.000       -3457.208
   2709637.57414  25397542.268          26.000       -3783.597
 -10260131.415 8  21544759.473          48.000        1424.646
  -9308582.040 7  20867924.334          42.000       -1438.222
 16  6  8  4  5  0.0010000  0  9G30G13S20G06G02G09G23G05G07
 -20344955.196 7  20695234.223          47.000         508.795
   -580067.037 7  23594826.445          47.000        2397.834
 550365994.307 6  38765811.548          40.000        -701.153
  24101826.11415  24736756.112          33.000       -4358.708
    -81095.552 7  22491381.558          46.000       -2698.228
  16509770.370 6  22921339.776          41.000       -3469.977
   2936784.27112  25440760.577          15.000       -3794.170
 -10344734.470 7  21528656.256          46.000        1396.168
  -9221224.056 6  20884548.006          41.000       -1474.730
 16  6  8  4  6  0.0010000  0 10G30G16G13S20G06G02G09G23G05G07
 -20374514.836 7  20689605.708          46.000         475.560
    183788.16916  25194698.878          37.000       -3081.836
   -723738.096 7  23567487.608          47.000        2390.394
 550407930.257 6  38773791.306          40.000        -698.445
  24363328.64115  24786516.542          33.000       -4359.076
     81558.705 7  22522332.206          44.000       -2724.915
  16718210.363 7  22961011.101          44.000       -3478.852
   3164081.10314  25484040.590          26.000       -3788.959
 -10427785.714 7  21512853.757          47.000        1371.048
  -9131903.670 6  20901545.146          41.000       -1504.702
 16  6  8  4  7  0.0010000  0  9G30G16G13S20G06G02G09G05G07
 -20401940.580 7  20684388.982          47.000         438.489
    369676.476 6  25230075.111          38.000       -3113.332
   -866878.818 7  23540246.457          44.000        2380.982
 550449845.000 6  38781769.214          40.000        -699.924
  24624825.21515  24836271.039          31.000       -4358.760
    245890.961 7  22553604.689          45.000       -2753.621
  16927228.379 6  23000785.225          41.000       -3488.761
 -10509255.206 8  21497351.647          48.000        1343.790
  -9040614.875 6  20918912.301          39.000       -1538.930
 16  6  8  4  8  0.0010000  0  9G30G16G13S20G06G02G09G05G07
 -20427227.673 7  20679577.277          47.000         403.745
    557347.099 5  25265787.855          35.000       -3141.871
  -1009481.702 7  23513110.897          44.000        2371.802
 550491729.888 6  38789740.072          40.000        -697.145
  24886292.54015  24886031.243          35.000       -4358.731
    411881.872 7  22585194.015          46.000       -2779.594
  17136817.491 7  23040667.471          43.000       -3498.196
 -10589126.920 8  21482153.694          48.000        1318.176
  -8947367.330 6  20936656.973          38.000       -1571.056
 16  6  8  4  9  0.0010000  0 10G30G16G13G20S20G06G02G09G05G07
 -20450293.781 7  20675187.814          47.000         365.191
    746858.513 6  25301848.031          37.000       -3173.868
  -1151462.774 7  23486092.882          47.000        2360.380
   -176474.90213  24987411.563          23.000        2943.046
 550533667.922 6  38797720.284          40.000        -700.422
  25147788.392 6  24935796.158          37.000       -4359.979
    579590.614 7  22617106.014          45.000       -2809.567
  17347049.096 7  23080674.381          45.000       -3509.491
 -10667306.347 7  21467274.766          47.000        1287.938
  -8852094.005 6  20954791.554          40.000       -1604.906
 16  6  8  4 10  0.0010000  0 10G30G16G13G20S20G06G02G09G05G07
 -20471159.671 7  20671217.471          47.000         329.468
    938166.017 6  25338255.241          39.000       -3203.709
  -1292840.062 7  23459187.717          47.000        2351.722
   -353133.78813  24953801.798          18.000        2937.659
 550575630.036 6  38805706.271          41.000        -698.507
  25409265.701 6  24985558.437          39.000       -4357.568
    748972.831 7  22649338.311          45.000       -2836.848
  17557891.407 7  23120794.124          44.000       -3518.558
 -10743802.851 7  21452716.800          47.000        1261.370
  -8754828.934 6  20973301.523          40.000       -1636.845
 16  6  8  4 11  0.0010000  0 10G30G16G13G20S20G06G02G09G05G07
 -20489882.983 7  20667654.119          46.000         294.474
   1131187.699 6  25374987.391          39.000       -3230.479
  -1433668.402 7  23432389.243          45.000        2342.274
   -529462.85612  24920255.570          16.000        2928.518
 550617545.971 6  38813681.422          41.000        -697.760
  25670641.760 6  25035295.170          37.000       -4354.784
    919947.627 7  22681874.329          46.000       -2862.716
  17769276.504 7  23161020.384          43.000       -3527.778
 -10818660.624 8  21438472.623          48.000        1233.418
  -8655644.193 6  20992178.453          38.000       -1669.510
 16  6  8  4 12  0.0010000  0 10G30G16G13G20S20G06G02G09G05G07
 -20506406.760 7  20664509.502          47.000         256.783
   1325956.643 6  25412050.763          37.000       -3261.183
  -1573887.996 7  23405707.895          45.000        2331.823
   -705328.34512  24886803.293          14.000        2928.024
 550659475.359 6  38821660.429          41.000        -698.966
  25931948.355 6  25085020.508          37.000       -4354.218
   1092548.354 7  22714717.122          45.000       -2890.013
  17981251.280 6  23201356.702          41.000       -3537.901
 -10891810.940 8  21424553.562          48.000        1204.674
  -8554497.295 6  21011417.859          36.000       -1701.462
 16  6  8  4 13  0.0010000  0 10G30G16G13G20S20G06G02G09G05G07
 -20520760.722 8  20661779.329          48.000         221.014
   1522419.921 6  25449435.569          37.000       -3288.891
  -1713524.955 7  23379134.913          47.000        2322.587
   -880819.54013  24853383.316          21.000        2921.480
 550701379.913 6  38829634.411          41.000        -698.192
  26193131.354 6  25134725.638          36.000       -4351.635
   1266722.181 7  22747860.670          45.000       -2916.301
  18193776.265 7  23241799.431          42.000       -3546.881
 -10963270.328 7  21410956.038          47.000        1176.640
  -8451431.633 6  21031034.888          38.000       -1733.739
 16  6  8  4 14  0.0010000  0 10G30G16G13G20S20G06G02G09G05G07
 -20532953.018 7  20659458.467          47.000         184.654
   1720544.996 6  25487133.501          36.000       -3316.087
  -1852583.572 7  23352673.438          47.000        2312.537
  -1055968.12614  24820055.721          27.000        2913.630
 550743255.932 6  38837603.315          41.000        -698.034
  26454158.531 6  25184401.069          38.000       -4349.576
   1442438.591 7  22781298.760          46.000       -2941.837
  18406833.913 7  23282344.436          43.000       -3555.637
 -11033034.246 7  21397677.748          47.000        1147.959
  -8346469.260 6  21051011.636          39.000       -1764.964
 16  6  8  4 15  0.0000000  0 10G30G16G13G20S20G06G02G09G05G07
 -20542939.674 7  20357765.177          47.000         148.843
   1920352.907 5  25225365.629          35.000       -3344.031
  -1991015.741 7  23026540.106          47.000        2302.320
  -1230655.44713  24486997.846          21.000        2909.613
 550785154.466 6  38545785.330          40.000        -698.088
  26715050.266 6  24934254.448          37.000       -4346.657
   1619718.386 7  22515241.676          46.000       -2967.233
  18620459.081 7  23023202.158          43.000       -3564.157
 -11101045.797 8  21084944.386          48.000        1119.702
  -8239579.840 6  20771553.849          36.000       -1797.224
 16  6  8  4 16  0.0000000  0 10G30G16G13G20S20G06G02G09G05G07
 -20550779.088 7  20356273.812          47.000         112.441
   2121762.276 5  25263695.992          34.000       -3370.498
  -2128875.876 7  23000306.548          46.000        2293.028
  -1404968.64913  24453833.812          23.000        2900.056
 550827007.589 6  38553749.278          40.000        -697.188
  26975724.874 5  24983860.444          34.000       -4341.469
   1798480.576 7  22549259.724          46.000       -2991.667
  18834584.892 7  23063950.232          43.000       -3573.295
 -11167348.463 8  21072328.594          49.000        1090.816
  -8130835.448 5  20792250.540          35.000       -1828.520
 16  6  8  4 17  0.0000000  0 11G30G16G13G20S20G28G06G02G09G05G07
 -20556428.493 7  20355197.657          46.000          74.971
   2324792.93815  25302326.533          30.000       -3397.620
  -2266115.992 7  22974189.662          47.000        2280.975
  -1578793.68014  24420768.913          27.000        2891.550
 550868847.652 6  38561709.543          41.000        -698.036
   -156425.40616  24380906.717          37.000        2609.372
  27236202.085 5  25033428.974          34.000       -4340.706
   1978745.027 7  22583562.873          46.000       -3017.689
  19049245.604 7  23104797.440          42.000       -3582.846
 -11231887.321 8  21060045.822          48.000        1060.004
  -8020207.20515  20813303.443          32.000       -1858.200
 16  6  8  4 18  0.0000000  0 10G30G16G13G20S20G28G06G02G09G05
 -20559842.751 8  20354551.179          48.000          38.927
   2529466.18314  25341273.674          28.000       -3424.424
  -2402685.901 8  22948201.157          48.000        2271.274
  -1752095.80414  24387792.660          28.000        2884.205
 550910723.622 6  38569677.086          40.000        -697.251
   -312938.180 6  24351123.733          36.000        2606.949
  27496504.915 5  25082965.238          34.000       -4336.006
   2160534.320 7  22618157.250          46.000       -3041.575
  19264478.493 7  23145759.016          44.000       -3591.199
 -11294603.582 8  21048112.159          48.000        1030.221
 16  6  8  4 19  0.0000000  0 11G30G16G13G20S20G28G06G02G09G05G07
 -20561085.757 7  20354311.971          46.000           3.362
   2735696.18414  25380519.406          26.000       -3449.863
  -2538644.019 7  22922327.545          46.000        2261.524
  -1924920.70215  24354913.135          31.000        2875.907
 550952565.585 6  38577640.284          40.000        -696.954
   -469269.109 6  24321378.440          41.000        2604.175
  27756547.482 5  25132449.379          34.000       -4331.013
   2343762.617 7  22653021.249          45.000       -3065.155
  19480212.042 7  23186807.931          42.000       -3598.583
 -11355546.280 8  21036514.902          48.000        1001.170
  -7793884.64514  20856463.380          24.000       -1921.779
 16  6  8  4 20  0.0000000  0 11G30G16G13G20S20G28G06G02G09G05G07
 -20560148.004 7  20354490.382          47.000         -34.464
   2943469.58814  25420060.675          29.000       -3476.481
  -2673975.640 7  22896576.329          46.000        2249.963
  -2097242.01114  24322121.139          28.000        2870.311
 550994387.689 6  38585599.153          41.000        -698.105
   -625387.598 6  24291667.281          39.000        2599.639
  28016316.72015  25181880.332          33.000       -4327.348
   2528416.968 7  22688160.211          45.000       -3089.576
  19696448.270 7  23227957.988          44.000       -3608.666
 -11414692.143 8  21025260.314          48.000         970.054
  -7677666.97414  20878591.164          29.000       -1951.849
 16  6  8  4 21  0.0000000  0 10G30G16G13S20G28G06G02G09G05G07
 -20556983.273 7  20355091.699          46.000         -70.803
   3152810.62814  25459897.079          27.000       -3501.018
  -2808627.949 7  22870952.254          47.000        2239.119
 551036246.416 6  38593563.625          40.000        -698.025
   -781224.598 5  24261999.695          34.000        2595.285
  28275839.62415  25231264.797          30.000       -4323.202
   2714521.637 7  22723576.510          45.000       -3113.597
  19913226.849 7  23269209.535          44.000       -3616.946
 -11471980.325 8  21014359.145          48.000         939.437
  -7559580.22115  20901066.818          33.000       -1981.283
 16  6  8  4 22  0.0000000  0 10G30G16G13S20G28G06G02G09G05G07
 -20551618.038 7  20356112.746          46.000        -107.557
   3363662.77413  25500018.392          20.000       -3534.276
  -2942621.224 8  22845455.148          48.000        2228.421
 551078106.972 6  38601529.352          41.000        -696.851
   -936783.872 6  24232401.019          38.000        2590.217
  28535067.24314  25280592.026          29.000       -4316.776
   2902028.423 7  22759256.970          44.000       -3136.060
  20130514.362 7  23310554.981          42.000       -3625.646
 -11527423.623 8  21003806.388          48.000         909.188
  -7439658.29812  20923862.316          17.000       -2006.326
 16  6  8  4 23  0.0000000  0 10G30G16G13S20G28G06G02G09G05G07
 -20544057.737 8  20357553.681          48.000        -145.094
   3576019.73214  25540428.455          25.000       -3550.760
  -3075954.865 8  22820083.037          48.000        2215.736
 551119955.009 6  38609493.265          40.000        -698.900
  -1092048.169 7  24202864.711          42.000        2584.127
  28793974.67114  25329858.702          29.000       -4312.972
   3090910.118 7  22795202.447          46.000       -3160.030
  20348299.472 7  23352003.105          43.000       -3634.861
 -11581012.198 8  20993610.226          48.000         876.964
  -7317926.83915  20947044.163          32.000       -2044.215
 16  6  8  4 24  0.0000000  0 10G30G16G13S20G28G06G02G09G05G07
 -20534252.348 7  20359418.358          46.000        -181.704
   3789880.66612  25581120.548          14.000       -3580.126
  -3208571.125 8  22794845.416          48.000        2204.212
 551161846.598 6  38617464.420          40.000        -698.336
  -1246944.143 6  24173389.461          40.000        2579.139
  29052591.81214  25379069.991          26.000       -4306.790
   3281194.915 7  22831412.993          46.000       -3182.944
  20566625.979 6  23393543.121          39.000       -3642.566
 -11632681.306 8  20983778.965          49.000         845.258
  -7194350.670 6  20970562.851          36.000       -2075.149
 16  6  8  4 25  0.0000000  0 10G30G16G13S20G28G06G02G09G05G07
 -20522243.640 7  20361702.627          47.000        -218.779
   4005150.26213  25622103.431          21.000       -3597.797
  -3340504.388 8  22769739.683          48.000        2192.993
 551203736.500 6  38625435.156          41.000        -698.048
  -1401489.394 6  24143981.185          39.000        2572.516
  29310848.27313  25428207.588          22.000       -4302.588
   3472819.646 7  22867879.254          46.000       -3205.207
  20785446.778 6  23435188.816          41.000       -3651.111
 -11682457.679 8  20974305.800          48.000         813.298
  -7068979.806 6  20994422.481          36.000       -2104.298
 16  6  8  4 26  0.0000000  0  8G30G13S20G28G02G09G05G07
 -20507997.374 7  20364413.640          46.000        -255.388
  -3471713.044 8  22744770.812          49.000        2180.928
 551245665.630 6  38633413.273          40.000        -699.319
  -1555626.044 6  24114649.218          40.000        2565.361
   3665797.802 7  22904600.392          45.000       -3227.554
  21004790.802 7  23476930.121          43.000       -3659.877
 -11730292.009 7  20965200.818          47.000         781.090
  -6941792.261 6  21018628.620          37.000       -2134.741
 16  6  8  4 27  0.0000000  0  8G30G13S20G28G02G09G05G07
 -20491566.476 7  20367541.592          47.000        -291.810
  -3602242.080 8  22719933.149          48.000        2170.333
 551287592.210 6  38641393.450          40.000        -698.666
  -1709382.630 6  24085384.976          37.000        2559.942
   3860055.245 7  22941565.939          44.000       -3247.475
  21224600.203 6  23518752.447          41.000       -3667.097
 -11776222.266 8  20956464.000          49.000         749.830
  -6812853.257 6  21043161.445          38.000       -2163.429
 16  6  8  4 28  0.0000000  0  8G30G13S20G28G02G09G05G07
 -20472962.891 7  20371081.491          46.000        -328.840
  -3732094.966 8  22695221.669          48.000        2158.191
 551329499.026 6  38649368.740          40.000        -698.347
  -1862746.344 6  24056201.424          37.000        2550.274
   4055558.911 7  22978768.686          44.000       -3268.927
  21444858.490 7  23560674.588          46.000       -3675.292
 -11820245.126 8  20948085.365          48.000         717.456
  -6682186.057 6  21068028.773          37.000       -2193.209
 16  6  8  4 29  0.0000000  0  9G30G13G20S20G28G02G09G05G07
 -20452112.818 7  20375050.630          47.000        -365.577
  -3861189.708 8  22670657.626          49.000        2146.054
  -3622135.48813  24032132.932          23.000        2770.734
 551371450.003 6  38657349.161          40.000        -699.952
  -2015618.150 6  24027113.953          40.000        2544.156
   4252362.610 7  23016220.344          44.000       -3290.281
  21665635.347 7  23602685.743          44.000       -3683.344
 -11862270.716 7  20940086.813          47.000         684.653
  -6549729.015 6  21093235.910          38.000       -2221.685
 16  6  8  4 30  0.0000000  0  8G30G13S20G28G02G09G05G07
 -20429085.057 8  20379433.950          48.000        -401.937
  -3989585.253 8  22646223.569          48.000        2134.014
 551413387.329 6  38665330.106          40.000        -699.239
  -2168041.931 6  23998106.369          40.000        2536.090
   4450376.288 7  23053901.698          44.000       -3310.569
  21886857.960 7  23644776.175          42.000       -3690.736
 -11902352.589 7  20932459.847          47.000         651.591
  -6415561.845 6  21118765.124          38.000       -2250.200
 16  6  8  4 31  0.0000000  0  9G30G13G20S20G28G02G09G05G07
 -20403833.500 7  20384236.058          46.000        -438.818
  -4117227.148 8  22621935.815          48.000        2121.674
  -3953350.71113  23969096.655          22.000        2743.993
 551455353.524 6  38673314.976          40.000        -699.534
  -2319945.932 6  23969204.254          39.000        2528.441
   4649625.773 7  23091816.467          44.000       -3329.669
  22108568.898 7  23686972.284          44.000       -3698.691
 -11940428.999 8  20925215.458          48.000         618.540
  -6279650.552 6  21144629.331          39.000       -2279.341
 16  6  8  4 32  0.0000000  0  9G30G13G20S20G28G02G09G05G07
 -20376416.707 7  20389452.679          46.000        -475.605
  -4244163.930 8  22597778.135          48.000        2109.469
  -4117851.92014  23937802.901          26.000        2735.954
 551497299.397 6  38681297.020          40.000        -698.979
  -2471362.691 6  23940388.831          39.000        2519.343
   4850033.035 7  23129951.841          44.000       -3349.770
  22330706.583 6  23729237.567          41.000       -3706.344
 -11976542.114 8  20918342.359          48.000         585.262
  -6142064.173 6  21170811.533          39.000       -2307.719
 16  6  8  4 33  0.0000000  0  9G30G13G20S20G28G02G09G05G07
 -20346792.881 7  20395087.912          45.000        -511.625
  -4370343.907 8  22573767.543          48.000        2096.789
  -4281573.39614  23906648.678          24.000        2722.574
 551539278.071 6  38689285.939          40.000        -699.351
  -2622224.646 6  23911673.590          39.000        2510.773
   5051619.573 7  23168313.946          44.000       -3369.512
  22553309.498 7  23771601.286          43.000       -3713.806
 -12010635.141 8  20911857.125          49.000         551.715
  -6002772.108 6  21197319.932          40.000       -2335.195
 16  6  8  4 34  0.0000000  0  9G30G13G20S20G28G02G09G05G07
 -20315002.055 7  20401137.624          44.000        -548.048
  -4495796.750 8  22549895.156          48.000        2084.384
  -4444524.77013  23875622.627          21.000        2711.355
 551581246.938 6  38697272.398          40.000        -699.908
  -2772544.747 6  23883071.340          40.000        2500.746
   5254325.599 7  23206886.134          44.000       -3387.793
  22776335.330 7  23814046.114          45.000       -3720.667
 -12042731.455 7  20905746.617          47.000         518.199
  -5861825.619 6  21224139.049          40.000       -2363.237
 16  6  8  4 35  0.0000000  0  9G30G13G20S20G28G02G09G05G07
 -20280990.950 7  20407611.829          46.000        -584.846
  -4620459.313 7  22526170.887          47.000        2071.969
  -4606625.41815  23844797.306          30.000        2695.024
 551623252.858 6  38705264.318          40.000        -699.720
  -2922243.114 7  23854587.751          42.000        2489.514
   5458185.114 7  23245679.312          44.000       -3405.977
  22999834.910 7  23856572.957          42.000       -3728.519
 -12072761.577 8  20900032.212          48.000         483.512
  -5719181.380 6  21251286.615          41.000       -2391.034
 16  6  8  4 36  0.0000000  0  9G30G13G20S20G28G02G09G05G07
 -20244839.886 7  20414492.101          46.000        -620.303
  -4744400.982 7  22502586.900          47.000        2059.669
  -4767948.23114  23814094.660          29.000        2678.820
 551665225.750 6  38713252.243          40.000        -698.960
  -3071372.877 7  23826211.777          44.000        2481.064
   5663098.330 7  23284674.703          44.000       -3423.706
  23223726.063 7  23899180.822          42.000       -3734.606
 -12100790.041 8  20894700.786          49.000         450.300
  -5574930.614 6  21278734.446          40.000       -2417.315
 16  6  8  4 37  0.0000000  0  9G30G13G20S20G28G02G09G05G07
 -20206553.031 7  20421777.898          46.000        -656.612
  -4867614.074 7  22479137.629          47.000        2046.956
  -4928465.37015  23783545.890          30.000        2667.070
 551707161.290 6  38721230.971          40.000        -698.835
  -3219911.004 7  23797941.552          42.000        2470.343
   5869042.422 7  23323863.180          44.000       -3441.192
  23448002.959 6  23941856.377          39.000       -3740.801
 -12126804.417 8  20889749.479          49.000         416.118
  -5429087.314 6  21306486.697          39.000       -2444.624
 16  6  8  4 38  0.0000000  0  9G30G13G20S20G28G02G09G05G07
 -20166075.824 7  20429479.656          46.000        -692.312
  -4990032.503 8  22455844.852          48.000        2034.480
  -5088097.87214  23753158.971          29.000        2653.209
 551749123.162 6  38729215.754          40.000        -699.407
  -3367775.779 6  23769805.310          41.000        2459.182
   6076052.296 7  23363255.145          44.000       -3458.175
  23672718.745 6  23984612.464          36.000       -3746.647
 -12150734.151 8  20885193.768          48.000         381.681
  -5281607.270 7  21334553.819          42.000       -2471.265
 16  6  8  4 39  0.0000000  0  9G30G13G20S20G28G02G09G05G07
 -20123449.612 7  20437592.437          46.000        -728.532
  -5111686.642 8  22432694.590          48.000        2020.881
  -5246863.59616  23722961.544          36.000        2638.400
 551791069.285 6  38737197.658          40.000        -699.190
  -3514980.355 6  23741789.770          40.000        2447.847
   6284068.208 7  23402838.451          43.000       -3475.773
  23897831.000 6  24027458.036          38.000       -3755.352
 -12172604.726 8  20881034.456          49.000         346.590
  -5132541.609 7  21362920.352          43.000       -2498.192
 16  6  8  4 40  0.0000000  0  9G30G13G20S20G28G02G09G05G07
 -20078639.109 7  20446118.771          46.000        -764.679
  -5232529.068 8  22409698.536          49.000        2007.529
  -5404702.527 6  23692928.567          37.000        2623.065
 551833045.406 6  38745185.984          40.000        -699.281
  -3661460.987 6  23713913.553          39.000        2435.491
   6493107.098 7  23442618.438          44.000       -3492.028
  24123374.444 6  24070377.161          36.000       -3761.052
 -12192363.208 8  20877275.592          49.000         311.953
  -4981864.926 7  21391591.164          42.000       -2524.753
 16  6  8  4 41  0.0000000  0  9G30G13G20S20G28G02G09G05G07
 -20031696.296 7  20455050.787          45.000        -800.592
  -5352599.056 8  22386850.687          49.000        1994.278
  -5561641.724 6  23663063.357          36.000        2609.313
 551875016.129 6  38753172.687          40.000        -700.115
  -3807241.374 6  23686171.372          40.000        2423.591
   6703098.631 7  23482578.983          46.000       -3508.171
  24349296.445 6  24113377.830          40.000       -3769.593
 -12210045.737 8  20873908.799          48.000         276.755
  -4829638.319 7  21420560.184          42.000       -2550.569
 16  6  8  4 42  0.0000000  0  9G30G13G20S20G28G02G09G05G07
 -19982595.026 7  20464395.221          46.000        -835.602
  -5471857.776 8  22364156.819          49.000        1981.270
  -5717628.94215  23633360.068          31.000        2591.355
 551917005.065 6  38761162.548          40.000        -698.610
  -3952267.269 7  23658581.094          44.000        2411.556
   6914051.190 7  23522722.511          46.000       -3523.443
  24575623.281 6  24156448.388          37.000       -3775.035
 -12225609.711 8  20870948.370          49.000         242.076
  -4675844.905 7  21449826.031          43.000       -2575.528
 16  6  8  4 43  0.0000000  0  8G30G13G20S20G28G02G05G07
 -19931388.913 7  20474138.358          46.000        -870.610
  -5590345.971 8  22341609.235          49.000        1968.212
  -5872694.61115  23603862.848          35.000        2578.130
 551958954.053 6  38769145.691          40.000        -698.888
  -4096563.641 7  23631124.922          45.000        2399.054
   7125893.351 7  23563035.359          46.000       -3537.882
 -12239091.719 8  20868383.083          49.000         207.399
  -4520547.862 7  21479379.179          44.000       -2600.372
 16  6  8  4 44  0.0000000  0  9G30G13G20S20G28G02G09G05G07
 -19878085.398 7  20484281.646          45.000        -905.884
  -5708058.562 8  22319208.722          49.000        1955.382
  -6026818.763 6  23574537.286          36.000        2561.365
 552000869.469 6  38777121.278          40.000        -698.305
  -4240107.553 7  23603807.269          44.000        2385.449
   7338599.697 7  23603511.208          44.000       -3552.037
  25029154.06916  24242786.446          38.000       -3787.639
 -12250483.282 8  20866214.876          49.000         171.992
  -4363762.996 7  21509212.944          42.000       -2625.459
 16  6  8  4 45  0.0010000  0  9G30G13G20S20G28G02G09G05G07
 -19822636.036 7  20494833.846          44.000        -941.918
  -5824935.319 8  22296968.089          48.000        1940.615
  -6179930.387 5  23545391.671          34.000        2542.248
 552042800.189 6  38785099.641          40.000        -698.611
  -4382825.849 7  23576650.176          45.000        2370.895
   7552203.901 7  23644156.657          43.000       -3567.623
  25256572.316 6  24286064.627          36.000       -3793.829
 -12259720.240 8  20864454.760          48.000         135.736
  -4205449.211 7  21539339.995          43.000       -2651.161
 16  6  8  4 46  0.0010000  0  9G30G13G20S20G28G02G09G05G07
 -19765068.218 7  20505788.272          45.000        -976.514
  -5940984.354 8  22274885.955          49.000        1927.135
  -6332023.862 5  23516452.299          34.000        2525.922
 552084731.821 6  38793078.910          40.000        -698.744
  -4524709.220 7  23549649.123          44.000        2357.331
   7766656.251 7  23684968.581          44.000       -3580.690
  25484354.99215  24329401.981          30.000       -3800.415
 -12266811.340 8  20863107.639          48.000         100.129
  -4045645.167 7  21569746.161          43.000       -2675.758
 16  6  8  4 47  0.0010000  0  9G30G13G20S20G28G02G09G05G07
 -19705354.895 7  20517149.010          43.000       -1013.180
  -6056167.510 8  22252966.300          48.000        1911.889
  -6483048.603 6  23487720.830          37.000        2507.450
 552126708.037 6  38801068.823          39.000        -700.441
  -4665704.352 7  23522814.841          42.000        2341.593
   7981969.720 7  23725942.006          45.000       -3595.580
  25712531.91916  24372832.502          37.000       -3805.713
 -12271713.910 8  20862175.116          49.000          63.277
  -3884330.953 7  21600446.644          45.000       -2701.890
 16  6  8  4 48  0.0010000  0  9G30G13G20S20G28G02G09G05G07
 -19643520.699 7  20528917.402          44.000       -1048.807
  -6170495.312 8  22231210.625          48.000        1898.210
  -6633002.252 6  23459180.458          36.000        2490.611
 552168705.899 6  38809059.453          40.000        -700.218
  -4805805.767 6  23496153.072          41.000        2327.634
   8198102.760 7  23767068.121          44.000       -3608.768
  25941081.655 6  24416322.510          38.000       -3812.997
 -12274435.808 8  20861654.890          48.000          27.146
  -3721539.113 7  21631423.956          45.000       -2725.436
 16  6  8  4 49  0.0010000  0  9G30G13G20S20G28G02G09G05G07
 -19579524.475 7  20541096.520          45.000       -1084.073
  -6283911.509 8  22209627.725          48.000        1883.038
  -6781816.549 5  23430849.244          33.000        2471.160
 552210777.572 6  38817065.194          40.000        -700.960
  -4944941.942 6  23469678.387          41.000        2311.441
   8415080.514 7  23808359.716          44.000       -3622.844
  26170047.00315  24459898.077          31.000       -3817.897
 -12274919.603 8  20861564.184          48.000          -9.721
  -3557236.248 7  21662691.239          45.000       -2750.705
 16  6  8  4 50  0.0010000  0  9G30G13G20S20G28G02G09G05G07
 -19513414.432 7  20553675.544          45.000       -1119.724
  -6396449.453 7  22188211.212          46.000        1868.491
  -6929512.144 6  23402755.074          38.000        2451.651
 552252877.380 6  38825078.002          40.000        -701.993
  -5083131.230 7  23443383.387          43.000        2295.310
   8632837.713 7  23849797.597          43.000       -3635.829
  26399380.65215  24503544.318          34.000       -3824.610
 -12273196.835 8  20861892.615          49.000         -46.981
  -3391478.740 7  21694234.182          46.000       -2774.489
 16  6  8  4 51  0.0010000  0  9G30G13G20S20G28G02G09G05G07
 -19445172.667 7  20566661.839          45.000       -1155.628
  -6508076.765 8  22166972.377          48.000        1852.010
  -7076043.345 6  23374869.556          38.000        2432.075
 552295021.214 6  38833096.046          39.000        -703.875
  -5220325.062 7  23417277.093          44.000        2277.554
   8851376.478 7  23891383.490          44.000       -3648.964
  26629103.602 6  24547252.262          36.000       -3832.470
 -12269233.068 8  20862646.342          48.000         -85.412
  -3224255.537 7  21726055.649          46.000       -2800.229
 16  6  8  4 52  0.0010000  0  9G30G13G20S20G28G02G09G05G07
 -19374746.446 7  20580066.241          46.000       -1191.672
  -6618723.717 7  22145914.537          46.000        1836.794
  -7221328.939 6  23347214.172          36.000        2411.194
 552337276.845 6  38841137.158          39.000        -705.561
  -5356440.043 7  23391376.834          45.000        2259.648
   9070734.002 7  23933127.604          45.000       -3662.271
  26859271.015 6  24591050.441          36.000       -3839.018
 -12262959.689 8  20863842.153          49.000        -123.376
  -3055521.018 7  21758162.846          45.000       -2824.780
 16  6  8  4 53  0.0010000  0  9G30G13G20S20G28G02G09G05G07
 -19302174.477 7  20593873.150          45.000       -1227.741
  -6728414.013 7  22125040.028          46.000        1819.373
  -7365379.848 7  23319815.184          42.000        2390.316
 552379623.510 6  38849196.384          40.000        -707.476
  -5491484.018 7  23365678.073          42.000        2241.033
   9290855.789 7  23975015.019          45.000       -3675.497
  27089847.033 5  24634930.113          34.000       -3846.807
 -12254398.129 8  20865471.183          49.000        -162.506
  -2885321.834 7  21790549.298          44.000       -2849.032
 16  6  8  4 54  0.0010000  0  9G30G13G20S20G28G02G09G05G07
 -19227427.558 7  20608098.201          46.000       -1264.059
  -6837102.857 7  22104358.413          45.000        1803.599
  -7508137.852 7  23292650.430          44.000        2368.480
 552422092.252 6  38857277.912          40.000        -709.313
  -5625396.564 6  23340189.430          39.000        2222.239
   9511755.535 7  24017049.261          45.000       -3688.023
  27320864.08115  24678901.974          32.000       -3852.860
 -12243502.925 8  20867542.629          48.000        -201.032
  -2713634.886 7  21823218.549          44.000       -2873.764
 16  6  8  4 55  0.0000000  0  9G30G13G20S20G28G02G09G05G07
 -19150567.133 7  20322932.012          46.000       -1298.313
  -6944835.033 7  21784064.710          46.000        1787.284
  -7649635.618 6  22965924.419          41.000        2348.252
 552464637.006 6  38565582.933          40.000        -710.134
  -5758208.351 6  23015121.102          40.000        2204.412
   9733356.597 7  23759425.903          44.000       -3698.818
  27552263.671 6  24423135.598          38.000       -3859.230
 -12230320.332 8  20570260.108          49.000        -238.696
  -2540528.395 7  21556369.976          45.000       -2896.850
 16  6  8  4 56  0.0000000  0  9G30G13G20S20G28G02G09G05G07
 -19071611.997 7  20337957.086          46.000       -1333.801
  -7051612.545 7  21763745.135          46.000        1771.734
  -7789862.763 6  22939239.493          41.000        2326.182
 552507241.041 6  38573690.688          39.000        -711.463
  -5889906.750 6  22990064.928          41.000        2185.247
   9955625.884 7  23801719.489          42.000       -3709.742
  27784030.700 6  24467239.767          40.000       -3866.060
 -12214851.630 8  20573202.669          48.000        -277.468
  -2366028.052 7  21589577.984          47.000       -2920.612
 16  6  8  4 57  0.0000000  0  9G30G13G20S20G28G02G09G05G07
 -18990495.794 7  20353393.322          46.000       -1369.474
  -7157352.769 7  21743626.378          47.000        1753.610
  -7928723.797 7  22912819.585          43.000        2303.008
 552549987.353 6  38581824.026          39.000        -714.135
  -6020393.897 6  22965236.514          41.000        2164.979
  10178614.395 7  23844154.492          42.000       -3721.826
  28016235.288 6  24511424.853          41.000       -3873.588
 -12197014.543 7  20576594.869          47.000        -317.101
  -2190073.205 8  21623060.712          48.000       -2944.295
 16  6  8  4 58  0.0000000  0  9G30G13G20S20G28G02G09G05G07
 -18907264.559 7  20369229.534          45.000       -1404.783
  -7262084.635 7  21723693.901          46.000        1736.653
  -8066235.176 7  22886649.162          43.000        2280.076
 552592832.580 6  38589978.111          39.000        -716.163
  -6149683.682 7  22940632.091          42.000        2144.218
  10402261.755 7  23886715.574          44.000       -3732.860
  28248835.565 6  24555690.175          38.000       -3879.666
 -12176839.213 8  20580436.168          48.000        -356.378
  -2012716.108 8  21656811.143          48.000       -2967.936
 16  6  8  5  1  0.0000000  0  9G30G13G20S20G28G02G09G05G07
 -18644827.594 7  20419170.836          46.000       -1509.925
  -7570000.792 7  21665098.513          45.000        1684.398
  -8470320.137 7  22809754.306          43.000        2209.060
 552722134.844 6  38614585.937          40.000        -721.084
  -6530002.721 6  22868258.342          39.000        2081.386
  11077069.540 7  24015128.114          45.000       -3763.582
  28949106.262 6  24688947.436          40.000       -3900.959
 -12102071.272 7  20594663.278          47.000        -474.554
  -1472235.872 7  21759661.906          46.000       -3037.252
 16  6  8  5  2  0.0000000  0  9G30G13G20S20G28G02G09G05G07
 -18553154.033 7  20436613.812          44.000       -1544.481
  -7670540.642 7  21645969.340          47.000        1667.138
  -8602150.873 7  22784665.465          43.000        2185.573
 552765467.703 6  38622831.671          40.000        -723.148
  -6654205.490 6  22844621.778          39.000        2059.488
  11303194.818 7  24058155.133          42.000       -3773.601
  29183315.462 6  24733514.594          39.000       -3906.586
 -12072401.771 8  20600310.378          48.000        -514.010
  -1289344.318 7  21794464.655          47.000       -3058.762
 16  6  8  5  3  0.0000000  0  9G30G13G20S20G28G02G09G05G07
 -18459521.885 7  20454434.515          46.000       -1577.310
  -7770139.580 7  21627014.757          46.000        1651.673
  -8732637.672 7  22759839.738          45.000        2163.431
 552808799.166 6  38631077.632          39.000        -722.550
  -6777208.565 6  22821214.667          38.000        2039.651
  11529753.478 7  24101269.630          42.000       -3779.710
  29417787.135 6  24778133.265          41.000       -3910.462
 -12040471.125 8  20606387.416          49.000        -551.344
  -1105233.916 8  21829502.075          48.000       -3078.678
 16  6  8  5  4  0.0000000  0  9G30G13G20S20G28G02G09G05G07
 -18363944.559 7  20472623.906          46.000       -1609.970
  -7868792.163 7  21608241.551          45.000        1635.901
  -8861763.336 7  22735268.907          45.000        2140.096
 552852119.978 6  38639322.528          40.000        -722.235
  -6898993.246 7  22798042.418          43.000        2019.087
  11756718.956 6  24144457.279          41.000       -3786.480
  29652513.045 6  24822800.570          41.000       -3915.547
 -12006277.842 8  20612893.171          48.000        -589.476
   -919923.298 7  21864764.515          47.000       -3098.822
 16  6  8  5  5  0.0000000  0  9G30G13G20S20G28G02G09G05G07
 -18266340.119 7  20491196.034          45.000       -1643.137
  -7966398.371 7  21589666.370          45.000        1618.107
  -8989414.859 7  22710973.248          44.000        2115.765
 552895513.629 6  38647579.186          40.000        -723.515
  -7019445.032 7  22775118.922          43.000        1996.550
  11984160.865 7  24187740.031          42.000       -3794.216
  29887580.601 6  24867529.946          40.000       -3920.816
 -11969724.477 8  20619849.212          48.000        -629.066
   -733334.997 7  21900270.159          47.000       -3119.915
 16  6  8  5  6  0.0000000  0  9G30G13G20S20G28G02G09G05G07
 -18166759.402 7  20510146.115          46.000       -1676.137
  -8062990.085 8  21571288.603          48.000        1601.586
  -9115612.351 7  22686959.130          43.000        2091.448
 552938947.827 6  38655845.406          40.000        -723.257
  -7138582.486 6  22752447.355          41.000        1975.340
  12212014.967 6  24231099.023          41.000       -3800.841
  30122944.662 6  24912318.006          40.000       -3926.236
 -11930846.423 8  20627246.168          48.000        -666.671
   -545524.373 7  21936008.118          47.000       -3139.698
 16  6  8  5  7  0.0000000  0  9G30G13G20S20G28G02G09G05G07
 -18065173.130 7  20529476.332          45.000       -1709.947
  -8158518.897 8  21553109.228          48.000        1582.889
  -9240295.241 7  22663235.141          44.000        2065.156
 552982471.590 6  38664127.070          40.000        -726.285
  -7256344.004 7  22730040.525          42.000        1950.959
  12440298.498 7  24274544.918          42.000       -3808.854
  30358640.440 6  24957169.969          39.000       -3929.957
 -11889599.544 8  20635096.096          48.000        -707.505
   -356466.248 7  21971986.855          47.000       -3161.518
 16  6  8  5  8  0.0000000  0  9G30G13G20S20G28G02G09G05G07
 -17961600.838 7  20549184.730          44.000       -1743.332
  -8252984.912 8  21535134.561          48.000        1565.466
  -9363451.554 7  22639796.811          43.000        2039.589
 553026070.413 6  38672424.614          40.000        -727.527
  -7372717.077 7  22707899.130          44.000        1928.203
  12668979.908 6  24318061.590          41.000       -3814.399
  30594654.170 6  25002084.840          40.000       -3936.787
 -11845988.622 8  20643395.332          49.000        -746.832
   -166184.613 7  22008193.788          47.000       -3181.773
 16  6  8  5  9  0.0000000  0  9G30G13G20S20G28G02G09G05G07
 -17856047.222 7  20569270.890          44.000       -1775.203
  -8346373.070 7  21517361.829          47.000        1548.170
  -9485054.746 7  22616659.253          45.000        2014.401
 553069757.450 6  38680738.508          40.000        -727.535
  -7487673.383 7  22686022.071          43.000        1904.850
  12898041.919 6  24361647.051          40.000       -3820.601
  30830987.766 6  25047058.885          39.000       -3940.578
 -11800003.271 8  20652145.621          48.000        -785.621
     25312.146 7  22044635.531          47.000       -3201.163
 16  6  8  5 10  0.0000000  0  9G30G13G20S20G28G02G09G05G07
 -17748579.239 7  20589721.080          43.000       -1806.574
  -8438731.066 7  21499785.394          47.000        1530.579
  -9605140.393 7  22593808.420          46.000        1988.679
 553113471.449 6  38689058.301          40.000        -728.210
  -7601247.788 7  22664405.544          42.000        1881.203
  13127405.799 6  24405295.037          41.000       -3825.669
  31067580.228 6  25092080.185          38.000       -3944.812
 -11751695.808 8  20661339.687          48.000        -824.198
    217954.129 7  22081292.680          47.000       -3220.124
 16  6  8  5 11  0.0000000  0  9G30G13G20S20G28G02G09G05G07
 -17639202.995 7  20610534.443          43.000       -1839.547
  -8530044.962 8  21482409.863          48.000        1512.769
  -9723682.964 7  22571248.150          46.000        1962.589
 553157207.669 6  38697379.333          40.000        -728.984
  -7713413.637 7  22643062.497          43.000        1857.136
  13357054.247 6  24448992.075          39.000       -3829.252
  31304432.088 6  25137152.754          38.000       -3949.909
 -11701058.629 8  20670974.982          48.000        -863.753
    411730.415 7  22118169.859          47.000       -3239.339
 16  6  8  5 12  0.0000000  0  9G30G13G20S20G28G02G09G05G07
 -17527882.749 7  20631717.681          43.000       -1870.814
  -8620258.933 8  21465244.276          49.000        1494.472
  -9840614.620 7  22548995.475          46.000        1935.358
 553201020.550 6  38705716.523          40.000        -729.799
  -7824102.816 7  22621998.514          42.000        1832.839
  13587011.222 6  24492755.284          39.000       -3834.741
  31541586.064 6  25182284.706          38.000       -3955.273
 -11648041.021 8  20681064.367          48.000        -902.952
    606674.514 7  22155266.666          47.000       -3258.302
 16  6  8  5 13  0.0000000  0  9G30G13G20S20G28G02G09G05G07
 -17414694.586 7  20653259.329          44.000       -1902.048
  -8709428.607 8  21448274.445          48.000        1477.706
  -9955980.092 8  22527045.597          48.000        1909.573
 553244856.965 6  38714059.228          40.000        -730.732
  -7933359.338 7  22601208.028          43.000        1808.817
  13817189.863 6  24536557.302          37.000       -3837.570
  31778972.641 6  25227459.655          36.000       -3958.300
 -11592705.382 8  20691593.863          48.000        -941.636
    802706.693 7  22192570.293          47.000       -3276.251
 16  6  8  5 14  0.0000000  0  9G30G13G20S20G28G02G09G05G07
 -17299644.347 7  20675151.395          42.000       -1932.963
  -8797539.501 7  21431506.356          47.000        1459.431
 -10069752.988 7  22505393.593          47.000        1883.104
 553288716.159 6  38722405.632          40.000        -731.115
  -8041156.267 7  22580696.518          43.000        1784.458
  14047573.138 5  24580395.704          33.000       -3839.275
  32016593.21415  25272672.872          34.000       -3962.105
 -11535043.296 8  20702567.188          48.000        -980.222
    999818.324 8  22230079.362          48.000       -3294.118
 16  6  8  5 15  0.0000000  0 10G30G13G20S20G28G15G02G09G05G07
 -17182789.823 7  20697389.569          43.000       -1962.600
  -8884629.124 8  21414934.966          48.000        1442.750
 -10181959.226 7  22484039.570          47.000        1856.943
 553332558.910 6  38730748.686          40.000        -730.701
  -8147518.567 7  22560456.045          43.000        1760.614
   -151125.10413  24107428.214          18.000        2515.509
  14278092.64615  24624263.545          34.000       -3843.578
  32254397.27215  25317924.603          32.000       -3964.776
 -11475098.914 7  20713971.935          47.000       -1018.136
   1197949.139 8  22267782.948          48.000       -3310.767
 16  6  8  5 16  0.0000000  0 10G30G13G20S20G28G15G02G09G05G07
 -17064164.817 7  20719961.443          43.000       -1992.308
  -8970709.752 8  21398554.761          48.000        1425.783
 -10292600.327 7  22462987.244          47.000        1830.601
 553376357.818 6  38739083.538          40.000        -730.458
  -8252448.089 7  22540487.953          44.000        1736.650
   -302167.35914  24078689.816          27.000        2515.680
  14508704.194 5  24668148.993          32.000       -3844.644
  32492359.01115  25363209.244          31.000       -3968.133
 -11412892.889 8  20725812.065          48.000       -1055.947
   1397062.420 7  22305670.983          47.000       -3326.696
 16  6  8  5 17  0.0000000  0 10G30G13G20S20G28G15G02G09G05G07
 -16943735.635 7  20742878.238          42.000       -2021.885
  -9055727.330 7  21382375.547          47.000        1408.670
 -10401611.042 7  22442243.751          47.000        1803.592
 553420149.138 6  38747417.082          40.000        -729.319
  -8355878.172 7  22520804.282          43.000        1711.520
   -452874.50214  24049998.186          26.000        2511.070
  14739432.80314  24712047.912          25.000       -3846.370
  32730518.31715  25408532.153          31.000       -3971.193
 -11348377.985 7  20738087.822          47.000       -1094.334
   1597189.428 7  22343755.106          47.000       -3343.321
 16  6  8  5 18  0.0000000  0 10G30G13G20S20G28G15G02G09G05G07
 -16821556.026 7  20766127.512          42.000       -2051.073
  -9139714.201 7  21366394.376          47.000        1390.679
 -10509012.911 8  22421807.155          48.000        1776.159
 553463898.773 6  38755742.354          40.000        -729.624
  -8457830.862 7  22501405.154          44.000        1686.197
   -603245.43114  24021400.891          27.000        2502.840
  14970211.34415  24755971.122          30.000       -3848.611
  32968829.42214  25453880.732          28.000       -3973.214
 -11281594.910 8  20750796.745          48.000       -1132.078
   1798274.475 8  22382022.735          48.000       -3359.679
 16  6  8  5 19  0.0000000  0 10G30G13G20S20G28G15G02G09G05G07
 -16697587.673 7  20789719.317          43.000       -2080.675
  -9222610.832 8  21350619.920          48.000        1373.030
 -10614734.998 7  22401687.264          46.000        1748.341
 553507669.243 6  38764072.285          40.000        -729.772
  -8558235.334 7  22482298.021          44.000        1659.789
   -753201.08314  23992841.324          26.000        2496.729
  15201069.40414  24799896.287          27.000       -3847.188
  33207338.98814  25499265.765          26.000       -3976.978
 -11212492.370 7  20763945.118          47.000       -1170.546
   2000353.953 7  22420476.943          47.000       -3375.473
 16  6  8  5 20  0.0000000  0 10G30G13G20S20G28G15G02G09G05G07
 -16571896.040 7  20813639.237          43.000       -2108.790
  -9304461.533 8  21335043.716          48.000        1355.921
 -10718811.078 7  22381882.610          45.000        1721.194
 553551399.732 6  38772391.938          40.000        -728.444
  -8657124.523 7  22463479.305          43.000        1636.257
   -902794.40014  23964373.614          29.000        2490.964
  15431933.52012  24843834.993          17.000       -3847.574
  33445989.09313  25544682.993          22.000       -3977.408
 -11141123.504 8  20777528.158          48.000       -1208.219
   2203359.925 7  22459105.512          46.000       -3390.443
 16  6  8  5 21  0.0000000  0 10G30G13G20S20G28G15G02G09G05G07
 -16444503.648 6  20837878.061          41.000       -2137.456
  -9385267.233 8  21319666.515          48.000        1337.834
 -10821231.527 7  22362390.176          44.000        1692.432
 553595071.334 6  38780705.553          40.000        -726.925
  -8754488.980 7  22444950.035          44.000        1610.094
  -1052025.89715  23935977.974          34.000        2483.013
  15662783.19314  24887769.354          28.000       -3846.140
  33684769.20714  25590117.217          25.000       -3980.035
 -11067498.011 7  20791536.443          47.000       -1246.099
   2407268.740 7  22497908.619          46.000       -3405.668
 16  6  8  5 22  0.0000000  0 10G30G13G20S20G28G15G02G09G05G07
 -16315372.526 6  20862450.864          40.000       -2165.808
  -9464967.457 7  21304500.530          47.000        1319.639
 -10921925.726 7  22343225.073          43.000        1664.587
 553638742.591 6  38789013.131          40.000        -727.614
  -8850258.840 7  22426728.204          45.000        1583.398
  -1200834.681 5  23907659.168          35.000        2476.901
  15893618.34513  24931677.138          21.000       -3850.776
  33923717.17614  25635588.680          25.000       -3982.992
 -10991565.994 7  20805986.130          47.000       -1284.257
   2612116.416 7  22536887.834          45.000       -3421.219
 16  6  8  5 23  0.0010000  0 11G30G21G13G20S20G28G15G02G09G05G07
 -16184597.647 6  20887339.325          40.000       -2192.969
     -7663.38314  25691834.746          29.000         587.377
  -9543639.311 8  21289528.471          48.000        1302.917
 -11020960.752 7  22324383.079          45.000        1636.755
 553682323.958 6  38797304.934          40.000        -725.405
  -8944500.496 7  22408794.581          45.000        1557.193
  -1349298.532 5  23879413.199          35.000        2471.375
  16124356.54514  24975605.374          26.000       -3844.834
  34162755.26713  25681067.421          21.000       -3989.947
 -10913411.031 7  20820858.026          47.000       -1320.605
   2817808.190 7  22576031.971          44.000       -3434.623
 16  6  8  5 24  0.0010000  0 10G30G13G20S20G28G15G02G09G05G07
 -16052192.705 6  20912534.037          38.000       -2220.963
  -9621267.685 8  21274756.914          48.000        1284.354
 -11118309.690 7  22305859.917          46.000        1607.753
 553725825.976 6  38805585.079          40.000        -725.626
  -9037187.916 7  22391156.756          44.000        1531.493
  -1497398.925 5  23851225.094          34.000        2465.291
  16354960.71114  25019484.191          25.000       -3842.081
  34401888.73412  25726574.099          14.000       -3986.939
 -10833033.494 8  20836155.167          48.000       -1359.364
   3024326.506 7  22615330.384          44.000       -3449.762
 16  6  8  5 25  0.0010000  0 11G30G21G13G20S20G28G15G02G09G05G07
 -15918067.529 6  20938057.406          38.000       -2249.763
    -34672.76214  25679066.387          29.000         528.631
  -9697743.534 8  21260204.671          48.000        1265.058
 -11213854.789 8  22287678.762          48.000        1577.392
 553769358.134 6  38813870.547          41.000        -726.151
  -9128203.169 7  22373834.239          42.000        1502.785
  -1645027.059 5  23823129.022          35.000        2456.414
  16585523.78213  25063357.389          23.000       -3844.949
  34641214.96112  25772116.515          14.000       -3989.266
 -10750332.574 8  20851892.628          48.000       -1397.461
   3231761.981 7  22654806.337          44.000       -3464.462
 16  6  8  5 26  0.0010000  0  9G30G13G20S20G28G15G02G05G07
 -15782267.979 6  20963899.992          36.000       -2276.872
  -9773090.801 8  21245865.845          48.000        1245.865
 -11307609.675 8  22269837.764          48.000        1547.130
 553812883.170 6  38822151.793          40.000        -726.084
  -9217560.349 7  22356831.863          43.000        1474.758
  -1792205.859 5  23795120.917          34.000        2448.891
  16815968.53212  25107212.910          16.000       -3843.620
 -10665342.654 8  20868066.083          48.000       -1435.827
   3440067.888 6  22694443.163          41.000       -3479.874
 16  6  8  5 27  0.0010000  0  9G30G13G20S20G28G15G27G05G07
 -15644744.718 6  20990068.041          38.000       -2305.309
  -9847237.829 8  21231757.658          49.000        1226.083
 -11399492.776 8  22252353.222          48.000        1516.240
 553856454.261 6  38830442.304          40.000        -726.422
  -9305179.040 7  22340158.075          42.000        1446.268
  -1938863.46415  23767205.838          31.000        2442.117
     57244.86514  25615479.521          25.000        -973.559
 -10578004.129 8  20884686.944          48.000       -1474.628
   3649292.343 6  22734256.027          40.000       -3494.191
 16  6  8  5 28  0.0010000  0  9G30G13G20S20G28G15G27G05G07
 -15505560.506 6  21016549.288          37.000       -2333.953
  -9920224.733 8  21217869.239          49.000        1206.884
 -11489534.833 8  22235218.643          48.000        1485.542
 553900028.817 6  38838735.328          40.000        -726.135
  -9391089.688 7  22323810.764          44.000        1417.557
  -2085038.32616  23739403.384          38.000        2431.567
    116814.63913  25626805.777          19.000       -1015.670
 -10488368.308 7  20901740.676          47.000       -1513.336
   3859372.232 7  22774234.929          42.000       -3507.780
 16  6  8  5 29  0.0010000  0 10G30G21G13G20S20G28G15G27G05G07
 -15364710.038 6  21043352.543          37.000       -2362.706
   -149680.86714  25657547.529          29.000         411.525
  -9992023.601 8  21204204.340          48.000        1186.211
 -11577698.755 7  22218440.311          47.000        1453.243
 553943620.926 6  38847029.835          40.000        -726.714
  -9475256.268 7  22307792.860          44.000        1387.436
  -2230701.768 6  23711686.435          39.000        2422.318
    178618.41114  25638582.842          29.000       -1049.797
 -10396419.488 7  20919237.834          46.000       -1552.241
   4070312.962 7  22814374.984          44.000       -3523.250
 16  6  8  5 30  0.0010000  0 10G30G21G13G20S20G28G15G27G05G07
 -15222135.876 6  21070486.968          38.000       -2390.367
   -173455.98515  25653025.689          34.000         382.570
 -10062554.182 8  21190782.767          49.000        1165.395
 -11663895.257 7  22202037.072          45.000        1421.207
 553987308.503 6  38855343.398          40.000        -728.706
  -9557589.845 7  22292123.629          43.000        1357.673
  -2375772.755 6  23684078.533          40.000        2413.854
    242746.12614  25650789.914          26.000       -1087.977
 -10302089.968 7  20937189.589          47.000       -1591.311
   4282171.084 7  22854690.781          45.000       -3538.022
 16  6  8  5 31  0.0010000  0 10G30G21G13G20S20G28G15G27G05G07
 -15077961.924 5  21097915.221          35.000       -2416.163
   -195483.93314  25648827.969          29.000         351.881
 -10131917.958 8  21177583.562          49.000        1146.506
 -11748216.069 7  22185992.068          45.000        1389.803
 554030990.824 6  38863657.013          40.000        -728.063
  -9638183.503 7  22276789.163          45.000        1329.087
  -2520350.990 6  23656566.764          41.000        2405.167
    309075.37414  25663404.345          26.000       -1123.328
 -10205493.542 7  20955570.584          46.000       -1628.344
   4494823.029 7  22895158.098          45.000       -3550.852
 16  6  8  5 32  0.0000000  0 10G30G21G13G20S20G28G15G27G05G07
 -14932182.386 5  20825863.272          34.000       -2442.473
   -215825.68814  25345185.472          28.000         322.331
 -10200085.959 8  20864820.150          49.000        1126.793
 -11830624.008 7  21870518.271          45.000        1357.911
 554074681.198 6  38572177.283          40.000        -727.848
  -9717000.483 7  21961998.263          45.000        1299.472
  -2664406.898 6  23329354.118          39.000        2397.142
    377625.03113  25376653.223          23.000       -1161.137
 -10106615.388 7  20674594.053          46.000       -1665.971
   4708274.288 7  22635983.572          46.000       -3563.547
 16  6  8  5 33  0.0000000  0 10G30G21G13G20S20G28G15G27G05G07
 -14784878.285 6  20853898.809          37.000       -2467.644
   -234504.86914  25341651.000          28.000         295.003
 -10267116.293 8  20852064.791          49.000        1107.624
 -11911168.559 7  21855192.094          46.000        1326.807
 554118303.737 6  38580478.020          40.000        -726.868
  -9794091.621 7  21947326.085          43.000        1270.501
  -2807997.085 6  23302032.853          41.000        2389.609
    448316.55413  25390118.212          23.000       -1194.277
 -10005526.303 7  20693831.749          46.000       -1703.234
   4922444.227 7  22676740.091          47.000       -3575.335
 16  6  8  5 34  0.0000000  0  9G30G13G20S20G28G15G27G05G07
 -14636058.944 6  20882215.138          37.000       -2492.742
 -10332995.233 8  20839529.201          49.000        1087.841
 -11989827.207 7  21840223.140          47.000        1294.620
 554161868.209 6  38588767.397          40.000        -726.255
  -9869435.219 7  21932990.696          44.000        1240.898
  -2951106.732 7  23274802.068          42.000        2380.709
    521170.61813  25403976.739          23.000       -1232.546
  -9902226.843 7  20713488.302          46.000       -1740.188
   5137323.853 7  22717628.534          46.000       -3587.500
 16  6  8  5 35  0.0000000  0  9G30G21G13G20S20G28G15G05G07
 -14485675.624 6  20910834.699          38.000       -2518.852
    -12209.39715  25335602.319          31.000         234.184
 -10397650.990 8  20827224.947          49.000        1067.723
 -12066520.345 7  21825629.052          47.000        1262.108
 554205433.766 6  38597057.298          40.000        -726.362
  -9942951.988 7  21919000.036          43.000        1210.145
  -3093663.569 7  23247674.273          44.000        2371.738
  -9796659.569 7  20733576.818          46.000       -1778.023
   5352962.352 7  22758661.621          45.000       -3599.795
 16  6  8  5 36  0.0000000  0 10G30G21G13G20S20G28G15G27G05G07
 -14333790.090 6  20939738.629          38.000       -2543.295
    -25469.00015  25333083.694          32.000         207.745
 -10461122.464 8  20815144.580          48.000        1047.595
 -12141278.438 7  21811402.448          47.000        1229.488
 554248958.002 6  38605340.148          40.000        -724.489
 -10014673.939 7  21905352.570          45.000        1180.001
  -3235703.069 7  23220646.835          46.000        2362.588
     74760.45014  25432960.888          28.000       -1304.899
  -9688876.823 7  20754087.682          46.000       -1815.651
   5569298.444 7  22799830.385          44.000       -3611.848
 16  6  8  5 37  0.0000000  0 10G30G21G13G20S20G28G15G27G05G07
 -14180400.002 6  20968926.683          38.000       -2570.301
    -36951.74115  25330900.654          34.000         176.023
 -10523383.712 8  20803297.226          48.000        1026.676
 -12214067.837 7  21797550.744          47.000        1195.814
 554292452.867 6  38613616.368          40.000        -724.939
 -10084568.900 7  21892050.688          44.000        1148.995
  -3377198.940 7  23193722.091          47.000        2352.803
    154161.33314  25448063.091          25.000       -1339.560
  -9578868.574 7  20775021.120          45.000       -1852.689
   5786335.010 7  22841131.699          44.000       -3623.880
 16  6  8  5 38  0.0000000  0  9G30G13G20S20G28G15G27G05G07
 -14025395.993 6  20998424.113          39.000       -2596.408
 -10584302.677 8  20791705.849          48.000        1004.612
 -12284748.384 7  21784099.837          46.000        1160.765
 554336047.912 6  38621913.109          40.000        -727.609
 -10152497.644 7  21879125.155          45.000        1115.757
  -3518017.551 8  23166923.670          48.000        2341.754
    235855.58015  25463612.125          30.000       -1380.934
  -9466517.533 7  20796401.336          46.000       -1891.549
   6004182.714 7  22882587.135          43.000       -3637.470
 16  6  8  5 39  0.0000000  0 10G30G21G13G20S20G28G15G27G05G07
 -13868852.301 6  21028213.763          39.000       -2623.734
    -54473.21115  25327610.992          32.000         113.065
 -10643929.142 8  20780358.688          48.000         982.710
 -12353363.795 7  21771044.317          45.000        1126.104
 554379693.397 6  38630217.057          40.000        -728.224
 -10218504.510 7  21866567.437          46.000        1083.415
  -3658207.330 8  23140246.475          48.000        2330.526
    319779.44713  25479584.327          22.000       -1416.193
  -9351889.666 7  20818214.213          46.000       -1929.880
   6222768.040 6  22924179.624          41.000       -3649.351
 16  6  8  5 40  0.0000000  0 10G30G21G13G20S20G28G15G27G05G07
 -13710771.501 6  21058295.112          40.000       -2647.002
    -60331.11715  25326494.282          32.000          82.202
 -10702243.194 8  20769261.693          48.000         961.540
 -12419885.548 7  21758385.126          45.000        1091.570
 554423395.084 6  38638535.610          40.000        -727.999
 -10282563.547 7  21854375.354          45.000        1051.461
  -3797745.856 8  23113691.170          48.000        2320.773
    405936.58514  25495976.381          29.000       -1453.902
  -9234980.582 7  20840461.548          46.000       -1966.790
   6442089.223 6  22965912.832          39.000       -3659.997
 16  6  8  5 41  0.0000000  0  9G30G13G20S20G28G15G27G05G07
 -13551245.681 7  21088654.233          42.000       -2671.106
 -10759312.963 8  20758402.528          48.000         940.827
 -12484375.123 7  21746114.604          46.000        1058.599
 554467065.209 6  38646843.519          40.000        -727.525
 -10344737.185 7  21842542.570          45.000        1020.484
  -3936700.385 8  23087251.455          49.000        2311.292
    494248.59014  25512783.680          27.000       -1489.407
  -9115874.513 7  20863128.613          47.000       -2002.916
   6662055.886 6  23007775.363          41.000       -3671.366
 16  6  8  5 42  0.0000000  0 10G30G21G13G20S20G28G15G27G05G07
 -13390264.067 6  21119287.357          41.000       -2696.068
    -67187.98315  25325295.575          31.000          21.402
 -10815104.837 8  20747785.117          48.000         917.754
 -12546792.181 7  21734232.838          45.000        1021.956
 554510735.418 6  38655154.360          40.000        -729.321
 -10404986.114 7  21831080.343          47.000         986.580
  -4075034.504 8  23060926.091          49.000        2298.804
    584732.80814  25530000.187          27.000       -1527.190
  -8994554.356 7  20886213.541          46.000       -2041.731
   6882680.274 7  23049761.617          42.000       -3684.024
 16  6  8  5 43  0.0000000  0 10G30G13G20G08S20G28G15G27G05G07
 -13227716.632 6  21150217.292          40.000       -2721.505
 -10869484.891 8  20737436.265          48.000         895.044
 -12606996.438 7  21722778.166          46.000         985.325
   -412207.61614  25189030.785          29.000          -9.531
 554554524.366 6  38663487.083          40.000        -729.947
 -10463172.235 7  21820006.696          46.000         953.001
  -4212612.943 8  23034747.362          49.000        2287.274
    677520.74212  25547652.234          15.000       -1556.140
  -8870903.581 7  20909744.078          46.000       -2079.527
   7104073.323 7  23091888.746          42.000       -3696.044
 16  6  8  5 44  0.0000000  0  9G30G13G20S20G28G15G27G05G07
 -13063668.600 6  21181437.983          41.000       -2746.581
 -10922494.401 8  20727349.237          48.000         871.491
 -12665023.693 7  21711738.356          47.000         948.642
 554598389.953 6  38671833.784          40.000        -733.070
 -10519331.795 7  21809316.902          44.000         918.761
  -4349475.331 8  23008700.853          49.000        2274.668
    772483.19512  25565744.044          13.000       -1618.762
  -8744980.472 7  20933705.827          46.000       -2117.958
   7326171.667 7  23134151.114          42.000       -3707.247
 16  6  8  5 45  0.0000000  0  8G30G13G20S20G28G15G05G07
 -12898061.718 7  21212952.622          42.000       -2772.765
 -10974051.809 8  20717538.236          48.000         847.111
 -12720785.163 7  21701125.884          47.000         910.702
 554642413.101 6  38680211.721          40.000        -735.347
 -10573378.862 7  21799035.478          46.000         882.804
  -4485538.079 8  22982810.279          49.000        2261.049
  -8616721.071 7  20958113.255          46.000       -2157.245
   7549035.091 7  23176561.233          43.000       -3720.544
 16  6  8  5 46  0.0000000  0  8G30G13G20S20G28G15G05G07
 -12730962.300 6  21244746.971          41.000       -2796.982
 -11024200.000 8  20707996.631          48.000         824.958
 -12774318.516 7  21690940.157          47.000         874.368
 554686535.853 6  38688607.544          40.000        -735.295
 -10625351.785 7  21789146.370          46.000         850.342
  -4620841.499 8  22957062.012          49.000        2249.502
  -8486186.112 7  20982952.069          46.000       -2193.569
   7772599.321 7  23219103.643          43.000       -3730.199
 16  6  8  5 47  0.0000000  0  8G30G13G20S20G28G15G05G07
 -12562424.822 7  21276820.000          43.000       -2821.807
 -11072969.503 7  20698713.674          47.000         800.597
 -12825648.600 7  21681169.134          45.000         836.488
 554730708.254 6  38697012.564          40.000        -737.916
 -10675277.905 7  21779643.627          45.000         814.494
  -4755414.184 8  22931453.817          49.000        2235.972
  -8353424.605 7  21008218.274          47.000       -2232.010
   7996811.449 7  23261771.781          44.000       -3742.854
 16  6  8  5 48  0.0000000  0  8G30G13G20S20G28G15G05G07
 -12392394.264 7  21309176.264          43.000       -2844.711
 -11120282.225 7  20689711.089          47.000         777.063
 -12874691.886 7  21671837.997          45.000         799.073
 554775007.491 6  38705441.804          40.000        -739.181
 -10723074.856 7  21770548.068          45.000         780.172
  -4889175.624 8  22905999.725          49.000        2223.754
  -8218376.519 7  21033915.779          46.000       -2268.574
   8221728.616 7  23304572.767          45.000       -3753.627
 16  6  8  5 49  0.0000000  0  8G30G13G20S20G28G15G05G07
 -12220967.138 7  21341800.371          44.000       -2868.821
 -11166210.871 8  20680972.090          48.000         753.704
 -12921516.405 7  21662928.439          45.000         761.432
 554819346.016 6  38713878.461          40.000        -738.952
 -10768812.127 7  21761845.452          46.000         744.770
  -5022196.338 8  22880687.853          49.000        2210.630
  -8081133.453 7  21060032.368          46.000       -2305.668
   8447256.810 7  23347489.781          45.000       -3763.701
 16  6  8  5 50  0.0000000  0  8G30G13G20S20G28G15G05G07
 -12048076.310 7  21374700.505          44.000       -2893.583
 -11210663.966 8  20672512.713          48.000         728.627
 -12966026.381 7  21654457.807          45.000         722.184
 554863812.139 6  38722339.374          40.000        -743.269
 -10812396.195 7  21753549.706          44.000         708.438
  -5154382.923 8  22855531.986          48.000        2195.958
  -7941623.322 7  21086581.531          47.000       -2343.977
   8673465.060 7  23390532.924          44.000       -3775.917
 16  6  8  5 51  0.0000000  0  8G30G13G20S20G28G15G05G07
 -11873725.321 7  21407876.580          43.000       -2918.478
 -11253621.967 7  20664338.176          47.000         702.949
 -13008197.479 7  21646432.626          45.000         682.941
 554908426.813 6  38730831.208          40.000        -744.823
 -10853804.202 7  21745671.421          46.000         671.177
  -5285713.047 7  22830540.901          47.000        2181.255
  -7799845.826 7  21113558.241          45.000       -2381.950
   8900352.341 7  23433710.504          45.000       -3787.520
 16  6  8  5 52  0.0000000  0  9G30G21G13G20S20G28G15G05G07
 -11697943.182 7  21441325.594          43.000       -2941.270
      8002.40115  25341352.759          32.000        -304.265
 -11295090.071 7  20656444.954          46.000         679.078
 -13048030.596 7  21638854.241          46.000         644.472
 554953168.847 6  38739346.112          40.000        -746.448
 -10893038.826 7  21738206.829          47.000         636.021
  -5416189.064 7  22805709.450          45.000        2168.316
  -7655825.948 7  21140964.489          45.000       -2418.300
   9127891.671 7  23477010.671          44.000       -3797.479
 16  6  8  5 53  0.0000000  0  8G30G13G20S20G28G15G05G07
 -11520816.152 7  21475033.220          44.000       -2964.042
 -11335131.223 7  20648826.991          47.000         655.260
 -13085584.596 7  21631707.033          45.000         606.762
 554997973.852 6  38747871.189          40.000        -747.730
 -10930160.858 7  21731140.782          46.000         600.850
  -5545871.150 7  22781035.523          46.000        2154.425
  -7509645.965 7  21168783.224          46.000       -2454.422
   9355999.481 7  23520415.313          43.000       -3806.893
 16  6  8  5 54  0.0000000  0  8G30G13G20S20G28G15G05G07
 -11342311.853 7  21509001.988          45.000       -2985.845
 -11373689.538 7  20641490.972          47.000         630.582
 -13120799.748 7  21625003.706          45.000         567.701
 555042881.568 6  38756416.909          40.000        -747.903
 -10965113.238 7  21724489.649          46.000         564.668
  -5674701.148 7  22756518.874          45.000        2140.313
  -7361271.010 7  21197017.223          46.000       -2490.601
   9584710.656 7  23563939.577          44.000       -3815.873
 16  6  8  5 55  0.0000000  0  8G30G13G20S20G28G15G05G07
 -11162498.496 7  21543220.661          46.000       -3007.004
 -11410809.619 7  20634426.217          47.000         607.827
 -13153717.313 7  21618742.237          47.000         530.295
 555087828.905 6  38764970.884          40.000        -748.868
 -10997938.609 7  21718245.123          47.000         529.900
  -5802720.271 7  22732157.690          45.000        2127.523
  -7210765.448 7  21225656.957          46.000       -2525.213
   9813960.061 7  23607565.522          44.000       -3824.818
 16  6  8  5 56  0.0000000  0  8G30G13G20S20G28G15G05G07
 -10981449.866 7  21577673.551          46.000       -3027.009
 -11446540.979 7  20627627.263          47.000         584.466
 -13184384.715 7  21612907.320          47.000         492.728
 555132764.285 6  38773521.962          40.000        -749.158
 -11028685.740 7  21712391.378          46.000         495.716
  -5929976.133 7  22707944.099          47.000        2115.098
  -7058200.786 7  21254690.978          46.000       -2559.671
  10043675.793 7  23651279.818          43.000       -3831.838
 16  6  8  5 57  0.0000000  0  9G30G21G13G20S20G28G15G05G07
 -10799283.922 7  21612337.745          46.000       -3045.947
     50895.01514  25363152.025          29.000        -457.649
 -11480978.842 7  20621073.170          47.000         562.487
 -13212893.258 7  21607481.000          46.000         456.328
 555177594.254 6  38782053.059          39.000        -746.376
 -11057449.029 7  21706920.316          47.000         462.463
  -6056560.288 7  22683852.625          46.000        2103.270
  -6903692.242 7  21284091.733          46.000       -2591.839
  10273743.799 6  23695059.221          41.000       -3837.732
 16  6  8  5 58  0.0000000  0  8G30G13G20S20G28G15G05G07
 -10615975.233 7  21647219.771          46.000       -3064.899
 -11514073.936 7  20614775.038          46.000         539.888
 -13239191.544 7  21602476.086          45.000         419.826
 555222352.300 6  38790569.708          40.000        -745.253
 -11084178.320 7  21701834.450          46.000         428.072
  -6182420.228 8  22659904.959          48.000        2091.521
  -6747212.500 7  21313866.848          45.000       -2624.568
  10504191.558 6  23738911.444          40.000       -3843.563
 16  6  8  6  1  0.0010000  0  8G30G13G20S20G28G15G05G07
 -10059140.109 7  21753180.686          46.000       -3123.437
 -11605019.972 7  20597467.267          45.000         468.296
 -13304522.918 7  21590044.761          46.000         304.003
 555356400.554 6  38816077.529          40.000        -745.334
 -11151880.495 7  21688948.197          45.000         322.448
  -6555344.049 7  22588937.942          47.000        2050.169
  -6265876.467 7  21405465.501          47.000       -2724.917
  11197898.517 6  23870921.050          38.000       -3865.650
 16  6  8  6  2  0.0010000  0  8G30G13G20S20G28G15G05G07
  -9871148.265 8  21788957.385          48.000       -3142.663
 -11632398.706 7  20592259.249          46.000         444.328
 -13321615.496 7  21586792.825          46.000         265.429
 555401122.963 6  38824589.256          40.000        -745.188
 -11170129.959 7  21685475.168          44.000         286.609
  -6677930.437 8  22565613.231          48.000        2036.233
  -6101383.889 7  21436765.905          46.000       -2758.100
  11430009.693 6  23915087.464          36.000       -3873.030
 16  6  8  6  3  0.0010000  0  9G30G21G13G20S20G28G15G05G07
  -9681973.458 7  21824955.020          47.000       -3163.337
    245403.00614  25400748.519          25.000        -642.007
 -11658277.776 7  20587334.204          46.000         418.458
 -13336333.350 7  21583991.524          46.000         224.857
 555445878.775 6  38833105.242          39.000        -746.285
 -11186190.821 7  21682421.450          45.000         249.113
  -6799619.292 7  22542454.907          46.000        2020.319
  -5934873.226 7  21468452.254          46.000       -2792.107
  11662556.267 6  23959342.909          38.000       -3879.227
 16  6  8  6  4  0.0010000  0 10G30G21G13G20G08S20G28G15G05G07
  -9491499.008 7  21861199.838          47.000       -3184.195
    285002.10015  25408290.433          30.000        -675.053
 -11682517.148 7  20582721.484          46.000         391.100
 -13348535.506 7  21581669.965          47.000         183.278
     65765.65014  25283249.223          29.000        -777.737
 555490804.571 6  38841654.261          39.000        -749.520
 -11199924.671 7  21679808.279          45.000         210.439
  -6920267.857 7  22519497.209          45.000        2003.114
  -5766228.203 7  21500544.304          46.000       -2827.118
  11895658.839 6  24003702.671          38.000       -3887.396
 16  6  8  6  5  0.0010000  0  9G30G21G13G20S20G28G15G05G07
  -9300019.700 7  21897638.004          47.000       -3198.505
    326332.68914  25416150.343          26.000        -701.547
 -11705388.887 7  20578369.626          46.000         370.877
 -13358493.346 7  21579773.388          46.000         148.349
 555535629.543 6  38850184.311          40.000        -745.162
 -11211604.793 7  21677582.731          44.000         178.438
  -7040143.615 7  22496684.295          45.000        1992.318
  -5595742.773 7  21532985.288          46.000       -2855.729
  12129025.948 6  24048109.479          37.000       -3891.089
 16  6  8  6  6  0.0010000  0  8G30G13G20S20G28G15G05G07
  -9107637.058 7  21934248.212          47.000       -3214.312
 -11726971.755 7  20574261.252          45.000         347.926
 -13366285.231 8  21578291.969          48.000         111.288
 555580259.711 6  38858676.878          40.000        -742.854
 -11221311.497 7  21675734.247          42.000         144.992
  -7159321.436 7  22474004.387          46.000        1979.797
  -5423519.092 7  21565762.189          47.000       -2885.757
  12362559.93115  24092543.388          33.000       -3894.981
 16  6  8  6  7  0.0010000  0  9G30G21G13G20S20G28G15G05G07
  -8914248.041 7  21971047.562          46.000       -3230.931
     69307.31414  25432844.181          25.000        -759.958
 -11747139.503 7  20570423.390          45.000         324.662
 -13371785.277 7  21577245.166          47.000          72.922
 555624803.354 6  38867152.554          39.000        -741.102
 -11228921.201 7  21674286.402          43.000         109.463
  -7277671.244 7  22451484.636          47.000        1965.726
  -5249454.862 7  21598885.320          47.000       -2916.393
  12596366.66616  24137049.470          36.000       -3898.989
 16  6  8  6  8  0.0010000  0  9G30G21G13G20S20G28G15G05G07
  -8719818.412 7  22008048.079          47.000       -3249.428
    115836.34814  25441680.483          26.000        -790.911
 -11765835.168 7  20566866.286          45.000         298.973
 -13374937.206 8  21576645.314          48.000          32.306
 555669314.930 6  38875622.837          39.000        -742.527
 -11234379.215 7  21673246.631          42.000          72.860
  -7395132.365 7  22429130.105          47.000        1949.465
  -5073515.375 7  21632362.656          45.000       -2948.178
  12830484.393 6  24181601.743          36.000       -3905.064
 16  6  8  6  9  0.0000000  0  9G30G21G13G20S20G28G15G05G07
  -8524237.900 7  21745472.192          46.000       -3268.846
    164287.34415  25151106.943          30.000        -823.149
 -11782925.438 7  20263821.476          46.000         271.482
 -13375608.864 8  21276725.804          48.000          -9.619
 555713914.982 6  38584317.714          40.000        -744.662
 -11237555.609 6  21372848.217          41.000          34.510
  -7511567.185 7  22107180.986          47.000        1932.379
  -4895592.239 7  21366428.631          45.000       -2981.798
  13065027.101 5  23926440.087          32.000       -3910.358
 16  6  8  6 10  0.0000000  0 10G30G21G13G20G08S20G28G15G05G07
  -8327538.511 7  21782905.492          47.000       -3287.713
    214639.63514  25160701.962          25.000        -854.174
 -11798419.703 7  20260874.047          47.000         244.694
 -13373810.804 7  21277066.729          47.000         -50.513
    377585.61914  25043837.086          26.000        -992.704
 555758590.098 6  38592818.588          40.000        -744.841
 -11238462.516 7  21372680.835          43.000          -4.794
  -7626981.093 7  22085220.463          47.000        1914.473
  -4715719.462 7  21400658.053          45.000       -3014.227
  13299978.34913  23971187.331          21.000       -3930.208
 16  6  8  6 11  0.0000000  0 10G30G21G13G20G08S20G28G15G05G07
  -8129692.507 7  21820551.911          45.000       -3307.951
    266931.04114  25170653.211          27.000        -888.587
 -11812267.992 7  20258238.768          46.000         216.135
 -13369494.069 7  21277888.809          47.000         -93.561
    437955.75815  25055396.215          30.000       -1033.624
 555803393.913 6  38601345.235          40.000        -748.785
 -11237053.427 7  21372950.179          44.000         -43.451
  -7741319.560 7  22063461.856          46.000        1895.897
  -4533870.119 7  21435261.852          45.000       -3048.370
  13535372.14114  24015940.927          29.000       -3927.300
 16  6  8  6 12  0.0000000  0 10G30G21G13G20G08S20G28G15G05G07
  -7930606.928 7  21858435.810          45.000       -3328.334
    321049.18313  25180975.695          23.000        -923.095
 -11824354.722 7  20255938.707          46.000         186.387
 -13362544.449 7  21279210.680          46.000        -137.580
    501115.06614  25067415.646          27.000       -1072.160
 555848426.188 6  38609914.636          40.000        -752.206
 -11233216.433 7  21373678.847          44.000         -84.101
  -7854462.753 7  22041931.254          45.000        1875.286
  -4349952.974 7  21470261.091          45.000       -3082.549
  13771263.72015  24060821.683          33.000       -3935.709
 16  6  8  6 13  0.0000000  0  9G30G21G13G20S20G28G15G05G07
  -7730332.325 7  21896546.004          44.000       -3348.278
    377376.46814  25191739.129          25.000        -954.787
 -11834707.951 7  20253969.031          46.000         157.519
 -13352993.140 7  21281029.377          47.000        -181.233
 555893656.861 6  38618522.374          40.000        -755.881
 -11226984.067 7  21374864.520          44.000        -124.436
  -7966434.619 7  22020625.533          47.000        1855.897
  -4164021.444 7  21505643.781          46.000       -3116.126
  14007633.560 5  24105802.289          35.000       -3943.921
 16  6  8  6 14  0.0000000  0  9G30G21G13G20S20G28G15G05G07
  -7528831.848 7  21934892.334          46.000       -3368.321
    435757.39314  25202827.556          28.000        -990.100
 -11843268.556 7  20252338.535          45.000         128.153
 -13340782.509 7  21283353.257          47.000        -225.115
 555939128.884 6  38627174.140          39.000        -758.601
 -11218301.222 7  21376517.631          43.000        -164.979
  -8077171.086 8  21999552.580          48.000        1835.522
  -3976041.092 7  21541413.481          45.000       -3149.190
  14244521.738 5  24150878.261          32.000       -3952.886
 16  6  8  6 15  0.0000000  0  9G30G21G13G20S20G28G15G05G07
  -7326144.200 7  21973462.916          47.000       -3387.788
    496153.72815  25214322.346          30.000       -1021.469
 -11850053.144 7  20251049.575          45.000          98.481
 -13325932.437 7  21286177.400          46.000        -269.683
 555984809.177 6  38635867.420          39.000        -762.918
 -11207189.296 7  21378631.010          43.000        -204.942
  -8186684.344 7  21978710.075          47.000        1815.188
  -3786052.528 7  21577566.825          45.000       -3183.172
  14481893.68915  24196044.921          32.000       -3962.260
 16  6  8  6 16  0.0000000  0 10G30G21G13G20G08S20G28G15G05G07
  -7122354.310 7  22012242.657          46.000       -3405.423
    558489.70114  25226195.596          29.000       -1055.780
 -11855124.428 7  20250084.368          45.000          70.534
 -13308509.015 7  21289493.238          46.000        -311.660
    776747.34315  25120054.524          33.000       -1232.933
 556030634.187 6  38644587.677          40.000        -765.524
 -11193716.002 7  21381194.674          42.000        -244.229
  -8295032.472 7  21958093.079          46.000        1796.075
  -3594144.248 7  21614086.833          45.000       -3214.205
  14719668.615 6  24241297.000          38.000       -3966.043
 16  6  8  6 17  0.0000000  0 10G30G21G13G20G08S20G28G15G05G07
  -6917498.057 7  22051226.112          46.000       -3422.373
    622737.02115  25238417.222          32.000       -1085.771
 -11858496.946 7  20249440.752          44.000          42.298
 -13288529.317 7  21293296.374          47.000        -353.653
    851785.67714  25134329.483          29.000       -1270.113
 556076590.983 6  38653332.994          40.000        -766.540
 -11177900.565 7  21384204.278          42.000        -281.985
  -8402224.254 7  21937697.805          46.000        1777.253
  -3400355.560 7  21650963.924          46.000       -3244.634
  14957814.755 6  24286612.057          36.000       -3971.767
 16  6  8  6 18  0.0000000  0 10G30G21G13G20G08S20G28G15G05G07
  -6711661.074 7  22090396.354          46.000       -3438.668
    688819.61515  25250998.411          34.000       -1116.256
 -11860234.437 7  20249111.327          45.000          14.699
 -13266061.344 8  21297572.689          48.000        -395.643
    928937.59014  25149032.251          29.000       -1307.374
 556122601.172 6  38662088.885          40.000        -767.730
 -11159812.735 7  21387646.787          42.000        -320.397
  -8508319.254 7  21917505.966          45.000        1758.696
  -3204774.881 7  21688180.893          45.000       -3274.250
  15196250.255 5  24331987.300          34.000       -3975.871
 16  6  8  6 19  0.0000000  0 10G30G21G13G20G08S20G28G15G05G07
  -6504859.189 7  22129750.173          47.000       -3454.269
    756727.56815  25263919.407          32.000       -1146.943
 -11860330.520 7  20249090.596          44.000         -11.461
 -13241102.772 7  21302321.853          47.000        -436.292
   1008448.01215  25164163.196          32.000       -1342.608
 556168668.476 6  38670855.089          40.000        -768.438
 -11139451.716 6  21391521.625          41.000        -357.656
  -8613305.833 7  21897528.678          46.000        1741.023
  -3007422.839 7  21725737.165          46.000       -3303.743
  15434963.27715  24377408.437          32.000       -3981.896
 16  6  8  6 20  0.0000000  0 10G30G21G13G20G08S20G28G15G05G07
  -6297159.055 7  22169273.555          47.000       -3469.172
    826395.60114  25277184.452          26.000       -1176.143
 -11858830.581 7  20249378.158          45.000         -37.934
 -13213703.327 7  21307536.013          47.000        -476.926
   1090136.158 5  25179707.309          33.000       -1378.821
 556214733.861 6  38679621.066          40.000        -768.023
 -11116869.368 6  21395812.948          39.000        -394.697
  -8717224.024 7  21877754.719          47.000        1722.727
  -2808369.261 7  21763612.845          44.000       -3331.524
  15673891.46115  24422877.353          31.000       -3982.650
 16  6  8  6 21  0.0000000  0 10G30G21G13G20G08S20G28G15G05G07
  -6088564.994 7  22208966.413          46.000       -3484.509
    897866.54414  25290790.177          26.000       -1204.988
 -11855717.699 7  20249972.163          46.000         -65.208
 -13183851.007 7  21313215.571          47.000        -518.329
   1174007.82415  25195665.166          34.000       -1417.152
 556260797.388 6  38688387.532          40.000        -767.513
 -11092055.130 7  21400539.793          42.000        -432.488
  -8820051.409 7  21858187.755          47.000        1704.213
  -2607623.068 7  21801815.682          45.000       -3360.158
  15913034.92915  24468382.844          31.000       -3988.113
 16  6  8  6 22  0.0000000  0 10G30G21G13G20G08S20G28G15G05G07
  -5879081.912 7  22248829.935          46.000       -3498.325
    971079.98312  25304657.656          17.000       -1238.124
 -11850975.648 7  20250874.497          46.000         -92.041
 -13151533.744 7  21319366.162          47.000        -558.101
   1260067.623 5  25212047.099          34.000       -1452.057
 556306874.028 6  38697154.190          39.000        -767.690
 -11064999.195 7  21405691.045          43.000        -469.835
  -8921766.946 7  21838830.211          45.000        1687.167
  -2405193.893 7  21840337.893          46.000       -3387.321
  16152392.39014  24513928.174          26.000       -3988.908
 16  6  8  6 23  0.0000000  0 10G30G21G13G20G08S20G28G15G05G07
  -5668828.525 7  22288840.265          47.000       -3510.187
   1045958.17113  25318970.324          18.000       -1261.286
 -11844702.080 7  20252067.655          45.000        -116.960
 -13116854.971 7  21325965.555          47.000        -596.859
   1348206.60915  25228820.091          32.000       -1482.694
 556352869.261 6  38705907.306          40.000        -765.789
 -11035806.012 7  21411242.012          42.000        -504.196
  -9022461.834 7  21819670.221          46.000        1669.782
  -2201205.189 7  21879155.378          45.000       -3412.275
  16391849.22515  24559511.319          33.000       -3990.953
 16  6  8  6 24  0.0000000  0 10G30G21G13G20G08S20G28G15G05G07
  -5457792.091 7  22328999.080          46.000       -3524.430
   1122501.55415  25333514.714          33.000       -1290.724
 -11836863.019 7  20253558.323          44.000        -144.168
 -13079786.386 8  21333020.433          48.000        -638.005
   1438446.15315  25245994.124          34.000       -1521.330
 556398801.636 6  38714648.609          39.000        -764.802
 -11004448.836 7  21417210.056          42.000        -541.434
  -9122097.758 7  21800707.261          45.000        1651.518
  -1995649.005 7  21918271.141          45.000       -3439.423
  16631422.98115  24605093.870          31.000       -3995.069
 16  6  8  6 25  0.0000000  0 10G30G21G13G20G08S20G28G15G05G07
  -5245885.210 7  22369323.409          45.000       -3539.588
   1200814.89015  25348416.206          34.000       -1321.110
 -11827350.137 7  20255368.434          45.000        -173.121
 -13040225.647 8  21340548.091          48.000        -680.518
   1530881.98014  25263583.700          29.000       -1555.840
 556444777.225 6  38723398.235          40.000        -767.118
 -10970827.239 6  21423606.678          41.000        -580.182
  -9220559.585 7  21781969.078          44.000        1630.802
  -1788443.186 7  21957701.182          44.000       -3467.582
  16871204.42015  24650721.373          31.000       -3997.580
 16  6  8  6 26  0.0000000  0  9G30G13G20G08S20G28G15G05G07
  -5033027.422 7  22409831.228          46.000       -3555.465
 -11816062.579 7  20257516.364          46.000        -202.523
 -12998078.483 8  21348567.810          48.000        -723.716
   1625602.70814  25281601.747          28.000       -1597.760
 556490885.679 6  38732171.681          40.000        -769.143
 -10934847.942 7  21430457.930          44.000        -619.088
  -9317741.347 7  21763479.892          46.000        1608.976
  -1579513.215 7  21997459.025          44.000       -3496.433
  17111278.72113  24696391.018          23.000       -4003.538
 16  6  8  6 27  0.0000000  0 10G30G21G13G20G08S20G28G15G05G07
  -4819238.069 7  22450511.943          45.000       -3570.005
   1362364.11915  25379289.497          30.000       -1380.221
 -11802999.494 7  20260004.520          46.000        -231.944
 -12953349.679 7  21357078.595          47.000        -766.184
   1722596.12615  25300063.188          33.000       -1636.179
 556537109.220 6  38740968.109          40.000        -770.004
 -10896517.674 7  21437754.319          45.000        -657.501
  -9413635.428 7  21745229.494          46.000        1588.113
  -1368884.166 7  22037541.425          44.000       -3523.527
  17351642.56615  24742157.513          30.000       -4008.187
 16  6  8  6 28  0.0000000  0  9G30G13G20G08S20G28G15G05G07
  -4604614.813 7  22491351.560          43.000       -3583.575
 -11788238.014 7  20262810.550          45.000        -260.248
 -12906123.695 7  21366064.480          46.000        -807.893
   1821772.800 5  25318937.518          34.000       -1670.208
 556583370.239 6  38749769.947          40.000        -771.106
 -10855921.988 6  21445475.325          41.000        -695.249
  -9508313.738 7  21727213.837          46.000        1567.793
  -1156659.146 7  22077923.323          43.000       -3550.519
  17592179.42515  24787930.132          34.000       -4010.822
 16  6  8  6 29  0.0000000  0 11G30G21G13G20G08S20G28G15G18G05G07
  -4389118.353 7  22532359.398          43.000       -3599.570
   1531654.13215  25411480.298          30.000       -1441.338
 -11771718.421 7  20265955.359          46.000        -290.493
 -12856348.577 7  21375535.777          46.000        -851.503
   1923177.834 5  25338232.538          32.000       -1711.607
 556629716.349 6  38758588.467          40.000        -773.542
 -10813010.295 6  21453631.435          37.000        -735.703
  -9601710.249 7  21709441.593          46.000        1545.523
   -133076.63215  25108941.528          33.000        2214.796
   -942805.338 7  22118618.975          43.000       -3579.074
  17832944.705 5  24833740.531          33.000       -4014.957
 16  6  8  6 30  0.0000000  0 11G30G21G13G20G08S20G28G15G18G05G07
  -4172754.680 7  22573534.373          44.000       -3612.611
   1618706.90514  25428110.111          29.000       -1469.671
 -11753427.302 7  20269437.724          46.000        -319.518
 -12804017.881 7  21385495.908          47.000        -893.132
   2026811.54515  25357956.658          32.000       -1747.808
 556676159.369 6  38767427.578          40.000        -775.034
 -10767777.219 6  21462246.189          41.000        -773.106
  -9693804.371 7  21691916.444          45.000        1524.244
   -265453.602 5  25083755.402          34.000        2197.112
   -727335.573 7  22159622.956          44.000       -3604.379
  18073940.96612  24879622.528          16.000       -4010.099
 16  6  8  6 31  0.0000000  0 11G30G21G13G20G08S20G28G15G18G05G07
  -3955615.070 7  22614853.365          44.000       -3624.776
   1707730.19615  25445036.718          30.000       -1497.346
 -11733435.775 7  20273240.074          45.000        -347.227
 -12749210.433 8  21395926.095          48.000        -933.496
   2132589.03815  25378085.921          31.000       -1778.946
 556722631.823 6  38776272.256          40.000        -774.491
 -10720302.896 7  21471283.936          42.000        -809.347
  -9784661.832 7  21674625.582          45.000        1504.525
   -396934.402 5  25058730.428          34.000        2183.938
   -510347.589 7  22200913.626          44.000       -3628.955
  18315059.47014  24925507.840          27.000       -4019.429
 16  6  8  6 32  0.0000000  0 10G30G21G13G20G08S20G28G15G18G05
  -3737731.746 7  22656315.868          42.000       -3638.062
   1798422.62715  25462319.919          30.000       -1524.891
 -11711756.660 7  20277364.817          45.000        -375.640
 -12691947.465 8  21406822.587          48.000        -975.218
   2240483.49814  25398613.781          29.000       -1814.300
 556769105.564 6  38785115.031          40.000        -775.275
 -10670609.815 6  21480736.544          40.000        -846.684
  -9874288.258 7  21657571.833          47.000        1482.947
   -527522.105 5  25033881.859          34.000        2168.563
   -291880.453 7  22242486.798          44.000       -3654.033
 16  6  8  6 33  0.0000000  0  9G30G13G20G08S20G28G15G18G05
  -3519109.172 6  22697916.017          39.000       -3649.640
 -11688374.810 7  20281813.488          45.000        -403.230
 -12632222.433 8  21418188.333          48.000       -1015.286
   2350494.89015  25419547.307          32.000       -1850.224
 556815596.152 6  38793963.269          40.000        -774.375
 -10618692.131 6  21490614.257          38.000        -883.912
  -9962662.378 7  21640754.273          46.000        1462.866
   -657189.20115  25009204.477          31.000        2152.845
    -71945.439 7  22284338.284          44.000       -3676.972
 16  6  8  6 34  0.0000000  0  9G30G13G20G08S20G28G15G18G05
  -3299807.386 6  22739648.004          39.000       -3661.020
 -11663330.941 7  20286581.272          45.000        -431.791
 -12570084.779 8  21430013.804          48.000       -1056.261
   2462567.90115  25440874.125          30.000       -1884.658
 556862050.512 6  38802801.577          39.000        -774.868
 -10564600.474 6  21500910.444          40.000        -918.885
 -10049818.600 7  21624168.696          46.000        1442.005
   -785967.09914  24984699.764          28.000        2138.536
    149389.440 7  22326457.455          44.000       -3701.374
 16  6  8  6 35  0.0010000  0 10G30G13G20G08S20G28G15G18G24G05
  -3079799.847 6  22781512.769          39.000       -3670.793
 -11636582.929 7  20291670.873          45.000        -458.333
 -12505500.435 8  21442303.312          49.000       -1095.126
   2576731.82214  25462599.647          27.000       -1919.418
 556908494.209 6  38811638.979          40.000        -772.899
 -10508302.110 6  21511625.698          41.000        -955.182
 -10135709.167 7  21607825.241          46.000        1422.499
   -913801.30813  24960363.569          22.000        2116.213
   -148387.44316  23991915.136          40.000        2474.331
    372143.589 7  22368847.978          45.000       -3722.764
 16  6  8  6 36  0.0010000  0 12G30G21G13G20G08S20G28G15G18G24G05G07
  -2859250.351 6  22823480.682          39.000       -3681.677
   2173968.77115  25534415.843          30.000       -1630.718
 -11608269.025 7  20297059.657          45.000        -485.714
 -12438618.217 8  21455030.507          48.000       -1134.692
   2692830.28315  25484691.308          33.000       -1952.521
 556954788.133 6  38820449.646          39.000        -770.727
 -10449946.027 6  21522728.487          41.000        -990.329
 -10220461.811 7  21591697.541          46.000        1402.217
  -1040816.34115  24936203.411          30.000        2111.428
   -296596.731 6  23963709.128          41.000        2465.648
    596145.691 7  22411474.079          45.000       -3744.604
  19521493.64713  25155174.240          20.000       -4021.589
 16  6  8  6 37  0.0010000  0 12G30G21G13G20G08S20G28G15G18G24G05G07
  -2638116.754 6  22865563.907          41.000       -3689.873
   2272567.25114  25553181.005          29.000       -1654.384
 -11578331.836 7  20302755.024          44.000        -511.836
 -12369389.959 8  21468204.496          49.000       -1172.972
   2810906.765 6  25507163.402          37.000       -1984.132
 557000994.136 6  38829243.160          40.000        -769.145
 -10389485.314 6  21534231.408          39.000       -1025.024
 -10304013.516 7  21575797.443          46.000        1382.560
  -1166948.37415  24912200.200          33.000        2095.683
   -444276.233 7  23935609.688          43.000        2456.801
    821429.303 7  22454341.115          43.000       -3765.424
  19762891.80014  25201081.854          25.000       -4023.623
 16  6  8  6 38  0.0010000  0 12G30G21G13G20G08S20G28G15G18G24G05G07
  -2416452.969 7  22907746.144          42.000       -3697.564
     54482.16314  25572229.924          26.000       -1679.218
 -11546806.754 7  20308753.292          44.000        -537.420
 -12297860.799 8  21481816.242          49.000       -1210.448
   2930910.389 6  25530002.230          36.000       -2014.442
 557047064.862 6  38838009.556          40.000        -765.400
 -10326965.858 6  21546128.199          39.000       -1058.306
 -10386393.085 7  21560122.227          46.000        1364.040
  -1292217.33415  24888359.398          31.000        2081.840
   -591459.163 6  23907597.185          40.000        2449.713
   1047932.853 7  22497445.822          44.000       -3784.484
  20004236.30814  25247004.946          25.000       -4020.914
 16  6  8  6 39  0.0010000  0 12G30G21G13G20G08S20G28G15G18G24G05G07
  -2194340.879 7  22950012.822          43.000       -3705.524
    155677.21515  25591516.376          32.000       -1702.097
 -11513757.265 7  20315043.746          44.000        -564.042
 -12224104.791 8  21495850.876          48.000       -1248.406
   3052761.71915  25553182.767          33.000       -2046.893
 557092936.012 6  38846738.905          39.000        -763.571
 -10262462.037 6  21558405.178          40.000       -1092.566
 -10467656.633 7  21544657.163          46.000        1344.270
  -1416676.99715  24864668.215          31.000        2064.284
   -738208.212 6  23879674.655          41.000        2441.113
   1275565.907 7  22540763.493          45.000       -3803.568
  20245387.37214  25292908.983          29.000       -4019.105
 16  6  8  6 40  0.0010000  0 11G30G13G20G08S20G28G15G18G24G05G07
  -1971739.781 7  22992370.242          43.000       -3713.495
 -11479124.860 7  20321633.769          44.000        -589.660
 -12148073.572 8  21510318.921          48.000       -1285.958
   3176503.396 5  25576734.715          35.000       -2078.514
 557138653.720 6  38855439.828          39.000        -760.030
 -10195925.943 6  21571065.555          40.000       -1125.458
 -10547738.105 7  21529418.202          46.000        1324.829
  -1540255.79114  24841149.911          29.000        2052.502
   -884462.663 7  23851844.071          42.000        2433.759
   1504360.451 7  22584305.014          46.000       -3822.374
  20486465.72914  25338780.562          24.000       -4016.268
 16  6  8  6 41  0.0010000  0 12G30G21G13G20G08S20G28G15G18G24G05G07
  -1748701.878 7  23034817.722          45.000       -3721.282
    362636.78114  25630942.386          29.000       -1749.239
 -11442943.876 7  20328518.124          44.000        -616.369
 -12069812.138 8  21525212.228          48.000       -1323.172
   3302085.216 5  25600632.056          35.000       -2108.952
 557184167.502 6  38864098.992          39.000        -757.222
 -10127403.800 6  21584107.202          40.000       -1159.108
 -10626664.516 7  21514399.498          46.000        1305.640
  -1662976.24215  24817799.670          32.000        2037.714
  -1030255.050 7  23824097.841          42.000        2425.989
   1734255.878 7  22628048.993          44.000       -3840.638
  20727372.52414  25384627.380          24.000       -4013.589
 16  6  8  6 42  0.0010000  0 12G30G21G13G20G08S20G28G15G18G24G05G07
  -1525251.903 7  23077335.753          44.000       -3727.787
    468015.18414  25651052.802          29.000       -1770.856
 -11405220.963 7  20335697.981          45.000        -641.278
 -11989338.981 8  21540525.859          49.000       -1359.785
   3429483.690 5  25624870.565          34.000       -2137.685
 557229472.338 6  38872720.587          39.000        -753.631
 -10056913.471 6  21597517.904          38.000       -1192.324
 -10704435.099 7  21499600.387          47.000        1285.929
  -1784834.35815  24794612.745          34.000        2023.312
  -1175590.901 7  23796442.387          44.000        2418.162
   1965218.457 7  22671997.750          43.000       -3857.967
  20968100.60914  25430437.273          24.000       -4009.422
 16  6  8  6 43  0.0000000  0 12G30G21G13G20G08S20G28G15G18G24G05G07
  -1301334.035 7  22820155.683          43.000       -3737.419
    575009.68214  25371633.406          29.000       -1795.935
 -11365883.228 7  20043389.610          44.000        -670.252
 -11906591.837 8  21256479.486          48.000       -1399.061
   3558755.354 5  25349682.516          34.000       -2171.358
 557274644.573 6  38581525.034          40.000        -752.748
  -9984393.685 6  21311527.716          41.000       -1226.838
 -10780969.072 7  21185241.327          45.000        1264.552
  -1905743.435 5  24471810.974          33.000        2005.604
  -1320395.073 7  23469092.077          43.000        2408.191
   2197294.828 7  22416368.865          43.000       -3877.564
  21208708.63212  25176421.974          14.000       -4019.878
 16  6  8  6 44  0.0000000  0 10G30G13G20G08S20G28G15G18G24G05
  -1076808.361 7  22862881.895          43.000       -3747.221
 -11324773.487 7  20051215.614          46.000        -700.092
 -11821425.252 8  21272685.660          48.000       -1439.973
   3690041.21715  25374660.129          31.000       -2205.369
 557319829.617 6  38590124.309          40.000        -754.512
  -9909699.605 6  21325742.401          41.000       -1263.328
 -10856101.299 7  21170946.301          47.000        1240.126
  -2025535.07415  24449017.622          34.000        1985.255
  -1464509.021 7  23441668.169          44.000        2395.280
   2430615.439 7  22460770.315          44.000       -3899.440
 16  6  8  6 45  0.0000000  0 12G30G21G13G20G08S20G28G15G18G24G05G07
   -851611.623 7  22905735.669          44.000       -3757.836
    793016.69214  25413250.814          29.000       -1848.570
 -11281811.347 7  20059390.675          45.000        -730.963
 -11733770.723 8  21289365.765          48.000       -1481.262
   3823404.39015  25400036.881          31.000       -2240.460
 557365108.980 6  38598740.110          40.000        -755.199
  -9832761.971 6  21340380.220          39.000       -1300.647
 -10929743.430 7  21156931.560          47.000        1215.476
  -2144116.178 5  24426453.967          34.000        1966.096
  -1607849.844 7  23414392.519          46.000        2382.813
   2665234.209 7  22505417.186          43.000       -3920.684
  21690067.62513  25268055.545          22.000       -4008.598
 16  6  8  6 46  0.0000000  0 12G30G21G13G20G08S20G28G15G18G24G05G07
   -625786.311 7  22948710.372          44.000       -3768.466
    904714.14015  25434484.763          30.000       -1873.865
 -11237022.936 7  20067914.042          46.000        -761.678
 -11643666.209 8  21306512.104          48.000       -1521.752
   3958802.04914  25425808.515          29.000       -2273.283
 557410444.159 6  38607367.358          39.000        -755.862
  -9753619.221 6  21355437.751          38.000       -1336.354
 -11001913.851 7  21143199.251          47.000        1190.708
  -2261499.84714  24404106.380          26.000        1946.819
  -1750440.769 7  23387258.565          46.000        2370.068
   2901099.167 7  22550300.787          42.000       -3941.508
  21930902.53113  25313857.341          22.000       -4017.206
 16  6  8  6 47  0.0000000  0 12G30G21G13G20G08S20G28G15G18G24G05G07
   -399363.456 7  22991793.442          43.000       -3779.232
   1017936.01315  25456042.360          33.000       -1900.190
 -11190422.706 7  20076778.491          43.000        -791.692
 -11551138.101 8  21324120.805          48.000       -1562.427
   4096202.36114  25451954.054          29.000       -2308.578
 557455807.034 6  38615999.300          40.000        -756.822
  -9672298.054 6  21370916.914          39.000       -1373.540
 -11072618.478 7  21129745.377          47.000        1165.581
  -2377689.26515  24382002.591          32.000        1926.427
  -1892294.941 7  23360262.921          46.000        2357.491
   3138168.694 7  22595413.630          42.000       -3961.280
  22171739.38113  25359681.490          23.000       -4018.891
 16  6  8  6 48  0.0000000  0 12G30G21G13G20G08S20G28G15G18G24G05G07
   -172309.548 7  23035002.118          42.000       -3789.310
   1132715.79215  25477886.089          34.000       -1923.866
 -11141960.469 7  20086002.536          45.000        -822.802
 -11456149.702 8  21342197.206          48.000       -1603.041
   4235637.90315  25478487.703          30.000       -2341.315
 557501248.248 6  38624646.773          39.000        -758.138
  -9588761.370 6  21386809.648          38.000       -1409.838
 -11141799.202 7  21116578.891          46.000        1140.661
  -2492621.35715  24360129.964          32.000        1905.044
  -2033360.164 7  23333419.373          45.000        2344.915
   3376467.627 6  22640758.196          41.000       -3980.974
  22412659.54313  25405532.374          22.000       -4014.201
 16  6  8  6 49  0.0000000  0 11G30G21G13G20G08S20G28G15G18G24G05
     55199.162 7  23078297.993          42.000       -3794.724
   1248871.995 5  25499999.529          33.000       -1944.708
 -11091796.219 7  20095546.514          43.000        -849.241
 -11358873.792 7  21360707.019          47.000       -1639.215
   4376929.84513  25505374.650          22.000       -2369.100
 557546613.136 6  38633279.675          39.000        -755.074
  -9503181.962 6  21403098.850          40.000       -1442.331
 -11209607.946 8  21103676.986          48.000        1120.206
  -2606443.873 6  24338477.158          38.000        1889.347
  -2173793.412 7  23306696.895          45.000        2336.737
   3615808.644 6  22686302.339          40.000       -3995.567
 16  6  8  6 50  0.0000000  0 11G30G21G13G20G08S20G28G15G18G24G05
    283066.270 6  23121652.343          40.000       -3802.704
   1366308.46215  25522338.983          32.000       -1968.800
 -11040010.850 7  20105402.083          44.000        -877.909
 -11259404.626 7  21379632.984          46.000       -1676.886
   4519983.14614  25532595.489          29.000       -2401.188
 557591809.898 6  38641880.660          40.000        -753.883
  -9415653.147 6  21419756.479          41.000       -1476.235
 -11276117.064 8  21091019.296          48.000        1096.471
  -2719223.516 5  24317012.169          34.000        1868.573
  -2313673.489 7  23280081.334          45.000        2325.470
   3856084.961 6  22732026.028          41.000       -4012.408
 16  6  8  6 51  0.0000000  0 11G30G21G13G20G08S20G28G15G18G24G05
    511398.135 7  23165108.149          42.000       -3808.862
   1485125.53815  25544960.556          31.000       -1987.573
 -10986482.332 7  20115588.298          43.000        -906.583
 -11157633.141 7  21399001.487          46.000       -1714.688
   4664900.08114  25560176.046          25.000       -2430.627
 557636961.148 6  38650473.898          39.000        -751.752
  -9326065.964 6  21436798.728          39.000       -1508.681
 -11341195.589 8  21078635.993          48.000        1073.163
  -2830826.38415  24295771.590          32.000        1852.095
  -2452875.456 7  23253587.908          44.000        2314.466
   4097392.894 6  22777946.520          41.000       -4029.541
 16  6  8  6 52  0.0000000  0 11G30G21G13G20G08S20G28G15G18G24G05
    740073.295 6  23208619.587          40.000       -3812.983
   1605199.35514  25567799.401          29.000       -2011.484
 -10931316.647 7  20126086.175          44.000        -931.695
 -11053678.923 7  21418782.914          46.000       -1749.528
   4811556.80914  25588078.875          26.000       -2457.601
 557681950.054 6  38659035.166          40.000        -746.792
  -9234539.259 6  21454218.164          39.000       -1539.977
 -11404941.366 8  21066505.579          48.000        1052.718
  -2941346.08215  24274740.064          34.000        1833.485
  -2591502.142 7  23227210.682          46.000        2306.867
   4339600.783 6  22824033.976          40.000       -4042.023
 16  6  8  6 53  0.0000000  0 11G30G21G13G20G08S20G28G15G18G24G05
    968962.840 6  23252178.192          40.000       -3817.599
   1726396.86114  25590866.023          29.000       -2029.670
 -10874627.655 7  20136874.091          44.000        -958.245
 -10947669.778 7  21438955.383          46.000       -1784.644
   4959822.05813  25616291.601          22.000       -2486.877
 557726649.980 6  38667538.710          39.000        -743.989
  -9141200.634 6  21471983.585          41.000       -1571.932
 -11467459.369 8  21054609.905          49.000        1030.852
  -3050882.489 6  24253903.439          38.000        1817.165
  -2729665.436 7  23200918.195          46.000        2297.878
   4582568.165 6  22870273.371          41.000       -4056.270
 16  6  8  6 54  0.0000000  0 10G30G13G20G08S20G28G15G18G24G05
   1198295.549 6  23295819.162          40.000       -3826.290
 -10816171.902 7  20147998.012          44.000        -989.316
 -10839375.637 7  21459563.497          46.000       -1824.157
   5109513.40414  25644860.330          24.000       -2518.259
 557771307.372 6  38676036.669          39.000        -743.304
  -9045819.440 6  21490135.476          41.000       -1607.242
 -11528496.802 8  21042995.267          49.000        1004.923
  -3159178.977 6  24233291.539          36.000        1795.196
  -2867118.599 7  23174761.627          47.000        2285.101
   4826513.294 6  22916694.353          41.000       -4074.291
 16  6  8  6 55  0.0000000  0 11G30G21G13G20G08S20G28G15G18G24G05
   1427882.301 6  23339508.033          40.000       -3828.105
   1972274.16814  25637699.633          28.000       -2070.357
 -10756123.655 7  20159424.659          43.000       -1014.183
 -10728985.617 7  21480568.551          44.000       -1856.522
   5261268.16512  25673729.761          13.000       -2546.383
 557815736.040 6  38684491.370          39.000        -738.303
  -8948583.960 6  21508636.441          40.000       -1635.764
 -11588219.317 8  21031629.713          48.000         984.841
  -3266397.322 6  24212889.180          36.000        1777.325
  -3004031.899 7  23148707.946          47.000        2277.529
   5071235.375 7  22963266.419          43.000       -4084.854
 16  6  8  6 56  0.0000000  0 10G30G13G20G08S20G28G15G18G24G05
   1657731.856 6  23383243.549          39.000       -3834.439
 -10694459.644 7  20171160.960          45.000       -1042.804
 -10616490.883 7  21501974.715          44.000       -1893.628
   5414134.38311  25702904.745           7.000       -2554.213
 557859960.635 6  38692906.371          39.000        -736.393
  -8849484.567 7  21527496.060          42.000       -1668.115
 -11646594.938 8  21020520.119          48.000         960.323
  -3372500.605 5  24192696.102          34.000        1756.610
  -3140380.285 7  23122761.043          46.000        2266.247
   5316732.622 7  23009982.973          43.000       -4099.707
 16  6  8  6 57  0.0000000  0 10G30G13G20G08S20G28G15G18G24G05
   1888037.928 7  23427076.908          42.000       -3842.398
 -10630972.091 7  20183239.669          43.000       -1073.731
 -10501698.056 7  21523821.498          45.000       -1932.377
   5569436.19812  25732458.189          13.000       -2605.560
 557904198.732 6  38701327.252          39.000        -737.423
  -8748326.760 7  21546745.081          42.000       -1703.012
 -11703406.331 8  21009711.036          48.000         933.979
  -3477267.829 5  24172759.246          35.000        1733.489
  -3275952.058 7  23096962.972          45.000        2252.808
   5563187.627 7  23056880.049          42.000       -4115.748
 16  6  8  6 58  0.0000000  0 11G30G21G13G20G08S20G28G15G18G24G05
   2118720.851 7  23470974.309          43.000       -3847.756
   2349823.60915  25709750.535          31.000       -2133.980
 -10565726.698 7  20195654.207          43.000       -1101.390
 -10384687.634 7  21546087.400          45.000       -1968.418
   5726249.69113  25762329.908          18.000       -2630.866
 557948371.288 6  38709731.068          39.000        -736.047
  -8645190.233 7  21566370.469          42.000       -1734.922
 -11758710.182 7  20999185.169          47.000         908.715
  -3580751.128 6  24153069.973          37.000        1714.404
  -3410809.069 7  23071300.769          45.000        2241.878
   5810509.142 6  23103941.611          41.000       -4128.754
 16  6  8  7  1  0.0000000  0 10G30G13G20G08S20G28G15G18G24G05
   2813864.679 7  23603254.306          42.000       -3876.188
 -10358473.775 7  20235095.294          43.000       -1201.377
 -10019534.863 7  21615575.005          45.000       -2089.049
    365528.23413  25854098.003          23.000       -2727.726
 558081391.976 6  38735043.848          39.000        -742.855
  -8323079.432 7  21627667.831          42.000       -1843.917
 -11914513.883 8  20969536.795          48.000         820.867
  -3882393.92714  24095657.274          29.000        1634.884
  -3810088.311 8  22995321.003          48.000        2194.008
   6558388.227 7  23246265.151          44.000       -4181.241
 16  6  8  7  2  0.0000000  0  9G30G13G20S20G28G15G18G24G05
   3046664.917 6  23647549.433          40.000       -3883.214
 -10285452.931 7  20248989.472          43.000       -1233.105
  -9893063.590 7  21639638.960          44.000       -2126.741
 558125991.556 6  38743531.825          39.000        -743.942
  -8211424.854 7  21648913.140          42.000       -1878.175
 -11962949.428 8  20960320.079          48.000         793.352
  -3979863.40615  24077116.470          33.000        1611.983
  -3941306.777 7  22970349.742          47.000        2179.617
   6809667.209 7  23294080.719          44.000       -4195.188
 16  6  8  7  3  0.0000000  0  9G30G13G20S20G28G15G18G24G05
   3279958.081 7  23691946.364          42.000       -3892.574
 -10210492.146 7  20263254.013          43.000       -1266.394
  -9764270.873 7  21664150.460          46.000       -2166.647
 558170700.503 6  38752038.894          40.000        -745.855
  -8097680.049 7  21670558.041          43.000       -1913.999
 -12009648.427 7  20951432.491          47.000         762.953
  -4075798.683 5  24058861.274          34.000        1584.459
  -4071610.446 7  22945554.431          47.000        2163.504
   7061870.055 7  23342072.692          43.000       -4211.641
 16  6  8  7  4  0.0000000  0  9G30G13G20S20G28G15G18G24G05
   3513777.546 7  23736445.589          44.000       -3901.876
 -10133546.174 7  20277894.239          42.000       -1299.166
  -9633125.922 7  21689105.738          46.000       -2206.256
 558215553.258 6  38760575.052          39.000        -749.096
  -7981814.325 7  21692607.874          44.000       -1949.608
 -12054555.344 7  20942886.823          47.000         732.717
  -4170140.828 6  24040909.048          36.000        1557.287
  -4200948.402 7  22920941.247          46.000        2147.444
   7315017.596 6  23390242.064          41.000       -4227.727
 16  6  8  7  5  0.0000000  0  9G30G13G20S20G28G15G18G24G05
   3748177.490 7  23781047.159          42.000       -3911.613
 -10054548.346 7  20292929.399          43.000       -1333.544
  -9499579.467 7  21714517.512          45.000       -2245.174
 558260604.935 6  38769146.267          39.000        -752.313
  -7863775.281 7  21715069.969          44.000       -1984.768
 -12097593.707 8  20934698.116          48.000         702.046
  -4262809.140 6  24023277.435          38.000        1530.412
  -4329250.693 7  22896525.444          46.000        2130.184
   7569150.937 6  23438598.519          39.000       -4244.042
 16  6  8  7  6  0.0000000  0  9G30G13G20S20G28G15G18G24G05
   3983018.279 6  23825732.123          40.000       -3917.773
  -9973626.685 7  20308327.157          43.000       -1364.623
  -9363774.981 7  21740363.274          45.000       -2282.477
 558305731.812 6  38777734.374          39.000        -752.901
  -7743705.014 7  21737918.952          44.000       -2018.355
 -12138881.458 8  20926840.475          48.000         673.229
  -4353917.922 6  24005937.904          37.000        1505.442
  -4456640.193 7  22872284.613          47.000        2114.974
   7824118.668 6  23487116.564          38.000       -4255.905
 16  6  8  7  7  0.0000000  0  9G30G13G20S20G28G15G18G24G05
   4218391.075 7  23870527.059          42.000       -3928.191
  -9890678.556 7  20324113.113          44.000       -1400.081
  -9225626.344 7  21766649.741          45.000       -2322.738
 558351028.301 6  38786354.154          39.000        -756.829
  -7621516.056 7  21761166.831          42.000       -2054.623
 -12178306.526 7  20919338.086          47.000         640.701
  -4443350.806 6  23988920.382          39.000        1475.495
  -4583010.044 7  22848237.149          47.000        2096.758
   8079999.464 6  23535811.518          39.000       -4273.066
 16  6  8  7  8  0.0000000  0  9G30G13G20S20G28G15G18G24G05
   4454291.281 7  23915415.022          42.000       -3935.622
  -9805696.681 7  20340284.334          44.000       -1432.624
  -9085143.267 7  21793384.278          45.000       -2360.604
 558396505.384 6  38795007.141          39.000        -759.821
  -7497215.993 7  21784821.508          42.000       -2089.130
 -12215851.172 8  20912193.199          48.000         610.241
  -4531086.715 6  23972226.649          38.000        1448.205
  -4708347.899 7  22824385.982          46.000        2080.455
   8336776.498 7  23584678.654          42.000       -4286.827
 16  6  8  7  9  0.0000000  0  9G30G13G20S20G28G15G18G24G05
   4690600.953 6  23960385.402          41.000       -3942.125
  -9718788.306 7  20356823.145          44.000       -1463.990
  -8942449.469 7  21820538.788          46.000       -2396.783
 558442066.629 6  38803677.770          39.000        -760.133
  -7370924.972 7  21808856.199          43.000       -2121.333
 -12251612.662 7  20905387.491          47.000         581.085
  -4617218.340 6  23955833.146          38.000        1421.861
  -4832756.645 7  22800711.533          45.000        2065.642
   8594318.705 6  23633686.422          41.000       -4298.494
 16  6  8  7 10  0.0010000  0  9G30G13G20S20G28G15G18G24G05
   4927294.703 7  24005426.735          42.000       -3947.813
  -9629970.644 7  20373723.489          44.000       -1495.688
  -8797578.003 7  21848105.578          45.000       -2432.307
 558487681.336 6  38812358.102          39.000        -760.436
  -7242675.339 6  21833258.689          41.000       -2153.692
 -12285599.764 8  20898922.064          48.000         551.669
  -4701751.242 6  23939745.739          38.000        1395.225
  -4956251.337 7  22777210.994          46.000        2051.135
   8852588.057 6  23682834.123          40.000       -4310.514
 16  6  8  7 11  0.0010000  0  9G30G13G20S20G28G15G18G24G05
   5164311.943 7  24050533.821          42.000       -3954.412
  -9539288.800 7  20390980.934          45.000       -1528.294
  -8650592.739 7  21876074.072          44.000       -2467.793
 558533298.625 6  38821039.359          39.000        -761.427
  -7112528.577 7  21858026.184          42.000       -2185.901
 -12317843.510 7  20892784.421          47.000         521.976
  -4784710.997 6  23923954.618          37.000        1368.850
  -5078864.929 7  22753877.418          46.000        2035.173
   9111511.052 6  23732106.959          38.000       -4321.309
 16  6  8  7 12  0.0010000  0  9G30G13G20S20G28G15G18G24G05
   5401775.952 6  24095715.977          38.000       -3959.247
  -9446611.255 7  20408616.299          44.000       -1561.146
  -8501378.607 7  21904470.357          44.000       -2505.564
 558579051.158 6  38829744.347          39.000        -763.035
  -6980366.524 7  21883176.502          43.000       -2219.070
 -12348204.277 7  20887008.172          47.000         490.324
  -4865955.565 6  23908501.211          38.000        1340.005
  -5200464.432 7  22730740.296          46.000        2017.934
   9371198.045 5  23781517.547          33.000       -4333.517
 16  6  8  7 13  0.0010000  0 10G30G21G13G20S20G28G15G18G24G05
   5639559.746 6  24140965.805          37.000       -3965.425
   4415703.77413  26104480.080          20.000       -2462.586
  -9352055.248 7  20426609.044          43.000       -1591.157
  -8350070.208 7  21933266.340          45.000       -2539.261
 558624817.807 6  38838453.420          39.000        -763.341
  -6846321.390 7  21908682.770          43.000       -2249.452
 -12376788.782 7  20881568.730          47.000         461.861
  -4945586.710 6  23893346.273          39.000        1313.879
  -5321161.520 7  22707772.581          46.000        2004.401
   9631508.70014  23831039.747          29.000       -4343.771
 16  6  8  7 14  0.0010000  0 10G30G21G13G20S20G28G15G18G24G05
   5877626.67715  24186260.096          31.000       -3968.286
   4563802.76713  26132672.704          19.000       -2474.181
  -9255648.262 7  20444955.557          44.000       -1621.884
  -8196711.694 7  21962448.025          44.000       -2572.443
 558670574.503 6  38847161.078          40.000        -762.193
  -6710434.790 7  21934542.789          43.000       -2279.210
 -12403613.599 7  20876463.564          47.000         432.744
  -5023617.910 6  23878498.127          39.000        1287.429
  -5440977.446 7  22684972.406          47.000        1990.014
   9892393.43716  23880701.915          38.000       -4352.393
 16  6  8  7 15  0.0010000  0 10G30G21G13G20S20G28G15G18G24G05
   6115898.98515  24231613.613          33.000       -3975.129
   4712656.37711  26161006.500           9.000       -2485.458
  -9157458.133 7  20463640.814          45.000       -1651.562
  -8041389.009 7  21992002.482          43.000       -2604.829
 558716262.504 6  38855853.590          39.000        -760.286
  -6572789.696 7  21960733.576          42.000       -2308.551
 -12428736.857 7  20871681.960          47.000         404.812
  -5100103.293 6  23863939.899          38.000        1260.938
  -5559974.531 7  22662327.241          47.000        1976.354
  10153761.668 6  23930438.630          38.000       -4360.116
 16  6  8  7 16  0.0010000  0 10G30G21G13G20S20G28G15G18G24G05
   6354320.668 5  24276988.647          34.000       -3976.785
   4862632.53912  26189575.927          15.000       -2510.731
  -9057532.237 7  20482655.304          44.000       -1680.678
  -7884165.873 7  22021922.154          43.000       -2636.163
 558761828.673 6  38864525.738          40.000        -758.139
  -6433447.657 6  21987247.367          41.000       -2336.806
 -12452194.513 7  20867219.643          47.000         376.549
  -5175074.424 7  23849681.849          42.000        1236.416
  -5678193.774 7  22639830.595          46.000        1963.409
  10415543.943 6  23980258.932          41.000       -4367.425
 16  6  8  7 17  0.0010000  0 10G30G21G13G20S20G28G15G18G24G05
   6592924.127 5  24322387.866          32.000       -3979.358
   5013523.32012  26218267.593          14.000       -2524.107
  -8955828.543 7  20502007.578          43.000       -1709.961
  -7725019.275 7  22052208.211          44.000       -2668.610
 558807301.958 6  38873179.737          40.000        -756.877
  -6292381.853 7  22014097.075          44.000       -2365.516
 -12473934.324 7  20863082.440          47.000         347.814
  -5248476.755 7  23835717.068          43.000        1210.249
  -5795587.827 7  22617491.158          46.000        1949.467
  10677759.386 6  24030155.230          40.000       -4374.055
 16  6  8  7 18  0.0000000  0  9G30G13G20S20G28G15G18G24G05
   6831698.18413  24068015.064          23.000       -3980.530
  -8852352.356 7  20221907.920          44.000       -1738.601
  -7563971.442 7  21783062.055          44.000       -2700.146
 558852686.201 6  38582022.469          39.000        -756.091
  -6149612.305 7  21741472.166          45.000       -2393.730
 -12493951.100 7  20559480.568          47.000         319.253
  -5320300.163 7  23522257.079          43.000        1183.555
  -5912155.296 7  22295516.911          46.000        1935.845
  10940381.218 6  23780338.121          40.000       -4380.495
 16  6  8  7 19  0.0000000  0  9G30G13G20S20G28G15G18G24G05
   7070663.08315  24113530.258          35.000       -3984.458
  -8747065.807 7  20241942.672          43.000       -1769.924
  -7401002.457 7  21814072.942          43.000       -2732.039
 558898012.288 6  38590646.786          39.000        -756.590
  -6005115.424 7  21768968.090          45.000       -2422.570
 -12512195.884 7  20556009.039          47.000         289.194
  -5390492.411 7  23508899.880          43.000        1156.121
  -6027852.082 7  22273500.320          46.000        1921.074
  11203425.408 6  23830394.839          39.000       -4387.924
 16  6  8  7 20  0.0000000  0  9G30G13G20S20G28G15G18G24G05
   7309901.190 5  24159043.968          35.000       -3989.553
  -8639890.030 7  20262336.725          42.000       -1802.335
  -7236051.066 7  21845461.660          43.000       -2765.775
 558943366.068 6  38599278.065          39.000        -755.586
  -5858827.049 7  21796805.201          45.000       -2452.957
 -12528579.110 7  20552890.388          47.000         257.458
  -5458960.390 7  23495870.308          42.000        1127.368
  -6142592.260 7  22251665.525          46.000        1904.403
  11466949.111 6  23880537.813          38.000       -4395.481
 16  6  8  7 21  0.0000000  0  9G30G13G20S20G28G15G18G24G05
   7549369.536 5  24204621.948          31.000       -3996.254
  -8530855.815 7  20283086.098          43.000       -1833.298
  -7069165.876 7  21877221.388          45.000       -2798.209
 558988726.388 6  38607909.431          40.000        -755.931
  -5710792.640 7  21824975.942          45.000       -2481.750
 -12543120.782 7  20550124.389          47.000         226.534
  -5525720.448 6  23483159.378          41.000        1098.706
  -6256399.643 7  22230009.980          47.000        1888.535
  11730900.255 6  23930760.708          36.000       -4403.133
 16  6  8  7 22  0.0000000  0  9G30G13G20S20G28G15G18G24G05
   7789061.90214  24250193.785          26.000       -3996.350
  -8419963.841 7  20304189.327          44.000       -1862.797
  -6900365.626 7  21909340.765          44.000       -2828.376
 559034087.384 6  38616542.874          39.000        -753.973
  -5561027.208 7  21853477.767          46.000       -2509.537
 -12555810.590 7  20547709.471          47.000         196.849
  -5590758.381 7  23470784.381          42.000        1071.134
  -6369268.798 7  22208530.681          47.000        1874.648
  11995257.317 5  23981064.067          34.000       -4409.399
 16  6  8  7 23  0.0000000  0  9G30G13G20S20G28G15G18G24G05
   8028895.51914  24295838.825          28.000       -4000.365
  -8307285.114 7  20325629.868          42.000       -1893.826
  -6729739.328 7  21941810.193          44.000       -2858.779
 559079383.440 6  38625162.043          39.000        -755.129
  -5409616.255 7  21882290.083          46.000       -2537.231
 -12566709.321 8  20545635.844          48.000         166.716
  -5654131.270 7  23458723.454          42.000        1042.007
  -6481263.356 7  22187216.462          45.000        1859.052
  12259928.029 5  24031427.873          34.000       -4412.974
 16  6  8  7 24  0.0000000  0  9G30G13G20S20G28G15G18G24G05
   8268886.91315  24341518.103          32.000       -4001.068
  -8192798.141 7  20347415.261          43.000       -1922.664
  -6557283.150 7  21974627.753          44.000       -2888.939
 559124631.564 6  38633773.184          39.000        -752.745
  -5256552.395 7  21911417.114          47.000       -2564.459
 -12575783.627 7  20543908.028          47.000         136.268
  -5715802.677 7  23446989.788          43.000        1014.160
  -6592354.213 7  22166079.205          47.000        1844.375
  12524913.671 5  24081854.727          35.000       -4418.419
 16  6  8  7 25  0.0000000  0  9G30G13G20S20G28G15G18G24G05
   8509004.993 6  24387222.998          38.000       -4003.706
  -8076528.238 7  20369545.383          44.000       -1953.440
  -6383041.071 7  22007782.731          43.000       -2919.610
 559169797.607 6  38642367.294          39.000        -753.403
  -5101876.038 7  21940850.379          47.000       -2592.093
 -12583048.529 8  20542526.407          48.000         105.000
  -5775784.055 7  23435577.956          44.000         984.882
  -6702559.447 8  22145106.975          48.000        1828.481
  12790168.029 6  24132339.568          38.000       -4423.083
 16  6  8  7 26  0.0000000  0  9G30G13G20S20G28G15G18G24G05
   8749335.452 5  24432945.134          33.000       -4005.535
  -7958383.076 6  20392019.309          39.000       -1985.044
  -6206938.264 7  22041295.001          44.000       -2950.435
 559214983.518 6  38650965.069          39.000        -753.739
  -4945508.770 7  21970604.780          46.000       -2619.896
 -12588400.270 8  20541508.327          48.000          73.663
  -5833968.209 7  23424505.008          44.000         955.547
  -6811778.990 7  22124322.823          46.000        1812.760
  13055763.737 6  24182882.065          39.000       -4427.903
 16  6  8  7 27  0.0000000  0  9G30G13G20S20G28G15G18G24G05
   8989843.91316  24478709.987          36.000       -4009.330
  -7838390.309 7  20414857.805          42.000       -2014.630
  -6029021.073 7  22075153.729          45.000       -2979.954
 559260154.170 6  38659560.837          39.000        -752.720
  -4787492.490 7  22000675.798          46.000       -2647.135
 -12591855.992 7  20540849.703          47.000          41.921
  -5890368.474 7  23413769.285          44.000         925.499
  -6920032.541 7  22103720.765          46.000        1796.695
  13321652.471 6  24233478.640          37.000       -4434.250
 16  6  8  7 28  0.0000000  0  9G30G13G20S20G28G15G18G24G05
   9230543.381 6  24524520.735          40.000       -4013.889
  -7716531.975 6  20438044.817          41.000       -2046.396
  -5849289.172 7  22109352.788          43.000       -3010.567
 559305337.324 6  38668158.856          39.000        -753.978
  -4627823.177 7  22031059.122          46.000       -2675.616
 -12593386.057 7  20540558.354          47.000           8.438
  -5944952.140 7  23403380.402          43.000         893.576
  -7027294.219 7  22083312.875          47.000        1778.575
  13587833.251 6  24284133.463          39.000       -4438.985
 16  6  8  7 29  0.0000000  0  9G30G13G20S20G28G15G18G24G05
   9471532.588 6  24570376.958          36.000       -4017.778
  -7592703.236 7  20461613.011          44.000       -2079.901
  -5667656.458 7  22143915.561          43.000       -3043.051
 559350649.199 6  38676782.788          39.000        -755.137
  -4466409.736 7  22061775.589          46.000       -2704.932
 -12592875.111 8  20540656.425          48.000         -25.544
  -5997600.023 7  23393364.431          44.000         861.657
  -7133451.548 7  22063111.979          47.000        1760.362
  13854391.176 6  24334856.552          39.000       -4446.105
 16  6  8  7 30  0.0000000  0  9G30G13G20S20G28G15G18G24G05
   9712786.76014  24616273.928          28.000       -4023.929
  -7466925.453 7  20485548.812          44.000       -2112.790
  -5484161.908 7  22178835.524          44.000       -3073.674
 559396064.200 6  38685424.206          39.000        -756.834
  -4303288.274 8  22092818.462          48.000       -2732.853
 -12590332.881 8  20541140.563          48.000         -59.322
  -6048318.940 7  23383712.943          44.000         829.214
  -7238516.647 7  22043118.375          47.000        1741.902
  14121285.772 6  24385641.712          37.000       -4451.404
