     2.10           OBSERVATION DATA    G (GPS)             RINEX VERSION / TYPE
teqc  2006Dec12     IGN-RGP             20160612 11:10:02UTCPGM / RUN BY / DATE
Linux 2.4.20-8|Pentium IV|gcc|Linux|486/DX+                 COMMENT
     2.11           OBSERVATION DATA    G (GPS)             COMMENT
teqc  2013Mar15     Observatoire de Pari20160612 00:52:18UTCCOMMENT
Linux 2.4.21-27.ELsmp|Opteron|gcc|Linux x86_64|=+           COMMENT
BIT 2 OF LLI FLAGS DATA COLLECTED UNDER A/S CONDITION       COMMENT
OPMT                                                        MARKER NAME
10001S006                                                   MARKER NUMBER
Automatic           BNM-SYRTE                               OBSERVER / AGENCY
02942               ASHTECH Z-XII3T     1L01-1D04           REC # / TYPE / VERS
00019               3S-02-TSADM     NONE                    ANT # / TYPE
  4202777.6220   171367.7610  4778659.9840                  APPROX POSITION XYZ
        0.0000        0.0000        0.0000                  ANTENNA: DELTA H/E/N
     1     1                                                WAVELENGTH FACT L1/2
     7    L1    L2    C1    P1    P2    S1    S2            # / TYPES OF OBSERV
 SNR is mapped to RINEX snr flag value [0-9]                COMMENT
  L1 & L2: min(max(int(snr_dBHz/6), 0), 9)                  COMMENT
pseudorange smoothing corrections not applied               COMMENT
  2016     6    11     0     0    0.0000000     GPS         TIME OF FIRST OBS
                                                            END OF HEADER
 16  6 11  0  0  0.0000000  0 10G19G17G22G23G 9G 3G11G 6G 1G31
 -14868447.34345 -11564730.67347  22166964.433    22166963.0544   22166964.9254
        46.0004         43.2004
  -9203448.16145  -7139562.25647  22293406.620    22293406.7404   22293409.8644
        45.1004         42.5004
 -10170302.07545  -7643869.91246  22200519.900    22200519.0714   22200520.1484
        44.4004         41.6004
 -20276661.44646 -15249681.92747  20809668.520    20809667.6794   20809668.6384
        48.8004         45.9004
 -13443145.36845 -10457989.35247  21723150.123    21723150.4594   21723155.9294
        46.2004         43.3004
 -18495602.74547 -14386151.56247  20756338.004    20756338.3574   20756343.0114
        49.8004         47.0004
   8064668.24642   6307958.71245  25273461.220    25273455.6594   25273461.3024
        34.5004         33.1004
  -4400327.96245  -3409858.70347  22155320.512    22155321.4854   22155327.6354
        45.6004         42.8004
  -4492009.00644  -3486976.38746  23088161.517    23088162.3704   23088168.1804
        41.3004         38.8004
  -3521366.17143  -2728687.11546  23745860.746    23745860.5334   23745864.1394
        40.4004         38.1004
 16  6 11  0  0 30.0000000  0 10G19G17G22G23G 9G 3G11G 6G 1G31
 -14850036.36145 -11550384.45747  22170467.503    22170466.1954   22170468.3434
        45.8004         43.0004
  -9147333.48645  -7095836.56247  22304084.422    22304085.2964   22304088.3874
        45.3004         42.5004
 -10097912.61345  -7587462.56246  22214294.945    22214294.1074   22214295.0744
        44.6004         41.9004
 -20309823.08846 -15275522.15847  20803357.466    20803357.5734   20803358.5464
        48.8004         46.1004
 -13527621.87345 -10523815.17647  21707074.888    21707074.9544   21707080.8884
        46.0004         43.3004
 -18452953.99347 -14352918.76847  20764453.874    20764454.1824   20764458.5644
        49.8004         46.8004
   8184510.52342   6401342.33145  25296265.457    25296262.3684   25296264.6074
        34.7004         33.3004
  -4482640.75145  -3473998.51347  22139657.954    22139657.7014   22139663.5064
        45.6004         42.8004
  -4391294.28644  -3408497.40146  23107326.072    23107327.7404   23107334.6044
        41.3004         38.6004
  -3480254.10944  -2696651.75046  23753683.482    23753683.0284   23753686.2484
        40.6004         38.1004
 16  6 11  0  1  0.0000000  0 10G19G17G22G23G 9G 3G11G 6G 1G31
 -14831003.59545 -11535553.73747  22174088.687    22174087.8334   22174090.0694
        45.8004         42.8004
  -9090733.77245  -7051732.90847  22314854.987    22314855.6114   22314857.9434
        45.3004         42.3004
 -10025332.66645  -7530906.79346  22228107.885    22228106.4794   22228107.0044
        44.6004         41.9004
 -20342511.51346 -15300993.64847  20797137.616    20797137.1274   20797137.9844
        48.9004         46.1004
 -13611737.15545 -10589359.51547  21691069.292    21691068.5154   21691074.0284
        46.2004         43.5004
 -18409994.72947 -14319444.01947  20772628.655    20772629.0634   20772633.9074
        49.8004         47.0004
   8304345.26742   6494720.08545  25319068.338    25319063.7574   25319069.5064
        34.5004         33.3004
  -4564656.52145  -3537906.87047  22124050.664    22124050.8584   22124057.2244
        45.6004         43.0004
  -4290363.29344  -3329849.89146  23126533.824    23126534.4514   23126541.4794
        41.3004         38.6004
  -3438589.88943  -2664186.14346  23761610.525    23761612.1274   23761613.7834
        40.3004         37.9004
 16  6 11  0  1 30.0000000  0 10G19G17G22G23G 9G 3G11G 6G 1G31
 -14811350.15145 -11520239.38347  22177828.391    22177827.5444   22177829.6114
        45.5004         42.3004
  -9033651.50145  -7007253.22947  22325717.299    22325717.2004   22325721.0304
        45.3004         42.5004
  -9952563.01645  -7474203.19946  22241953.798    22241953.9544   22241954.8514
        44.8004         41.9004
 -20374726.68846 -15326096.37147  20791007.054    20791006.8124   20791007.7284
        48.9004         46.1004
 -13695489.52945 -10654621.06747  21675130.743    21675130.7484   21675136.5224
        46.3004         43.7004
 -18366725.64147 -14285727.85447  20780862.375    20780862.7244   20780867.2264
        49.8004         46.8004
   8424170.39742   6588090.34545  25341868.699    25341865.8464   25341870.6114
        34.5004         32.9004
  -4646372.97445  -3601582.00247  22108500.073    22108500.4654   22108507.1984
        45.6004         43.0004
  -4189217.62144  -3251035.10446  23145781.814    23145781.9714   23145787.8174
        41.3004         38.5004
  -3396375.13043  -2631291.53146  23769645.802    23769645.0934   23769646.6524
        40.4004         37.9004
 16  6 11  0  2  0.0000000  0 10G19G17G22G23G 9G 3G11G 6G 1G31
 -14791077.15145 -11504442.25147  22181685.898    22181685.5884   22181687.8094
        45.3004         42.5004
  -8976089.07845  -6962399.41547  22336671.659    22336671.7264   22336675.2244
        45.5004         42.8004
  -9879604.09645  -7417352.11146  22255839.198    22255837.8744   22255838.0754
        44.6004         41.8004
 -20406468.07246 -15350829.90347  20784966.913    20784966.6674   20784967.3284
        48.9004         46.1004
 -13778877.32146 -10719598.54147  21659262.936    21659263.3064   21659268.4494
        46.5004         43.7004
 -18323147.39747 -14251770.78647  20789155.071    20789155.3724   20789160.3144
        49.8004         46.8004
   8543983.73642   6681451.41445  25364671.095    25364667.5914   25364672.8184
        34.7004         33.4004
  -4727787.79345  -3665022.08347  22093007.155    22093007.3804   22093013.9644
        45.8004         43.2004
  -4087858.97544  -3172054.37246  23165069.554    23165069.1674   23165076.2474
        41.1004         38.6004
  -3353611.31943  -2597969.05946  23777781.728    23777782.4804   23777784.4794
        40.4004         38.1004
 16  6 11  0  2 30.0000000  0 10G19G17G22G23G 9G 3G11G 6G 1G31
 -14770184.88245 -11488162.57647  22185661.440    22185660.7994   22185663.7804
        45.3004         42.3004
  -8918048.03445  -6917172.64547  22347715.688    22347716.1334   22347719.7534
        45.3004         42.3004
  -9806456.65845  -7360354.13346  22269757.775    22269756.9594   22269758.2304
        44.6004         41.8004
 -20437735.16946 -15375193.86347  20779016.800    20779016.6014   20779017.3844
        48.9004         46.1004
 -13861898.91846 -10784290.66247  21643465.016    21643464.5954   21643469.8584
        46.5004         43.9004
 -18279260.69747 -14217573.36547  20797506.215    20797506.7224   20797511.4464
        49.6004         46.8004
   8663783.68242   6774802.06345  25387467.158    25387464.8804   25387470.9504
        34.7004         33.3004
  -4808898.68945  -3728225.33547  22077572.228    22077572.5454   22077578.9694
        45.8004         43.2004
  -3986288.96444  -3092908.93346  23184397.815    23184397.0884   23184404.4554
        40.9004         38.5004
  -3310299.26744  -2564219.39246  23786023.652    23786023.1744   23786027.3704
        40.8004         38.3004
 16  6 11  0  3  0.0000000  0 10G19G17G22G23G 9G 3G11G 6G 1G31
 -14748674.92545 -11471401.58747  22189754.624    22189753.9374   22189757.2294
        45.1004         42.5004
  -8859530.99745  -6871574.97747  22358851.420    22358851.0974   22358854.7084
        44.9004         42.1004
  -9733121.56245  -7303209.92846  22283713.318    22283711.6644   22283713.2754
        44.6004         41.8004
 -20468527.58446 -15399187.94347  20773157.586    20773157.4664   20773157.8524
        48.9004         46.3004
 -13944552.66146 -10848696.14447  21627735.900    21627736.8174   21627741.0494
        46.7004         43.9004
 -18235066.23547 -14183136.13147  20805916.503    20805916.7014   20805921.8244
        49.6004         46.8004
   8783567.96042   6868140.54345  25410257.488    25410256.6444   25410263.7154
        35.0004         33.4004
  -4889703.35145  -3791189.97747  22062195.868    22062196.0394   22062201.8284
        46.0004         43.2004
  -3884509.19144  -3013600.05246  23203766.276    23203764.4544   23203772.5534
        40.8004         38.1004
  -3266440.68744  -2530043.88446  23794369.531    23794370.0214   23794371.3954
        40.9004         38.5004
 16  6 11  0  3 30.0000000  0 10G19G17G22G23G 9G 3G11G 6G 1G31
 -14726548.25845 -11454160.01947  22193965.804    22193964.8234   22193967.4414
        45.3004         42.6004
  -8800539.96345  -6825607.95247  22370077.288    22370076.6844   22370081.6424
        44.9004         42.1004
  -9659599.41845  -7245919.96746  22297703.538    22297701.8544   22297704.1764
        44.4004         41.6004
 -20498845.20946 -15422812.05147  20767388.135    20767388.0224   20767388.8164
        49.1004         46.3004
 -14026836.93846 -10912813.73047  21612077.298    21612077.3914   21612082.8734
        46.5004         43.5004
 -18190564.70647 -14148459.62147  20814384.711    20814385.3124   20814389.7304
        49.8004         46.8004
   8903334.42942   6961465.13045  25433046.451    25433047.0804   25433057.5244
        34.9004         33.3004
  -4970199.48045  -3853914.20147  22046877.815    22046877.8744   22046884.2054
        46.0004         43.3004
  -3782521.35744  -2934129.05846  23223172.963    23223173.3594   23223179.3674
        40.6004         37.9004
  -3222037.02444  -2495443.63746  23802820.501    23802821.0374   23802823.0194
        40.9004         38.3004
 16  6 11  0  4  0.0000000  0 10G19G17G22G23G 9G 3G11G 6G 1G31
 -14703805.96545 -11436438.75347  22198293.419    22198292.7264   22198295.3274
        45.6004         42.8004
  -8741077.58445  -6779273.64146  22381392.525    22381392.1184   22381395.6924
        44.8004         41.8004
  -9585891.26945  -7188485.06046  22311729.700    22311728.7564   22311730.9194
        44.2004         41.8004
 -20528687.54346 -15446065.80747  20761709.286    20761708.8784   20761710.0964
        49.1004         46.5004
 -14108750.12546 -10976642.14447  21596489.694    21596490.0044   21596495.4284
        46.5004         43.7004
 -18145756.81447 -14113544.38947  20822911.495    20822911.8844   20822916.3934
        49.6004         46.8004
   9023081.24541   7054774.44345  25455833.031    25455836.2064   25455844.2764
        34.3004         32.9004
  -5050384.76645  -3916396.19447  22031619.602    22031620.4344   22031625.3914
        46.2004         43.7004
  -3680327.08844  -2854497.18146  23242619.381    23242620.7524   23242626.7454
        40.6004         37.9004
  -3177089.91444  -2460419.91446  23811373.564    23811373.5094   23811376.6784
        41.3004         38.8004
 16  6 11  0  4 30.0000000  0 10G19G17G22G23G 9G 3G11G 6G 1G31
 -14680449.14445 -11418238.63647  22202738.153    22202737.2514   22202739.7254
        45.5004         42.6004
  -8681146.17345  -6732573.87546  22392797.047    22392796.8284   22392800.8414
        44.6004         41.9004
  -9511997.47745  -7130905.50746  22325790.701    22325789.9494   22325791.5804
        44.2004         41.4004
 -20558054.59346 -15468949.21547  20756121.045    20756120.8534   20756121.3674
        49.3004         46.5004
 -14190290.59146 -11040180.12947  21580973.768    21580973.6364   21580978.6944
        46.5004         43.9004
 -18100643.22447 -14078390.95547  20831495.748    20831496.3654   20831501.3254
        49.6004         46.8004
   9142806.04641   7148066.58445  25478616.108    25478619.9934   25478622.2904
        34.2004         33.1004
  -5130256.90245  -3978634.18447  22016420.901    22016420.9904   22016426.5294
        46.2004         43.3004
  -3577928.08244  -2774705.78646  23262106.807    23262106.0114   23262113.0864
        40.6004         37.9004
  -3131600.68644  -2424973.78346  23820027.886    23820029.4154   23820032.3624
        41.1004         38.6004
 16  6 11  0  5  0.0000000  0 10G19G17G22G23G 9G 3G11G 6G 1G31
 -14656478.87845 -11399560.51047  22207299.131    22207298.6304   22207300.6594
        45.3004         42.3004
  -8620747.97845  -6685510.36247  22404290.808    22404291.0664   22404293.3054
        44.6004         42.1004
  -9437918.88945  -7073181.96646  22339888.057    22339887.2284   22339888.6894
        44.2004         41.4004
 -20586945.90446 -15491461.91847  20750623.592    20750623.1144   20750623.6014
        49.3004         46.5004
 -14271456.77646 -11103426.46547  21565527.658    21565527.5294   21565533.4304
        46.7004         43.9004
 -18055224.65147 -14042999.87047  20840139.326    20840139.5764   20840144.2794
        49.6004         46.8004
   9262507.09542   7241340.23745  25501395.615    25501397.5054   25501401.4794
        34.7004         33.4004
  -5209813.59845  -4040626.37247  22001280.794    22001281.5434   22001286.8704
        46.0004         43.0004
  -3475325.94144  -2694756.08446  23281629.646    23281630.5194   23281637.5844
        40.6004         38.1004
  -3085570.74544  -2389106.30446  23828789.042    23828788.2744   23828791.8644
        41.1004         38.5004
 16  6 11  0  5 30.0000000  0 10G19G17G22G23G 9G 3G11G 6G 1G31
 -14631896.19245 -11380405.17047  22211977.003    22211976.5844   22211979.0084
        45.1004         42.1004
  -8559885.15545  -6638084.78946  22415872.385    22415872.4714   22415876.3374
        44.8004         41.9004
  -9363656.30645  -7015315.03146  22354019.918    22354019.0164   22354021.3444
        44.2004         41.6004
 -20615361.18946 -15513603.68747  20745216.032    20745215.7634   20745216.3304
        49.3004         46.5004
 -14352247.03246 -11166379.88147  21550153.952    21550154.0904   21550159.1764
        46.7004         43.9004
 -18009501.75847 -14007371.65347  20848839.776    20848840.4364   20848844.9434
        49.8004         46.8004
   9382182.41142   7334593.82145  25524165.121    25524169.7624   25524174.2584
        34.7004         33.3004
  -5289052.51045  -4102370.95047  21986202.433    21986202.5744   21986208.1124
        45.8004         42.8004
  -3372522.37243  -2614649.43246  23301191.643    23301192.7464   23301200.4264
        40.4004         37.9004
  -3039002.03844  -2352818.99546  23837650.406    23837650.3164   23837652.7224
        40.9004         38.3004
 16  6 11  0  6  0.0000000  0 10G19G17G22G23G 9G 3G11G 6G 1G31
 -14606702.64145 -11360773.83747  22216772.216    22216770.8144   22216772.6944
        45.1004         42.5004
  -8498560.13445  -6590299.08346  22427542.151    22427542.4174   22427544.8074
        44.4004         41.6004
  -9289210.27045  -6957305.16746  22368186.552    22368185.4764   22368186.6804
        44.2004         41.4004
 -20643300.18846 -15535374.32447  20739899.185    20739898.9584   20739899.6154
        49.3004         46.5004
 -14432659.84946 -11229039.16947  21534852.357    21534851.8954   21534856.8624
        46.7004         43.9004
 -17963475.30147 -13971506.89147  20857598.481    20857599.0274   20857603.6834
        49.6004         46.8004
   9501829.85142   7427825.70745  25546935.789    25546938.9644   25546941.4974
        34.5004         33.3004
  -5367971.36145  -4163866.12947  21971184.797    21971185.0844   21971190.3924
        45.8004         43.0004
  -3269519.01543  -2534387.10246  23320794.945    23320793.9154   23320801.6434
        40.3004         37.8004
  -2991895.90044  -2316112.92246  23846613.751    23846614.4654   23846618.0284
        40.8004         38.3004
 16  6 11  0  6 30.0000000  0 10G19G17G22G23G 9G 3G11G 6G 1G31
 -14580899.26045 -11340667.30747  22221682.453    22221681.5894   22221683.1484
        45.5004         43.0004
  -8436775.21245  -6542155.00946  22439299.280    22439299.6244   22439302.3544
        44.4004         41.8004
  -9214581.54745  -6899152.93046  22382387.965    22382387.2344   22382388.0764
        44.2004         41.4004
 -20670762.71846 -15556773.67847  20734673.304    20734672.9304   20734673.7734
        49.3004         46.5004
 -14512693.59346 -11291403.09247  21519622.028    21519621.7934   21519627.2644
        46.7004         43.9004
 -17917145.90647 -13935406.07847  20866414.988    20866415.2334   20866419.9984
        49.8004         47.0004
   9621447.37242   7521034.28945  25569700.512    25569698.4534   25569704.9804
        34.7004         33.4004
  -5446567.79745  -4225110.06447  21956227.841    21956229.0244   21956233.8544
        45.8004         43.2004
  -3166317.59443  -2453970.45546  23340433.050    23340433.0814   23340441.4514
        40.3004         37.6004
  -2944253.54744  -2278988.99246  23855680.988    23855680.3444   23855684.4654
        40.8004         38.3004
 16  6 11  0  7  0.0000000  0 10G19G17G22G23G 9G 3G11G 6G 1G31
 -14554487.13945 -11320086.43947  22226708.258    22226707.6404   22226709.0734
        45.8004         43.2004
  -8374532.84445  -6493654.47947  22451143.420    22451143.4924   22451146.7804
        44.8004         42.1004
  -9139771.01245  -6840859.04146  22396624.104    22396622.5964   22396623.8524
        44.2004         41.4004
 -20697748.52946 -15577801.57147  20729538.087    20729537.7334   20729538.5974
        49.3004         46.5004
 -14592346.71246 -11353470.42447  21504464.942    21504464.3874   21504469.5654
        46.7004         43.9004
 -17870514.31347 -13899069.78047  20875288.658    20875289.2424   20875293.7234
        49.8004         46.8004
   9741033.01841   7614218.00145  25592459.181    25592458.2444   25592460.7824
        34.2004         32.7004
  -5524839.54145  -4286101.00947  21941334.021    21941334.1284   21941339.3164
        46.0004         43.3004
  -3062919.71643  -2373400.70946  23360108.526    23360108.4724   23360116.3614
        40.3004         37.6004
  -2896076.97944  -2241448.79446  23864846.743    23864846.6234   23864851.3114
        40.6004         38.1004
 16  6 11  0  7 30.0000000  0 10G19G17G22G23G 9G 3G11G 6G 1G31
 -14527467.93145 -11299032.51147  22231850.416    22231849.1794   22231850.8424
        46.0004         43.2004
  -8311835.44845  -6444799.38346  22463075.129    22463075.2574   22463078.5184
        44.8004         41.9004
  -9064779.20845  -6782423.90146  22410894.820    22410893.4974   22410894.7924
        44.2004         41.4004
 -20724257.52046 -15598457.92247  20724493.498    20724493.2754   20724494.2954
        49.3004         46.5004
 -14671617.71946 -11415239.99947  21489379.678    21489379.5554   21489384.9334
        46.9004         44.0004
 -17823581.18147 -13862498.51047  20884219.326    20884219.7754   20884224.8904
        49.6004         46.8004
   9860584.63841   7707375.25545  25615208.243    25615208.7894   25615213.1934
        34.2004         33.1004
  -5602784.26145  -4346837.13047  21926501.390    21926501.7764   21926507.0544
        46.0004         43.3004
  -2959327.10243  -2292679.21946  23379820.559    23379821.8894   23379829.0724
        40.1004         37.4004
  -2847367.84943  -2203493.60146  23874116.519    23874116.1514   23874119.8444
        40.3004         37.8004
 16  6 11  0  8  0.0000000  0  9G19G17G22G23G 9G 3G 6G 1G31
 -14499842.63345 -11277506.29747  22237106.994    22237105.9674   22237108.3824
        46.0004         43.0004
  -8248685.12245  -6395591.36446  22475092.101    22475092.3824   22475095.1434
        44.8004         41.9004
  -8989606.96645  -6723848.15346  22425198.856    22425197.4484   22425199.6024
        44.1004         41.2004
 -20750289.16246 -15618742.30747  20719539.889    20719539.5344   20719540.5274
        49.3004         46.6004
 -14750504.99046 -11476710.55647  21474367.516    21474368.1104   21474373.4024
        47.0004         44.2004
 -17776347.23547 -13825692.85547  20893207.950    20893208.2004   20893212.8724
        49.6004         46.6004
  -5680399.65245  -4407316.62347  21911731.067    21911732.0904   21911736.9364
        46.2004         43.5004
  -2855541.39343  -2211807.27146  23399569.995    23399572.0144   23399578.2324
        39.7004         37.3004
  -2798127.63243  -2165124.59646  23883487.165    23883487.9534   23883490.8104
        40.4004         37.9004
 16  6 11  0  8 30.0000000  0  9G19G17G22G23G 9G 3G 6G 1G31
 -14471612.38645 -11255508.68847  22242478.916    22242478.2574   22242480.3554
        45.8004         43.0004
  -8185084.66645  -6346032.58647  22487194.247    22487194.7984   22487198.8854
        44.8004         42.1004
  -8914254.61245  -6665132.06846  22439537.841    22439537.0434   22439538.5444
        44.1004         41.1004
 -20775843.51046 -15638654.77247  20714677.115    20714676.5934   20714677.5524
        49.3004         46.5004
 -14829007.04246 -11537880.94647  21459429.896    21459429.6044   21459434.8754
        47.0004         44.2004
 -17728813.14446 -13788653.31747  20902252.974    20902253.5804   20902258.4344
        49.5004         46.5004
  -5757683.41745  -4467537.71847  21897024.882    21897025.1804   21897030.2744
        46.2004         43.5004
  -2751564.33643  -2130786.22246  23419357.248    23419357.0224   23419364.7564
        39.6004         36.9004
  -2748357.79044  -2126342.90146  23892960.152    23892958.8944   23892961.4884
        40.8004         38.3004
 16  6 11  0  9  0.0000000  0  9G19G17G22G23G 9G 3G 6G 1G31
 -14442778.42845 -11233040.68047  22247966.072    22247965.0864   22247967.3584
        45.8004         43.0004
  -8121036.32345  -6296124.81747  22499382.833    22499382.8364   22499386.5594
        44.9004         42.1004
  -8838723.34745  -6606276.54546  22453911.264    22453910.2924   22453911.5084
        43.9004         41.2004
 -20800920.28346 -15658195.10147  20709904.821    20709904.4234   20709905.5654
        49.3004         46.5004
 -14907122.36146 -11598749.97947  21444564.986    21444564.7184   21444569.9484
        47.0004         44.2004
 -17680979.60546 -13751380.45247  20911355.641    20911355.8694   20911360.3944
        49.3004         46.3004
  -5834633.23045  -4527498.59247  21882381.393    21882381.8854   21882387.1974
        46.2004         43.3004
  -2647397.58143  -2049617.35546  23439180.221    23439179.5344   23439186.7924
        39.6004         37.1004
  -2698060.37244  -2087150.11246  23902529.351    23902529.9554   23902532.5114
        40.8004         38.3004
 16  6 11  0  9 30.0000000  0  9G19G17G22G23G 9G 3G 6G 1G31
 -14413342.48245 -11210103.59547  22253566.523    22253565.5624   22253568.3284
        45.8004         42.8004
  -8056542.50445  -6245869.93546  22511656.216    22511655.9534   22511658.7054
        44.8004         41.8004
  -8763013.70345  -6547282.06346  22468318.491    22468318.0934   22468319.2914
        44.1004         41.2004
 -20825519.47246 -15677363.28447  20705224.074    20705223.9904   20705224.5414
        49.3004         46.6004
 -14984849.41746 -11659316.47447  21429773.377    21429773.8534   21429778.9024
        47.0004         44.2004
 -17632847.34046 -13713874.79147  20920514.795    20920515.0694   20920519.9274
        49.3004         46.5004
  -5911246.78745  -4587197.43647  21867802.098    21867802.4194   21867808.4444
        46.0004         43.3004
  -2543042.86043  -1968302.04146  23459037.764    23459037.5464   23459044.5014
        39.4004         37.1004
  -2647236.85444  -2047547.39946  23912201.130    23912200.9424   23912203.8394
        40.6004         37.8004
 16  6 11  0 10  0.0000000  0  9G19G17G22G23G 9G 3G 6G 1G31
 -14383305.99945 -11186698.55347  22259282.761    22259282.1884   22259285.1294
        45.8004         43.0004
  -7991605.81045  -6195269.94446  22524012.512    22524011.7044   22524015.9834
        44.6004         41.6004
  -8687126.30045  -6488149.02846  22482760.162    22482757.9804   22482760.6504
        44.1004         41.4004
 -20849640.91646 -15696159.20247  20700634.234    20700633.7194   20700634.2654
        49.5004         46.6004
 -15062186.72846 -11719579.26547  21415056.840    21415056.6314   21415061.8084
        47.0004         44.0004
 -17584417.01146 -13676136.88547  20929730.314    20929730.8904   20929735.8754
        49.1004         46.3004
  -5987521.75445  -4646632.45247  21853287.280    21853287.8164   21853294.0144
        46.2004         43.5004
  -2438501.84143  -1886841.54946  23478932.924    23478931.2914   23478938.6274
        39.4004         36.9004
  -2595888.84343  -2007535.98646  23921973.443    23921972.8294   23921975.1474
        40.4004         37.8004
 16  6 11  0 10 30.0000000  0  9G19G17G22G23G 9G 3G 6G 1G31
 -14352670.15345 -11162826.48947  22265111.656    22265111.1934   22265114.6384
        45.6004         42.8004
  -7926228.36145  -6144326.49646  22536453.001    22536453.3684   22536456.6134
        44.2004         41.6004
  -8611061.82245  -6428878.02546  22497234.513    22497233.5224   22497234.0854
        44.1004         41.2004
 -20873284.60346 -15714582.83747  20696135.182    20696134.6234   20696135.2854
        49.5004         46.6004
 -15139132.79046 -11779537.20147  21400414.320    21400414.9444   21400419.4834
        47.0004         44.2004
 -17535689.30246 -13638167.24747  20939002.476    20939002.9194   20939008.3124
        49.1004         46.1004
  -6063455.84545  -4705801.85747  21838837.195    21838837.7354   21838844.2364
        46.2004         43.5004
  -2333776.24543  -1805237.22246  23498860.299    23498861.7234   23498868.1354
        39.6004         37.4004
  -2544018.18843  -1967117.27146  23931843.994    23931843.7044   23931845.3464
        40.1004         37.6004
 16  6 11  0 11  0.0000000  0  9G19G17G22G23G 9G 3G 6G 1G31
 -14321436.46245 -11138488.55147  22271056.124    22271055.0634   22271058.1774
        45.6004         42.6004
  -7860413.07445  -6093041.91046  22548976.686    22548977.0214   22548980.9544
        44.1004         41.2004
  -8534821.36345  -6369469.91246  22511741.799    22511740.9354   22511743.6574
        44.1004         41.4004
 -20896450.18146 -15732633.93247  20691725.999    20691725.6204   20691727.0474
        49.5004         46.5004
 -15215686.15546 -11839189.13347  21385846.588    21385846.8674   21385851.5274
        47.0004         44.2004
 -17486664.95646 -13599966.46447  20948331.951    20948332.5434   20948337.5894
        49.1004         46.3004
  -6139046.71646  -4764703.81547  21824453.082    21824453.8454   21824460.0424
        46.5004         43.9004
  -2228867.76043  -1723490.37046  23518823.662    23518824.0364   23518830.5814
        39.7004         37.3004
  -2491626.59443  -1926292.62846  23941813.765    23941813.2784   23941815.5364
        40.1004         37.8004
 16  6 11  0 11 30.0000000  0  9G19G17G22G23G 9G 3G 6G 1G31
 -14289606.28745 -11113685.82347  22277113.674    22277112.4004   22277114.7824
        45.5004         42.6004
  -7794162.21345  -6041417.90046  22561583.888    22561584.0794   22561588.8374
        43.7004         41.1004
  -8458405.05045  -6309924.76746  22526283.033    22526282.0434   22526284.9894
        43.9004         41.1004
 -20919137.69146 -15750312.48647  20687409.262    20687408.5634   20687409.5104
        49.3004         46.6004
 -15291845.34046 -11898533.90947  21371354.270    21371353.9034   21371358.9864
        47.2004         44.4004
 -17437344.66346 -13561535.07647  20957717.440    20957718.0874   20957723.1394
        49.1004         46.3004
  -6214292.05646  -4823336.53147  21810134.188    21810135.1144   21810141.0274
        46.7004         44.0004
  -2123778.09743  -1641602.36446  23538822.044    23538821.5454   23538829.3274
        39.9004         37.4004
  -2438715.66543  -1885063.34346  23951880.718    23951880.7674   23951883.7544
        40.1004         37.6004
 16  6 11  0 12  0.0000000  0  9G19G17G22G23G 9G 3G 6G 1G31
 -14257181.06045 -11088419.43047  22283283.650    22283282.5014   22283285.8474
        45.5004         42.8004
  -7727478.28545  -5989456.41446  22574273.492    22574274.1984   22574278.2484
        43.9004         41.4004
  -8381813.83845  -6250243.34046  22540857.760    22540856.9254   22540858.9464
        43.7004         41.1004
 -20941347.02446 -15767618.44447  20683182.885    20683182.4314   20683183.1454
        49.3004         46.5004
 -15367608.88446 -11957570.39247  21356936.511    21356936.2434   21356942.3124
        47.2004         44.4004
 -17387729.08846 -13522873.59847  20967159.221    20967159.4414   20967164.6584
        49.1004         46.3004
  -6289189.59746  -4881698.22847  21795881.839    21795882.5914   21795888.6684
        46.7004         43.9004
  -2018508.96943  -1559574.51746  23558855.086    23558854.0254   23558860.5854
        39.9004         37.4004
  -2385287.45943  -1843431.01146  23962047.712    23962048.6634   23962048.8704
        39.7004         37.3004
 16  6 11  0 12 30.0000000  0  9G19G17G22G23G 9G 3G 6G 1G31
 -14224162.51745 -11062690.70347  22289566.758    22289565.5314   22289568.7874
        45.6004         42.8004
  -7660363.88145  -5937159.51546  22587045.314    22587045.4484   22587049.3854
        44.1004         41.2004
  -8305048.25145  -6190426.04046  22555466.097    22555464.9124   22555467.2964
        43.6004         40.7004
 -20963078.12846 -15784551.75747  20679047.816    20679047.2254   20679047.6654
        49.5004         46.6004
 -15442975.34746 -12016297.46847  21342594.622    21342594.8644   21342600.0904
        47.4004         44.5004
 -17337818.94846 -13483982.60147  20976656.888    20976657.3984   20976662.3294
        49.1004         46.5004
  -6363736.99646  -4939787.08347  21781696.253    21781696.5494   21781701.9914
        46.5004         43.7004
  -1913062.08843  -1477408.16846  23578917.773    23578919.4204   23578928.4394
        39.9004         37.4004
  -2331343.70443  -1801396.90246  23972313.082    23972313.0204   23972315.2634
        39.7004         37.4004
 16  6 11  0 13  0.0000000  0  9G19G17G22G23G 9G 3G 6G 1G31
 -14190551.97245 -11036500.67547  22295961.836    22295961.5534   22295964.7044
        45.6004         42.8004
  -7592821.70345  -5884529.30146  22599898.746    22599898.7104   22599902.2404
        43.9004         41.4004
  -8228109.20344  -6130473.56146  22570107.309    22570105.9534   22570108.3914
        43.4004         40.7004
 -20984330.87646 -15801112.33147  20675003.290    20675003.0624   20675003.4244
        49.5004         46.8004
 -15517943.28246 -12074714.00847  21328328.903    21328328.8964   21328334.0004
        47.4004         44.5004
 -17287614.91746 -13444862.58747  20986211.033    20986211.0944   20986216.3474
        49.3004         46.5004
  -6437931.95846  -4997601.32447  21767577.427    21767578.1064   21767583.4664
        46.7004         43.9004
  -1807439.15643  -1395104.61146  23599017.538    23599018.4754   23599026.5974
        39.7004         37.1004
  -2276885.99343  -1758962.31446  23982677.408    23982675.9914   23982677.8614
        39.9004         37.4004
 16  6 11  0 13 30.0000000  0  9G19G17G22G23G 9G 3G 6G 1G31
 -14156350.97445 -11009850.56547  22302470.954    22302470.2214   22302472.7724
        45.5004         42.6004
  -7524854.04245  -5831567.52746  22612833.147    22612832.6204   22612836.4664
        44.2004         41.6004
  -8150997.29845  -6070386.39846  22584779.914    22584780.2334   22584782.9864
        43.6004         40.7004
 -21005105.49546 -15817300.32647  20671050.087    20671049.3304   20671049.9864
        49.5004         46.8004
 -15592511.28746 -12132818.90847  21314139.332    21314139.0544   21314144.3464
        47.5004         44.7004
 -17237117.71646 -13405514.12947  20995819.776    20995819.9904   20995825.2674
        49.3004         46.3004
  -6511772.19346  -5055139.14847  21753525.937    21753526.2844   21753532.4054
        46.5004         43.9004
  -1701641.91643  -1312665.27546  23619153.437    23619152.1774   23619159.8164
        39.6004         37.3004
  -2221916.34243  -1716128.82746  23993135.363    23993135.7144   23993137.7164
        39.7004         36.9004
 16  6 11  0 14  0.0000000  0  9G19G17G22G23G 9G 3G 6G 1G31
 -14121561.09345 -10982741.58147  22309090.765    22309090.5844   22309093.5424
        45.3004         42.5004
  -7456463.50145  -5778276.21946  22625847.082    22625847.8934   22625850.0984
        44.2004         41.4004
  -8073713.15644  -6010165.02146  22599486.438    22599486.0284   22599488.7494
        43.4004         40.6004
 -21025401.61046 -15833115.46647  20667187.328    20667187.3214   20667188.0084
        49.5004         46.6004
 -15666677.93746 -12190611.07047  21300025.534    21300025.6864   21300030.9114
        47.5004         44.7004
 -17186328.03546 -13365937.75947  21005484.633    21005484.9564   21005490.2904
        49.1004         46.3004
  -6585255.35846  -5112398.73547  21739542.444    21739542.7624   21739549.3924
        46.7004         44.0004
  -1595672.10543  -1230091.46146  23639317.077    23639317.7014   23639323.8974
        39.4004         36.9004
  -2166436.36043  -1672897.72746  24003691.991    24003693.6754   24003694.7384
        39.2004         36.9004
 16  6 11  0 14 30.0000000  0  9G19G17G22G23G 9G 3G 6G 1G31
 -14086184.10645 -10955175.11347  22315823.075    22315822.1244   22315824.4084
        45.1004         42.1004
  -7387652.74045  -5724657.48646  22638941.487    22638942.1904   22638944.4744
        44.2004         41.6004
  -7996257.57444  -5949810.08746  22614227.884    22614226.0184   22614227.8864
        43.2004         40.6004
 -21045219.41046 -15848557.89147  20663416.540    20663415.9204   20663416.7094
        49.5004         46.8004
 -15740441.84346 -12248089.39747  21285988.262    21285988.5074   21285994.1844
        47.5004         44.7004
 -17135246.58146 -13326134.03847  21015204.712    21015205.1134   21015210.6964
        49.1004         46.3004
  -6658379.17546  -5169378.31947  21725627.127    21725627.9164   21725633.9044
        46.7004         43.7004
  -1489531.44343  -1147384.49946  23659514.941    23659515.8324   23659522.4694
        39.4004         36.9004
  -2110448.33443  -1629270.70046  24014347.517    24014348.3034   24014348.1194
        39.2004         36.9004
 16  6 11  0 15  0.0000000  0  9G19G17G22G23G 9G 3G 6G 1G31
 -14050221.64945 -10927152.41947  22322666.083    22322665.2314   22322668.1864
        44.9004         42.3004
  -7318424.27245  -5670713.24946  22652114.609    22652114.6744   22652118.6704
        44.4004         41.4004
  -7918631.34244  -5889322.14746  22628997.932    22628997.6754   22628999.9054
        43.0004         40.2004
 -21064558.80447 -15863627.53447  20659736.425    20659736.0814   20659736.6114
        49.6004         46.8004
 -15813801.60646 -12305252.81047  21272029.058    21272028.7494   21272034.2434
        47.5004         44.9004
 -17083874.02246 -13286103.48847  21024980.874    21024981.4674   21024986.3394
        49.1004         46.1004
  -6731141.33646  -5226076.08647  21711781.138    21711781.9224   21711787.0534
        46.5004         43.7004
  -1383221.64843  -1064545.74946  23679745.987    23679745.0464   23679752.7414
        39.2004         36.9004
  -2053953.82543  -1585249.02446  24025099.941    24025099.0634   24025100.4084
        39.4004         36.9004
 16  6 11  0 15 30.0000000  0  9G19G17G22G23G 9G 3G 6G 1G31
 -14013674.96245 -10898674.50047  22329622.435    22329621.2924   22329622.9714
        45.5004         42.8004
  -7248781.01345  -5616445.79146  22665367.673    22665367.3844   22665370.9154
        44.1004         41.2004
  -7840834.93444  -5828701.60346  22643804.261    22643801.9434   22643804.9164
        43.0004         40.2004
 -21083419.93247 -15878324.50447  20656146.679    20656146.5414   20656147.3974
        49.6004         46.8004
 -15886755.85746 -12362100.24647  21258145.896    21258146.3504   21258151.5294
        47.7004         44.9004
 -17032211.08446 -13245846.65747  21034811.735    21034812.2544   21034817.7044
        48.9004         46.3004
  -6803539.50846  -5282490.22747  21698003.962    21698004.8194   21698010.5454
        46.5004         43.7004
  -1276744.46743   -981576.55946  23700006.744    23700007.3034   23700014.9014
        39.0004         36.7004
  -1996954.80543  -1540834.22146  24035945.651    24035944.9904   24035947.2494
        39.2004         36.9004
 16  6 11  0 16  0.0000000  0  9G19G17G22G23G 9G 3G 6G 1G31
 -13976546.15145 -10869742.96047  22336687.552    22336686.7824   22336688.7274
        45.8004         43.0004
  -7178725.30545  -5561856.96446  22678699.094    22678698.5974   22678701.5944
        43.7004         40.7004
  -7762869.23944  -5767949.15046  22658639.333    22658638.7884   22658641.1824
        43.0004         40.4004
 -21101802.77547 -15892648.77947  20652648.643    20652648.4784   20652649.3184
        49.6004         46.8004
 -15959303.19546 -12418630.61247  21244340.577    21244341.0754   21244346.2384
        47.7004         45.1004
 -16980258.45846 -13205364.10747  21044698.344    21044698.6164   21044704.0344
        48.9004         46.1004
  -6875571.42646  -5338618.98547  21684296.550    21684297.4514   21684303.8524
        46.5004         43.5004
  -1170101.58543   -898478.25646  23720297.252    23720299.9274   23720308.5654
        39.0004         36.7004
  -1939453.04943  -1496027.68446  24046887.474    24046887.4334   24046889.3704
        39.0004         36.6004
 16  6 11  0 16 30.0000000  0  9G19G17G22G23G 9G 3G 6G 1G31
 -13938836.90245 -10840359.11847  22343862.947    22343862.1404   22343864.3154
        45.6004         42.5004
  -7108259.62245  -5506948.69346  22692107.504    22692107.8264   22692110.5134
        43.6004         40.7004
  -7684734.79544  -5707065.21346  22673509.552    22673507.3754   22673509.8914
        43.2004         40.6004
 -21119707.25647 -15906600.30347  20649241.654    20649241.4934   20649242.3564
        49.6004         46.8004
 -16031442.32246 -12474842.88547  21230612.889    21230613.0834   21230618.1544
        47.7004         44.9004
 -16928016.81846 -13164656.34747  21054639.350    21054639.8994   21054645.5164
        49.1004         46.3004
  -6947234.79746  -5394460.54947  21670658.855    21670659.9614   21670666.4084
        46.5004         43.9004
  -1063294.83043   -815252.27646  23740625.879    23740624.5124   23740632.8614
        39.0004         36.7004
  -1881450.55043  -1450830.93546  24057922.922    24057923.8024   24057926.0324
        38.9004         36.6004
 16  6 11  0 17  0.0000000  0  9G19G17G22G23G 9G 3G 6G 1G31
 -13900548.28945 -10810523.82647  22351148.491    22351148.0734   22351150.4054
        45.3004         42.5004
  -7037386.87345  -5451723.19446  22705593.709    22705594.9794   22705599.1384
        43.6004         40.9004
  -7606432.24044  -5646050.25946  22688408.263    22688407.8994   22688410.1194
        43.4004         40.7004
 -21137133.79047 -15920179.40447  20645925.480    20645925.0264   20645926.1814
        49.6004         46.8004
 -16103171.85046 -12530735.99647  21216962.863    21216962.7974   21216968.5854
        47.7004         44.9004
 -16875486.88846 -13123723.94047  21064635.768    21064636.0554   21064641.6024
        49.1004         46.3004
  -7018527.33046  -5450013.14347  21657092.987    21657093.7844   21657099.7444
        46.7004         44.0004
   -956325.88443   -731899.90846  23760984.665    23760980.7524   23760987.3144
        38.9004         36.6004
  -1822949.23143  -1405245.50046  24069057.166    24069057.5044   24069059.2374
        39.2004         37.1004
 16  6 11  0 17 30.0000000  0  9G19G17G22G23G 9G 3G 6G 1G31
 -13861682.56245 -10780238.86447  22358545.222    22358543.9284   22358546.0534
        45.5004         42.6004
  -6966109.55045  -5396182.46146  22719157.987    22719158.0294   22719162.2284
        43.7004         41.1004
  -7527962.31544  -5584904.89746  22703341.780    22703340.5524   22703342.4924
        43.4004         40.7004
 -21154082.25847 -15933385.99147  20642700.124    20642699.8204   20642700.8574
        49.6004         46.8004
 -16174490.44546 -12586308.89847  21203391.777    21203391.8984   21203397.2814
        47.9004         45.1004
 -16822669.33746 -13082567.41947  21074686.564    21074686.8304   21074692.5084
        48.9004         46.3004
  -7089446.68946  -5505274.96047  21643597.525    21643597.9284   21643604.1474
        46.7004         43.7004
   -849196.50143   -648422.51646  23781367.798    23781367.6134   23781374.6854
        39.0004         36.6004
  -1763951.18543  -1359273.00846  24080285.130    24080284.7414   24080286.5264
        39.4004         37.3004
 16  6 11  0 18  0.0000000  0  9G19G17G22G23G 9G 3G 6G 1G31
 -13822241.80145 -10749505.81247  22366049.960    22366049.4444   22366050.5974
        45.1004         42.1004
  -6894430.48645  -5340328.69446  22732797.398    22732797.2694   22732802.1984
        43.6004         40.7004
  -7449325.72045  -5523629.65446  22718305.112    22718304.0014   22718307.4704
        43.6004         40.6004
 -21170552.64446 -15946220.04447  20639565.991    20639565.8104   20639566.4904
        49.5004         46.8004
 -16245396.80446 -12641560.57747  21189899.676    21189899.4954   21189904.1384
        47.9004         45.2004
 -16769564.89746 -13041187.34547  21084791.981    21084792.1014   21084797.7874
        48.9004         46.1004
  -7159990.63046  -5560244.24947  21630173.259    21630173.9064   21630179.7474
        46.7004         43.9004
   -741908.47843   -564821.47846  23801780.340    23801782.0184   23801790.4794
        38.7004         36.4004
  -1704458.36543  -1312914.97446  24091605.310    24091605.7464   24091608.0784
        39.0004         36.6004
 16  6 11  0 18 30.0000000  0  9G19G17G22G23G 9G 3G 6G 1G31
 -13782227.39645 -10718325.75147  22373664.994    22373664.2564   22373665.7194
        44.9004         42.1004
  -6822352.20344  -5284163.83846  22746513.632    22746513.8524   22746518.0934
        43.4004         40.7004
  -7370523.39644  -5462225.27046  22733301.066    22733299.4824   22733302.5524
        43.4004         40.6004
 -21186545.13746 -15958681.71247  20636522.853    20636522.5144   20636522.9074
        49.5004         46.8004
 -16315889.61846 -12696490.01347  21176485.163    21176484.7394   21176489.4374
        48.1004         45.2004
 -16716174.25146 -12999584.26547  21094951.477    21094952.0244   21094957.4434
        48.9004         46.1004
  -7230156.86246  -5614919.22447  21616821.253    21616821.7014   21616827.4614
        46.7004         43.9004
   -634463.45543   -481098.15946  23822230.021    23822229.3764   23822238.1024
        38.5004         36.2004
  -1644472.69043  -1266172.88046  24103020.398    24103019.9214   24103023.4884
        39.0004         36.7004
 16  6 11  0 19  0.0000000  0  9G19G17G22G23G 9G 3G 6G 1G31
 -13741641.00545 -10686699.98147  22381388.920    22381387.3134   22381389.3714
        45.3004         42.6004
  -6749877.40445  -5227690.01546  22760305.676    22760305.9814   22760310.2104
        43.7004         41.1004
  -7291555.85844  -5400692.15546  22748327.526    22748326.2384   22748329.6244
        43.4004         40.4004
 -21202059.92546 -15970771.14447  20633570.397    20633569.8384   20633570.8574
        49.5004         46.8004
 -16385967.56246 -12751096.18447  21163148.330    21163149.0254   21163153.9754
        47.9004         45.1004
 -16662498.12046 -12957758.71847  21105166.154    21105166.2714   21105171.6824
        48.9004         45.9004
  -7299943.08646  -5669298.08347  21603541.661    21603541.8614   21603547.7034
        46.7004         44.0004
   -526863.25543   -397253.89146  23842708.405    23842705.1004   23842713.6214
        38.5004         36.2004
  -1583996.20543  -1219048.37446  24114526.663    24114527.6384   24114531.1184
        39.0004         36.7004
 16  6 11  0 19 30.0000000  0  9G19G17G22G23G 9G 3G 6G 1G31
 -13700484.59645 -10654630.06347  22389220.303    22389219.1214   22389221.1204
        45.3004         42.5004
  -6677008.74345  -5170909.27546  22774171.912    22774172.4454   22774176.6934
        43.7004         41.2004
  -7212423.34444  -5339030.50246  22763386.665    22763385.7554   22763386.8904
        43.2004         40.6004
 -21217097.16247 -15982488.46347  20630708.586    20630708.6084   20630709.4114
        49.6004         46.8004
 -16455629.36546 -12805378.07747  21149893.085    21149893.0834   21149897.8934
        48.1004         45.2004
 -16608537.14646 -12915711.21747  21115434.704    21115435.0034   21115439.7814
        48.8004         45.9004
  -7369346.98946  -5723379.03847  21590334.237    21590335.0414   21590340.5874
        46.9004         44.0004
   -419109.65343   -313290.12346  23863211.155    23863210.0004   23863217.7444
        38.5004         36.4004
  -1523030.89743  -1171542.94046  24126128.655    24126129.8654   24126132.9664
        39.4004         36.9004
 16  6 11  0 20  0.0000000  0  9G19G17G22G23G 9G 3G 6G 1G31
 -13658760.01545 -10622117.41346  22397159.639    22397157.9284   22397160.1304
        44.9004         41.8004
  -6603749.23445  -5113823.98746  22788114.437    22788114.0014   22788117.3764
        44.1004         41.6004
  -7133127.21144  -5277241.32146  22778475.851    22778475.0434   22778477.1834
        43.2004         40.4004
 -21231656.87347 -15993833.67647  20627938.295    20627938.0464   20627938.7614
        49.6004         47.0004
 -16524873.73546 -12859334.69347  21136716.800    21136716.3594   21136721.1534
        48.1004         45.2004
 -16554292.07346 -12873442.33947  21125756.802    21125757.2204   21125762.7754
        48.8004         45.9004
  -7438366.37846  -5777160.36147  21577199.927    21577200.9504   21577207.2764
        46.9004         44.0004
   -311204.43443   -229208.16246  23883738.912    23883742.4864   23883751.0984
        38.5004         36.2004
  -1461578.78743  -1123658.23046  24137823.003    24137823.3474   24137826.3464
        39.2004         36.9004
 16  6 11  0 20 30.0000000  0  9G19G17G22G23G 9G 3G 6G 1G31
 -13616469.02645 -10589163.40346  22405207.201    22405205.7244   22405207.5084
        44.4004         41.2004
  -6530101.25045  -5056435.98846  22802128.750    22802128.7564   22802131.9714
        44.4004         41.8004
  -7053667.63244  -5215324.78646  22793597.100    22793595.8314   22793597.5924
        43.2004         40.4004
 -21245739.08847 -16004806.81647  20625258.655    20625258.2044   20625259.0704
        49.8004         47.0004
 -16593699.46846 -12912965.10647  21123618.901    21123618.8614   21123624.5124
        48.1004         45.2004
 -16499763.57746 -12830952.60647  21136133.394    21136133.6254   21136138.9614
        48.6004         45.8004
  -7506998.87346  -5830640.20747  21564140.139    21564140.7744   21564146.5074
        47.0004         44.4004
   -203149.32943   -145009.40146  23904300.893    23904304.3674   23904312.6034
        38.7004         36.4004
  -1399642.03043  -1075395.85646  24149609.843    24149609.8514   24149612.1494
        38.9004         36.2004
 16  6 11  0 21  0.0000000  0  9G19G17G22G23G 9G 3G 6G 1G31
 -13573613.69245 -10555769.63846  22413361.682    22413360.2424   22413363.7574
        44.2004         41.6004
  -6456067.52945  -4998747.38746  22816216.134    22816216.2474   22816220.8554
        44.4004         41.6004
  -6974045.53344  -5153281.61646  22808747.892    22808748.1474   22808748.8324
        42.9004         40.0004
 -21259344.29247 -16015408.25947  20622669.203    20622668.9304   20622669.8864
        49.8004         47.0004
 -16662105.24146 -12966268.28247  21110601.400    21110601.8454   21110607.1454
        48.1004         45.2004
 -16444952.35146 -12788242.56847  21146563.127    21146563.6074   21146569.5754
        48.6004         45.8004
  -7575242.26146  -5883816.86347  21551153.516    21551154.2334   21551160.4524
        47.2004         44.2004
    -94946.05343    -60695.19746  23924896.493    23924896.6474   23924903.6824
        38.5004         36.2004
  -1337222.35643  -1026757.16745  24161487.802    24161488.0614   24161489.3264
        38.3004         35.9004
 16  6 11  0 21 30.0000000  0  9G19G17G22G23G 9G 3G 6G 1G31
 -13530195.96645 -10521937.64647  22421624.230    22421623.3764   22421625.8214
        44.6004         42.1004
  -6381650.69045  -4940760.27646  22830377.562    22830377.7774   22830381.0274
        44.1004         41.2004
  -6894261.55144  -5091112.29846  22823929.649    22823928.8944   22823931.3754
        42.7004         39.9004
 -21272472.82247 -16025638.27147  20620170.552    20620170.5854   20620171.7634
        49.6004         47.0004
 -16730089.84146 -13019243.27047  21097664.696    21097664.6204   21097670.3184
        48.2004         45.2004
 -16389859.13446 -12745312.79947  21157047.748    21157047.7564   21157053.2064
        48.6004         45.8004
  -7643094.30146  -5936688.55947  21538241.691    21538242.5444   21538248.5884
        47.0004         44.2004
     13403.61243     23733.05446  23945513.928    23945514.5354   23945521.6104
        38.3004         36.0004
  -1274321.95943   -977743.92045  24173455.571    24173457.2044   24173460.2114
        38.0004         35.9004
 16  6 11  0 22  0.0000000  0  9G19G17G22G23G 9G 3G 6G 1G31
 -13486217.46945 -10487668.70546  22429993.536    22429992.2804   22429994.7964
        44.8004         41.9004
  -6306854.04545  -4882477.21246  22844610.075    22844609.7984   22844614.1994
        43.9004         40.7004
  -6814316.34944  -5028817.37046  22839142.586    22839141.5764   22839143.8684
        42.5004         39.7004
 -21285124.51247 -16035496.71547  20617763.651    20617763.3324   20617764.1024
        49.8004         47.0004
 -16797652.04246 -13071889.10747  21084808.428    21084808.1144   21084813.5994
        48.2004         45.2004
 -16334484.56546 -12702163.79047  21167584.676    21167585.3524   21167590.8624
        48.6004         45.9004
  -7710552.66946  -5989253.52147  21525405.883    21525406.4254   21525411.0084
        47.2004         44.2004
    121897.85643    108273.97245  23966160.930    23966160.1204   23966167.1614
        38.0004         35.7004
  -1210943.21643   -928357.92946  24185518.667    24185518.4304   24185520.6594
        38.5004         36.6004
 16  6 11  0 22 30.0000000  0  9G19G17G22G23G 9G 3G 6G 1G31
 -13441680.39845 -10452964.51546  22438468.281    22438467.6004   22438469.7454
        44.6004         41.8004
  -6231680.21945  -4823900.22046  22858914.796    22858915.1064   22858920.4284
        43.7004         41.1004
  -6734210.45444  -4966397.22846  22854387.529    22854386.4654   22854388.3114
        42.7004         40.0004
 -21297299.71047 -16044983.86647  20615447.227    20615446.6434   20615447.2814
        49.8004         47.0004
 -16864790.62846 -13124204.85347  21072032.179    21072032.2574   21072037.0174
        48.1004         45.2004
 -16278829.39146 -12658796.13347  21178175.994    21178176.5464   21178181.9694
        48.8004         45.9004
  -7777615.15346  -6041509.98247  21512643.339    21512644.0074   21512649.7564
        47.2004         44.4004
    230534.90543    192926.18645  23986834.138    23986832.6614   23986840.8314
        38.0004         35.7004
  -1147088.12443   -878600.71146  24197668.777    24197669.4474   24197670.7154
        38.7004         36.6004
 16  6 11  0 23  0.0000000  0  9G19G17G22G23G 9G 3G 6G 1G31
 -13396586.73045 -10417826.59346  22447049.433    22447048.4174   22447050.7714
        44.6004         41.9004
  -6156131.70945  -4765031.27746  22873292.475    22873292.0894   22873295.4204
        43.6004         40.6004
  -6653944.84544  -4903852.63846  22869661.454    22869660.6264   22869661.6424
        42.7004         40.0004
 -21308998.59747 -16054099.87347  20613220.651    20613220.2174   20613221.1524
        49.8004         47.0004
 -16931504.41146 -13176189.58647  21059337.295    21059336.9314   21059341.8464
        48.1004         45.2004
 -16222894.28446 -12615210.34947  21188820.139    21188820.5254   21188825.7414
        48.8004         45.9004
  -7844279.44946  -6093456.16247  21499958.039    21499958.3004   21499964.3494
        47.4004         44.5004
    339312.98543    277688.31145  24007531.725    24007532.3234   24007541.1764
        37.8004         35.7004
  -1082758.89943   -828474.06846  24209910.134    24209910.7534   24209913.7644
        39.2004         37.1004
 16  6 11  0 23 30.0000000  0  9G19G17G22G23G 9G 3G 6G 1G31
 -13350938.21245 -10382256.32747  22455735.850    22455734.9334   22455737.2274
        44.9004         42.1004
  -6080211.37444  -4705872.61846  22887739.586    22887738.8734   22887742.5684
        43.0004         40.0004
  -6573520.14444  -4841184.06046  22884965.905    22884963.6654   22884966.5114
        42.5004         39.7004
 -21320221.49647 -16062844.98347  20611084.863    20611084.7014   20611085.2564
        49.8004         47.0004
 -16997792.16346 -13227842.34447  21046722.534    21046722.8824   21046727.9624
        48.2004         45.4004
 -16166679.96046 -12571406.98547  21199517.102    21199517.6104   21199523.0114
        48.8004         45.8004
  -7910543.29946  -6145090.32247  21487348.352    21487348.8354   21487354.1804
        47.4004         44.5004
    448230.32143    362558.95145  24028256.837    24028258.9404   24028266.1014
        37.6004         35.7004
  -1017957.38643   -777979.43346  24222242.164    24222242.7614   24222245.9324
        39.2004         36.9004
 16  6 11  0 24  0.0000000  0  9G19G17G22G23G 9G 3G 6G 1G31
 -13304737.23145 -10346255.57146  22464527.652    22464527.3144   22464528.7154
        44.9004         41.9004
  -6003921.49144  -4646425.97346  22902256.234    22902256.8184   22902261.0274
        43.0004         40.4004
  -6492936.87344  -4778391.92146  22900299.464    22900299.8374   22900300.3554
        42.3004         39.7004
 -21330968.54047 -16071219.29047  20609040.153    20609039.5784   20609040.4044
        49.8004         47.0004
 -17063652.73546 -13279162.24047  21034189.489    21034189.9474   21034194.6634
        48.2004         45.6004
 -16110187.09246 -12527386.58547  21210267.187    21210267.7144   21210273.0384
        48.6004         45.6004
  -7976404.48046  -6196410.70747  21474815.267    21474815.5364   21474821.1164
        47.4004         44.5004
    557285.14643    447536.69845  24049009.204    24049012.7984   24049019.0434
        37.8004         35.7004
   -952685.84843   -727118.49546  24234664.184    24234664.8304   24234665.6254
        38.9004         36.6004
 16  6 11  0 24 30.0000000  0  9G19G17G22G23G 9G 3G 6G 1G31
 -13257985.48945 -10309825.65246  22473423.735    22473423.4444   22473425.9344
        44.6004         41.8004
  -5927265.52144  -4586694.06746  22916844.907    22916844.2974   22916847.8884
        43.0004         40.2004
  -6412195.79744  -4715476.84146  22915666.409    22915663.9294   22915665.0974
        42.3004         39.7004
 -21341240.26747 -16079223.22247  20607085.555    20607085.0744   20607085.5634
        49.8004         47.2004
 -17129084.96346 -13330148.36747  21021738.615    21021738.4684   21021743.2504
        48.4004         45.6004
 -16053416.37546 -12483149.66647  21221070.564    21221070.5844   21221076.2154
        48.4004         45.4004
  -8041860.74746  -6247415.57047  21462359.046    21462359.9244   21462365.3164
        47.4004         44.5004
    666475.67643    532620.18145  24069790.866    24069790.2594   24069797.7764
        37.8004         35.7004
   -886946.49043   -675893.01846  24247173.803    24247172.9174   24247176.3294
        39.0004         36.7004
 16  6 11  0 25  0.0000000  0  9G19G17G22G23G 9G 3G 6G 1G31
 -13210685.31345 -10272968.38346  22482425.135    22482424.4254   22482426.4104
        44.4004         41.6004
  -5850245.96044  -4526678.85746  22931500.794    22931500.6444   22931502.5744
        42.9004         40.0004
  -6331297.33044  -4652439.08646  22931058.318    22931057.9034   22931059.8824
        42.5004         39.7004
 -21351036.65647 -16086856.76147  20605221.709    20605221.0944   20605221.5574
        50.0004         47.3004
 -17194087.66946 -13380799.80547  21009369.058    21009368.8744   21009373.6744
        48.6004         45.6004
 -15996368.51946 -12438696.80647  21231925.914    21231926.3834   21231931.6094
        48.2004         45.4004
  -8106909.88146  -6298103.18547  21449980.671    21449981.4664   21449986.5934
        47.4004         44.5004
    775800.19443    617808.09245  24090597.509    24090595.2344   24090602.1884
        37.8004         35.7004
   -820741.46743   -624304.76546  24259772.271    24259772.5294   24259773.4434
        38.9004         36.2004
 16  6 11  0 25 30.0000000  0  9G19G17G22G23G 9G 3G 6G 1G31
 -13162838.52045 -10235685.17546  22491530.995    22491529.4634   22491531.3874
        44.6004         41.8004
  -5772865.94244  -4466382.74546  22946225.501    22946225.0694   22946228.9824
        42.9004         40.2004
  -6250242.64244  -4589279.61246  22946482.374    22946481.7394   22946483.3044
        42.2004         39.2004
 -21360358.46547 -16094120.49047  20603447.628    20603447.1294   20603447.5694
        50.0004         47.3004
 -17258659.72346 -13431115.66847  20997081.256    20997081.2494   20997085.8914
        48.6004         45.6004
 -15939044.26546 -12394028.55447  21242834.663    21242835.0594   21242839.8284
        48.2004         45.4004
  -8171549.60946  -6348471.79047  21437680.810    21437681.1204   21437686.4434
        47.5004         44.9004
    885256.83643    703098.91445  24111426.543    24111424.1934   24111431.1004
        37.8004         35.7004
   -754072.97643   -572355.28646  24272458.471    24272459.7764   24272460.1924
        38.5004         36.4004
 16  6 11  0 26  0.0000000  0  9G19G17G22G23G 9G 3G 6G 1G31
 -13114447.47945 -10197977.88046  22500738.964    22500737.8834   22500739.6514
        44.6004         41.8004
  -5695128.38144  -4405808.05246  22961018.453    22961018.7774   22961021.6284
        43.0004         40.4004
  -6169032.03444  -4525998.63146  22961936.263    22961935.8644   22961938.0694
        42.0004         39.2004
 -21369205.42147 -16101014.20847  20601763.799    20601763.6174   20601763.9084
        50.0004         47.3004
 -17322800.03046 -13481095.09847  20984875.708    20984875.8084   20984880.5594
        48.6004         45.8004
 -15881444.25846 -12349145.43647  21253796.004    21253796.4834   21253801.5764
        48.2004         45.6004
  -8235777.72346  -6398519.64747  21425458.054    21425458.8874   21425464.1594
        47.5004         44.7004
    994843.76943    788491.31645  24132275.754    24132276.4334   24132285.0544
        37.6004         35.5004
   -686943.19043   -520046.39045  24285232.136    24285231.9194   24285237.0804
        38.2004         35.9004
 16  6 11  0 26 30.0000000  0  9G19G17G22G23G 9G 3G 6G 1G31
 -13065513.92645 -10159847.82846  22510050.365    22510049.2844   22510051.1554
        44.6004         41.8004
  -5617035.76844  -4344956.71046  22975879.012    22975879.1764   22975882.2374
        43.0004         40.2004
  -6087666.21344  -4462596.74046  22977419.024    22977418.3264   22977421.8214
        41.8004         39.2004
 -21377578.19747 -16107538.43547  20600170.635    20600170.1674   20600170.4194
        50.0004         47.2004
 -17386507.42346 -13530737.18747  20972752.131    20972752.3084   20972757.6354
        48.6004         45.8004
 -15823569.21446 -12304047.99847  21264809.562    21264810.0784   21264814.4494
        48.4004         45.6004
  -8299591.96846  -6448245.01247  21413314.751    21413315.2894   21413320.6864
        47.5004         44.7004
   1104559.23843    873983.88145  24153151.644    24153155.3574   24153162.7724
        37.6004         35.5004
   -619354.30643   -467379.77446  24298095.664    24298094.9554   24298098.3794
        38.3004         36.2004
 16  6 11  0 27  0.0000000  0  9G19G17G22G23G 9G 3G 6G 1G31
 -13016040.32545 -10121296.96547  22519464.794    22519464.1004   22519466.4044
        44.8004         42.1004
  -5538590.98444  -4283830.93446  22990806.025    22990805.8894   22990811.0724
        42.9004         40.2004
  -6006145.98644  -4399074.49446  22992931.503    22992931.5004   22992934.3814
        41.6004         39.2004
 -21385477.09147 -16113693.40547  20598667.197    20598667.0114   20598667.3574
        49.8004         47.2004
 -17449780.81846 -13580041.10447  20960711.644    20960711.6434   20960717.1094
        48.8004         45.9004
 -15765419.83646 -12258736.79647  21275874.774    21275874.9364   21275880.4094
        48.2004         45.4004
  -8362990.14046  -6497646.17047  21401250.094    21401250.8474   21401256.4814
        47.5004         44.7004
   1214401.54543    959575.28345  24174056.616    24174056.0094   24174064.7444
        37.6004         35.5004
   -551308.57643   -414357.14346  24311042.991    24311043.6294   24311045.3694
        38.2004         36.0004
 16  6 11  0 27 30.0000000  0  9G19G17G22G23G 9G 3G 6G 1G31
 -12966028.68645 -10082326.87747  22528982.411    22528981.7884   22528983.8204
        45.1004         42.6004
  -5459797.16144  -4222433.17746  23005799.947    23005800.3794   23005805.1464
        43.0004         40.2004
  -5924471.80644  -4335432.32146  23008473.810    23008473.5724   23008475.7714
        41.6004         39.0004
 -21392902.57247 -16119479.48147  20597254.155    20597254.1034   20597254.6264
        50.0004         47.2004
 -17512619.13146 -13629005.99347  20948753.979    20948754.4944   20948759.0744
        48.8004         45.9004
 -15706996.82246 -12213212.38347  21286991.605    21286992.5814   21286998.0294
        48.2004         45.4004
  -8425970.04546  -6546721.39647  21389265.857    21389265.9344   21389271.8274
        47.7004         44.9004
   1324368.80743   1045264.01045  24194991.109    24194984.8024   24194991.1514
        37.8004         35.7004
   -482808.17443   -360980.20446  24324077.714    24324078.3974   24324081.6924
        38.7004         36.6004
 16  6 11  0 28  0.0000000  0  9G19G17G22G23G 9G 3G 6G 1G31
 -12915481.10945 -10042939.17647  22538600.651    22538599.7594   22538602.6624
        45.3004         42.3004
  -5380656.96644  -4160765.51946  23020859.448    23020860.6504   23020863.3714
        43.0004         40.2004
  -5842644.64644  -4271670.90646  23024045.250    23024044.0634   23024046.9874
        41.5004         38.6004
 -21399854.88847 -16124896.85847  20595931.221    20595930.9974   20595931.4874
        50.0004         47.2004
 -17575021.24146 -13677630.98547  20936879.588    20936879.3924   20936884.3744
        48.8004         45.9004
 -15648300.86746 -12167475.27547  21298161.914    21298162.0614   21298167.2644
        48.2004         45.4004
  -8488529.44746  -6595468.96147  21377360.806    21377361.2534   21377367.1884
        47.7004         45.1004
   1434459.22643   1131048.72445  24215940.971    24215934.1314   24215940.4084
        37.6004         35.3004
   -413855.45343   -307250.84546  24337200.290    24337199.4554   24337201.0624
        38.7004         36.6004
 16  6 11  0 28 30.0000000  0  9G19G17G22G23G 9G 3G 6G 1G31
 -12864399.98645 -10003135.71047  22548321.758    22548320.3154   22548322.9284
        44.9004         42.1004
  -5301173.27544  -4098830.20046  23035986.111    23035986.3114   23035988.9244
        42.9004         40.2004
  -5760664.80144  -4207790.53346  23039646.159    23039645.1544   23039647.7614
        41.5004         38.8004
 -21406334.52647 -16129945.91647  20594698.231    20594697.9774   20594698.4574
        50.0004         47.2004
 -17636986.13446 -13725915.29747  20925087.991    20925088.2514   20925092.5024
        48.8004         45.9004
 -15589332.64446 -12121526.01347  21309383.583    21309383.6264   21309388.5104
        48.2004         45.6004
  -8550666.15046  -6643887.15347  21365536.897    21365537.5874   21365543.1214
        48.1004         45.4004
   1544671.01342   1216928.02145  24236908.801    24236906.4484   24236911.5544
        37.3004         35.2004
   -344452.50043   -253170.58846  24350406.411    24350406.7724   24350407.7284
        38.7004         36.4004
 16  6 11  0 29  0.0000000  0  9G19G17G22G23G 9G 3G 6G 1G31
 -12812787.35745  -9962918.08846  22558142.429    22558141.4594   22558144.1524
        44.8004         41.9004
  -5221348.58544  -4036629.15246  23051176.867    23051176.5794   23051179.1524
        42.9004         40.2004
  -5678533.27744  -4143791.96046  23055274.487    23055274.0444   23055277.1064
        41.5004         39.0004
 -21412341.66847 -16134626.79047  20593554.950    20593554.7134   20593555.3394
        50.0004         47.2004
 -17698512.74846 -13773858.08447  20913379.611    20913379.6264   20913384.7004
        48.8004         45.8004
 -15530092.91146 -12075365.18847  21320655.666    21320656.1274   21320661.6044
        48.4004         45.4004
  -8612377.95346  -6691974.25947  21353793.741    21353794.3434   21353799.5824
        48.2004         45.4004
   1655002.33542   1302900.46845  24257899.217    24257901.0474   24257908.2224
        37.1004         35.0004
   -274601.97643   -198741.59646  24363698.208    24363698.1454   24363701.1264
        38.5004         36.4004
 16  6 11  0 29 30.0000000  0  9G19G17G22G23G 9G 3G 6G 1G31
 -12760645.33745  -9922287.94047  22568064.941    22568064.2654   22568066.5514
        44.8004         42.1004
  -5141186.35544  -3974165.10346  23066431.038    23066430.8614   23066433.8014
        42.7004         39.7004
  -5596250.58644  -4079675.60446  23070934.882    23070933.1554   23070935.5484
        41.5004         39.0004
 -21417876.96547 -16138940.00247  20592501.412    20592501.2834   20592501.9194
        49.8004         47.2004
 -17759600.00746 -13821458.52647  20901755.246    20901755.7584   20901760.3614
        48.8004         46.1004
 -15470582.33346 -12028993.31747  21331980.371    21331980.6824   21331986.1264
        48.4004         45.6004
  -8673662.68046  -6739728.57347  21342131.388    21342131.9214   21342137.5794
        48.2004         45.4004
   1765451.45842   1388964.73245  24278914.764    24278917.8474   24278925.2064
        36.6004         34.6004
   -204305.91743   -143965.47146  24377075.051    24377075.4844   24377077.3684
        38.7004         36.6004
 16  6 11  0 30  0.0000000  0  9G19G17G22G23G 9G 3G 6G 1G31
 -12707976.50945  -9881247.30246  22578087.884    22578086.6944   22578089.3744
        44.6004         41.8004
  -5060689.30744  -3911440.13946  23081747.041    23081747.4004   23081751.1894
        42.2004         39.3004
  -5513817.42844  -4015441.99946  23086620.079    23086619.3424   23086620.3434
        41.5004         38.8004
 -21422940.75947 -16142885.80747  20591537.895    20591537.6824   20591538.1874
        49.8004         47.0004
 -17820246.90646 -13868715.83347  20890214.919    20890215.0244   20890219.6574
        48.9004         46.1004
 -15410801.61346 -11982410.94147  21343356.125    21343356.4724   21343362.1054
        48.4004         45.6004
  -8734518.11946  -6787148.37847  21330551.012    21330551.5254   21330556.7914
        48.2004         45.4004
   1876016.56642   1475119.32145  24299957.355    24299957.4914   24299967.7044
        36.4004         34.3004
   -133566.57343    -88843.89846  24390536.720    24390536.0604   24390539.3334
        38.9004         36.6004
 16  6 11  0 30 30.0000000  0  9G19G17G22G23G 9G 3G 6G 1G31
 -12654782.98245  -9839797.79646  22588209.063    22588208.7774   22588211.5134
        44.2004         41.2004
  -4979860.07644  -3848456.35746  23097130.591    23097130.0344   23097131.6424
        42.0004         39.2004
  -5431234.27144  -3951091.50246  23102336.067    23102334.7764   23102335.9714
        41.5004         38.8004
 -21427533.25547 -16146464.36647  20590663.984    20590663.6034   20590664.5284
        49.8004         47.2004
 -17880452.43046 -13915629.20947  20878758.078    20878758.0594   20878762.7154
        49.1004         46.3004
 -15350751.45246 -11935618.61947  21354783.411    21354783.5904   21354789.4974
        48.4004         45.4004
  -8794942.09446  -6834231.97047  21319052.705    21319053.3494   21319059.0504
        48.4004         45.8004
   1986695.79842   1561362.84545  24321019.879    24321020.2654   24321027.0644
        36.3004         34.3004
    -62386.26243    -33378.72146  24404080.623    24404082.1634   24404083.3054
        38.7004         36.4004
 16  6 11  0 31  0.0000000  0  9G19G17G22G23G 9G 3G 6G 1G31
 -12601067.08945  -9797941.25846  22598431.153    22598430.4374   22598433.7534
        44.1004         41.2004
  -4898701.63344  -3785216.03146  23112572.906    23112572.7134   23112576.2454
        42.0004         39.2004
  -5348502.19044  -3886624.96846  23118078.710    23118077.4754   23118080.5804
        41.5004         38.8004
 -21431655.11947 -16149676.19247  20589879.839    20589879.3034   20589880.2264
        49.8004         47.2004
 -17940215.58846 -13962197.87647  20867385.133    20867385.2214   20867390.1004
        49.1004         46.3004
 -15290432.53746 -11888616.87747  21366261.496    21366261.9454   21366267.0844
        48.4004         45.4004
  -8854932.44946  -6880977.67847  21307637.026    21307637.4344   21307643.1874
        48.6004         45.6004
   2097487.43542   1647693.95645  24342105.919    24342103.5304   24342110.7204
        36.1004         34.3004
      9232.69943     22428.29446  24417709.995    24417711.0994   24417712.6824
        39.0004         36.9004
 16  6 11  0 31 30.0000000  0  9G19G17G22G23G 9G 3G 6G 1G31
 -12546831.05245  -9755679.42746  22608751.989    22608751.4174   22608754.0374
        44.1004         41.2004
  -4817217.51244  -3721721.92946  23128080.261    23128079.7574   23128084.6214
        42.0004         39.5004
  -5265621.47844  -3822042.62246  23133851.419    23133849.9794   23133851.5024
        41.5004         39.2004
 -21435306.68447 -16152521.55647  20589184.398    20589184.1634   20589185.3034
        49.8004         47.2004
 -17999535.37046 -14008421.06347  20856097.273    20856097.3834   20856101.8744
        49.1004         46.3004
 -15229845.58646 -11841406.27647  21377790.687    21377791.4564   21377797.0594
        48.2004         45.4004
  -8914486.99646  -6927383.79947  21296303.574    21296304.1194   21296310.3284
        48.4004         45.4004
   2208389.55242   1734111.19445  24363210.699    24363206.1704   24363212.5124
        36.1004         34.3004
     81287.98943     78575.28446  24431423.166    24431422.9104   24431425.5804
        39.0004         36.7004
 16  6 11  0 32  0.0000000  0  9G19G17G22G23G 9G 3G 6G 1G31
 -12492077.16245  -9713014.06846  22619172.064    22619170.4894   22619174.4694
        44.1004         41.2004
  -4735410.25144  -3657976.05146  23143647.071    23143646.9254   23143650.3204
        42.0004         39.0004
  -5182592.86544  -3757345.02246  23149650.005    23149649.4674   23149651.5124
        41.5004         39.0004
 -21438488.51347 -16155000.89547  20588579.088    20588578.7414   20588579.9114
        49.8004         47.2004
 -18058410.80946 -14054298.00747  20844893.764    20844893.3244   20844898.3244
        49.3004         46.5004
 -15168991.30146 -11793987.36147  21389370.306    21389371.0554   21389377.1844
        48.1004         45.2004
  -8973603.61946  -6973448.67947  21285054.069    21285054.6104   21285060.2664
        48.2004         45.4004
   2319400.41742   1820613.15645  24384334.533    24384331.6584   24384338.6724
        36.1004         34.3004
    153777.14643    135060.35246  24445216.683    24445217.4124   24445218.4544
        39.2004         36.9004
 16  6 11  0 32 30.0000000  0  9G19G17G22G23G 9G 3G 6G 1G31
 -12436807.67545  -9669946.94846  22629690.219    22629688.8474   22629691.1314
        44.1004         41.4004
  -4653282.59344  -3593980.51746  23159274.233    23159274.5994   23159278.4944
        41.5004         38.5004
  -5099417.14844  -3692532.78846  23165480.240    23165478.1654   23165479.5124
        41.5004         38.8004
 -21441201.22647 -16157114.68447  20588062.870    20588062.7144   20588063.5974
        49.8004         47.2004
 -18116840.93146 -14099827.94847  20833774.520    20833774.9224   20833779.5484
        49.3004         46.5004
 -15107870.33946 -11746360.64547  21401001.148    21401001.5984   21401008.2704
        48.1004         45.1004
  -9032280.11146  -7019170.61347  21273888.818    21273889.3814   21273894.5834
        48.2004         45.4004
   2430518.19542   1907198.44945  24405477.027    24405476.9004   24405483.9424
        36.3004         34.6004
    226697.79443    191881.65746  24459094.117    24459093.9964   24459094.5114
        39.4004         36.9004
 16  6 11  0 33  0.0000000  0  9G19G17G22G23G 9G 3G 6G 1G31
 -12381025.09745  -9626480.02946  22640305.347    22640304.5264   22640305.8184
        44.2004         41.8004
  -4570837.57644  -3529737.68346  23174964.036    23174963.8384   23174968.2634
        41.5004         39.0004
  -5016095.14244  -3627606.56346  23181333.693    23181333.3304   23181335.7724
        41.6004         39.2004
 -21443445.32647 -16158863.32447  20587636.103    20587635.6824   20587636.5304
        49.8004         47.2004
 -18174824.79646 -14145010.15947  20822740.589    20822740.6584   20822745.6284
        49.3004         46.5004
 -15046483.44646 -11698526.71347  21412683.856    21412683.5144   21412690.2434
        47.9004         45.2004
  -9090514.36246  -7064547.94047  21262807.222    21262807.3594   21262813.2644
        48.2004         45.2004
   2541741.05942   1993865.62145  24426640.716    24426641.1804   24426650.2934
        36.1004         34.3004
    300047.73643    249037.44146  24473052.919    24473052.3334   24473053.2154
        39.2004         36.7004
 16  6 11  0 33 30.0000000  0  9G19G17G22G23G 9G 3G 6G 1G31
 -12324731.76645  -9582615.09746  22651016.861    22651016.4724   22651019.2924
        44.6004         41.9004
  -4488078.04444  -3465249.75346  23190712.497    23190712.0854   23190717.0824
        41.5004         38.5004
  -4932627.02244  -3562566.46646  23197218.337    23197217.6434   23197218.5214
        41.5004         38.8004
 -21445221.15347 -16160247.07547  20587298.394    20587297.7974   20587298.7934
        50.0004         47.2004
 -18232361.46846 -14189843.90647  20811791.417    20811791.5554   20811796.5664
        49.3004         46.5004
 -14984831.31046 -11650486.10347  21424415.190    21424415.6364   21424421.7714
        47.9004         45.1004
  -9148304.23446  -7109578.98947  21251810.198    21251810.4444   21251816.0534
        48.1004         45.2004
   2653067.19642   2080613.26545  24447828.708    24447827.5384   24447832.1864
        35.7004         34.1004
    373824.54843    306525.89146  24487091.083    24487091.1234   24487092.0254
        38.9004         36.6004
 16  6 11  0 34  0.0000000  0  9G19G17G22G23G 9G 3G 6G 1G31
 -12267930.07845  -9538354.03046  22661825.330    22661824.5444   22661827.6134
        44.4004         41.6004
  -4405007.21444  -3400519.26246  23206520.030    23206519.9294   23206523.1074
        41.1004         38.3004
  -4849013.68644  -3497413.23346  23213128.546    23213127.4744   23213128.8614
        41.1004         38.5004
 -21446529.22547 -16161266.34047  20587049.352    20587048.5174   20587049.6644
        49.8004         47.0004
 -18289450.01846 -14234328.47147  20800928.555    20800928.2564   20800933.2134
        49.5004         46.6004
 -14922914.63546 -11602239.35047  21436198.176    21436198.0984   21436203.9004
        47.9004         45.1004
  -9205647.57746  -7154262.09647  21240897.956    21240898.0754   21240903.7344
        48.1004         45.2004
   2764494.81342   2167439.93945  24469033.069    24469030.8704   24469036.4644
        35.7004         34.1004
    448025.66943    364344.97546  24501209.582    24501210.1324   24501212.9414
        38.7004         36.4004
 16  6 11  0 34 30.0000000  0  9G19G17G22G23G 9G 3G 6G 1G31
 -12210622.41245  -9493698.70946  22672730.824    22672729.8334   22672732.8854
        44.2004         41.4004
  -4321627.93944  -3335548.43746  23222386.774    23222387.5474   23222389.9484
        40.9004         38.3004
  -4765255.79744  -3432147.34646  23229068.855    23229067.1734   23229067.7694
        41.1004         38.6004
 -21447370.18847 -16161921.63047  20586889.160    20586888.8814   20586889.4814
        49.8004         47.2004
 -18346089.53646 -14278463.13747  20790150.253    20790150.0284   20790154.8414
        49.5004         46.6004
 -14860734.09646 -11553786.98947  21448029.907    21448030.5984   21448036.2804
        47.9004         44.9004
  -9262542.26846  -7198595.60047  21230070.742    21230071.1144   21230076.9514
        48.2004         45.4004
   2876022.00942   2254344.28145  24490255.535    24490253.9594   24490260.9854
        35.4004         34.0004
    522648.83143    422492.91246  24515411.036    24515411.5164   24515412.6924
        39.0004         36.9004
 16  6 11  0 35  0.0000000  0  9G19G17G22G23G 9G 3G 6G 1G31
 -12152810.90545  -9448650.82546  22683732.569    22683731.2934   22683733.2364
        44.1004         41.2004
  -4237942.80044  -3270339.25146  23238312.054    23238311.9224   23238315.8554
        41.3004         38.8004
  -4681354.12344  -3366769.43746  23245033.047    23245032.8604   23245033.0894
        40.9004         38.1004
 -21447744.55747 -16162213.34147  20586818.396    20586817.8194   20586818.2024
        49.8004         47.2004
 -18402279.12246 -14322247.20747  20779457.707    20779457.8684   20779462.7324
        49.5004         46.6004
 -14798290.42246 -11505129.59347  21459913.418    21459913.7624   21459919.1684
        47.7004         45.1004
  -9318986.20846  -7242577.87547  21219329.934    21219330.4774   21219335.7664
        48.2004         45.4004
   2987647.08142   2341324.83745  24511496.754    24511497.7474   24511502.8364
        35.6004         34.0004
    597691.49943    480967.70846  24529691.355    24529691.2564   24529693.2004
        39.4004         37.1004
 16  6 11  0 35 30.0000000  0  9G19G17G22G23G 9G 3G 6G 1G31
 -12094498.70245  -9403212.76546  22694828.718    22694828.2044   22694829.6774
        44.2004         41.4004
  -4153955.24744  -3204894.41346  23254293.203    23254294.1674   23254298.7104
        41.3004         39.0004
  -4597309.45244  -3301280.10446  23261025.175    23261025.5164   23261026.5414
        40.8004         38.1004
 -21447652.94447 -16162141.94147  20586835.368    20586835.0344   20586835.9714
        50.0004         47.2004
 -18458017.92146 -14365680.01947  20768850.462    20768850.3234   20768855.6494
        49.5004         46.5004
 -14735584.30346 -11456267.69047  21471846.348    21471846.3854   21471851.4514
        47.9004         45.1004
  -9374977.27146  -7286207.25947  21208675.568    21208675.8694   21208681.1174
        48.2004         45.4004
   3099368.05142   2428380.13445  24532758.418    24532754.1714   24532760.9054
        35.2004         33.6004
    673151.41543    539767.66146  24544051.233    24544051.1324   24544054.0444
        39.0004         36.7004
 16  6 11  0 36  0.0000000  0  9G19G17G22G23G 9G 3G 6G 1G31
 -12035687.76245  -9357386.07046  22706020.780    22706019.2354   22706021.8144
        44.2004         41.4004
  -4069668.24444  -3139216.25446  23270334.053    23270334.0814   23270336.5124
        41.5004         38.8004
  -4513122.05944  -3235679.57946  23277048.087    23277046.5934   23277047.7764
        40.8004         38.5004
 -21447095.78147 -16161707.78147  20586941.538    20586941.0834   20586941.9214
        50.0004         47.3004
 -18513305.01746 -14408760.86547  20758329.453    20758329.4254   20758334.5824
        49.3004         46.5004
 -14672616.43346 -11407201.82847  21483828.351    21483828.8254   21483833.9104
        47.7004         44.9004
  -9430513.37646  -7329482.12647  21198107.267    21198107.8374   21198113.2044
        48.2004         45.4004
   3211183.23542   2515508.85945  24554033.362    24554033.5594   24554038.7464
        35.2004         33.4004
    749026.26943    598890.92546  24558489.585    24558489.1144   24558490.4154
        38.9004         36.6004
 16  6 11  0 36 30.0000000  0  9G19G17G22G23G 9G 3G 6G 1G31
 -11976380.44045  -9311172.58246  22717305.874    22717305.4084   22717306.6224
        44.2004         41.4004
  -3985084.70844  -3073307.02746  23286429.531    23286429.6324   23286432.4394
        41.5004         39.0004
  -4428792.93044  -3169968.56646  23293094.110    23293093.0564   23293095.0484
        40.8004         38.1004
 -21446073.80447 -16160911.42647  20587135.809    20587135.3494   20587136.2314
        50.0004         47.2004
 -18568139.57446 -14451489.07047  20747894.385    20747894.6854   20747899.4604
        49.3004         46.5004
 -14609387.54046 -11357932.56047  21495860.670    21495860.6994   21495865.7104
        47.7004         44.7004
  -9485592.40846  -7372400.83847  21187625.883    21187626.6164   21187632.0004
        48.2004         45.6004
   3323090.70742   2602709.48445  24575327.699    24575327.1344   24575334.8344
        35.4004         33.8004
    825313.40643    658335.41046  24573006.579    24573006.7254   24573007.4244
        39.0004         36.7004
 16  6 11  0 37  0.0000000  0  9G19G17G22G23G 9G 3G 6G 1G31
 -11916579.57745  -9264574.52646  22728685.999    22728685.3564   22728687.0684
        44.2004         41.2004
  -3900207.59544  -3007169.04546  23302579.645    23302581.6534   23302585.7964
        41.5004         39.0004
  -4344322.49444  -3104147.46646  23309167.841    23309166.2484   23309167.6414
        40.6004         37.9004
 -21444587.70847 -16159753.42147  20587418.927    20587418.7954   20587418.9994
        50.0004         47.2004
 -18622520.76046 -14493864.00147  20737546.511    20737546.5294   20737551.2434
        49.3004         46.5004
 -14545898.28746 -11308460.42647  21507942.385    21507942.5834   21507947.5534
        47.7004         44.9004
  -9540212.29846  -7414961.77847  21177232.406    21177233.0334   21177238.2514
        48.4004         45.6004
   3435088.76142   2689980.69245  24596644.002    24596642.8774   24596647.3574
        35.0004         33.3004
    902010.40043    718099.22946  24587601.307    24587601.9814   24587602.5624
        38.9004         36.4004
 16  6 11  0 37 30.0000000  0  9G19G17G22G23G 9G 3G 6G 1G31
 -11856287.58545  -9217593.76946  22740159.784    22740157.7264   22740160.1674
        44.1004         41.2004
  -3815039.69044  -2940804.45446  23318788.496    23318788.3584   23318791.8514
        41.8004         39.3004
  -4259711.50243  -3038216.84846  23325266.918    23325267.1034   23325269.6554
        40.4004         37.8004
 -21442637.84347 -16158234.03547  20587790.294    20587789.7394   20587789.8854
        50.0004         47.2004
 -18676447.72846 -14535885.00347  20727284.917    20727284.8914   20727289.7354
        49.5004         46.6004
 -14482149.40346 -11258785.97947  21520072.712    21520073.4364   21520078.1994
        47.5004         44.5004
  -9594370.98446  -7457163.34147  21166926.314    21166926.9494   21166931.8534
        48.4004         45.6004
   3547175.47642   2777320.96745  24617974.248    24617971.6394   24617977.5274
        35.2004         33.6004
    979114.81643    778180.63245  24602274.513    24602274.3734   24602275.0564
        38.2004         35.7004
 16  6 11  0 38  0.0000000  0  9G19G17G22G23G 9G 3G 6G 1G31
 -11795506.93045  -9170232.23146  22751725.290    22751724.1004   22751726.4234
        44.1004         41.2004
  -3729584.15844  -2874215.75046  23335049.257    23335049.5484   23335053.0324
        41.6004         38.8004
  -4174960.67643  -2972177.27946  23341397.280    23341395.5194   23341397.6974
        40.4004         37.9004
 -21440224.91847 -16156353.81947  20588248.913    20588248.6814   20588249.3374
        50.0004         47.2004
 -18729919.65946 -14577551.43147  20717109.642    20717109.5784   20717114.4964
        49.5004         46.8004
 -14418141.58946 -11208909.76847  21532252.920    21532253.5254   21532258.7624
        47.4004         44.5004
  -9648066.39746  -7499003.91047  21156708.387    21156708.7324   21156714.2824
        48.6004         45.6004
   3659349.03642   2864728.93245  24639319.598    24639317.5064   24639323.1044
        35.6004         34.0004
   1056624.28043    838577.63446  24617024.469    24617024.3674   24617025.3044
        38.5004         36.6004
 16  6 11  0 38 30.0000000  0  9G19G17G22G23G 9G 3G 6G 1G31
 -11734239.94445  -9122491.73146  22763384.118    22763382.6184   22763384.3474
        43.9004         40.9004
  -3643843.87244  -2807405.19046  23351364.792    23351365.4674   23351368.8964
        41.6004         39.2004
  -4090070.70543  -2906029.27546  23357548.969    23357547.9334   23357551.4074
        40.3004         37.6004
 -21437349.56547 -16154113.27347  20588796.001    20588795.6134   20588796.3624
        50.0004         47.2004
 -18782935.76147 -14618862.66847  20707020.378    20707020.6784   20707025.6664
        49.6004         46.6004
 -14353875.51746 -11158832.32347  21544481.872    21544482.6794   21544488.3364
        47.2004         44.4004
  -9701296.46146  -7540481.86947  21146578.863    21146579.3444   21146584.7824
        48.6004         45.6004
   3771607.64042   2952203.16645  24660673.725    24660678.2544   24660685.1164
        35.2004         33.6004
   1134536.31743    899288.34246  24631849.259    24631850.2494   24631850.6394
        38.7004         36.4004
 16  6 11  0 39  0.0000000  0  9G19G17G22G23G 9G 3G 6G 1G31
 -11672489.29845  -9074374.38146  22775134.876    22775133.8914   22775135.4224
        43.6004         40.7004
  -3557822.28044  -2740375.38946  23367735.006    23367734.3334   23367739.0984
        41.5004         38.6004
  -4005042.01743  -2839773.17946  23373730.919    23373730.2694   23373732.8034
        40.3004         37.6004
 -21434012.50747 -16151512.95647  20589431.088    20589430.7444   20589431.4314
        50.0004         47.2004
 -18835495.22046 -14659818.06847  20697018.578    20697018.7144   20697023.7824
        49.5004         46.6004
 -14289351.91046 -11108554.20647  21556761.148    21556761.3744   21556766.9414
        47.2004         44.4004
  -9754059.13846  -7581595.64247  21136538.146    21136538.8504   21136544.1614
        48.6004         45.8004
   3883949.39242   3039742.19245  24682047.371    24682057.3454   24682062.3984
        35.7004         34.0004
   1212848.71243    960310.98945  24646751.888    24646752.2084   24646751.7404
        38.5004         35.9004
 16  6 11  0 39 30.0000000  0  9G19G17G22G23G 9G 3G 6G 1G31
 -11610257.65044  -9025882.22046  22786977.594    22786976.1124   22786977.6814
        43.4004         40.6004
  -3471521.85344  -2673128.33146  23384156.879    23384157.1624   23384161.4494
        41.3004         38.6004
  -3919875.44743  -2773409.61546  23389936.330    23389934.8874   23389938.2584
        39.9004         37.3004
 -21430214.46547 -16148553.43047  20590153.673    20590153.5354   20590154.1584
        50.0004         47.2004
 -18887597.26846 -14700417.04647  20687103.960    20687103.9664   20687108.6174
        49.5004         46.6004
 -14224571.47846 -11058075.96647  21569087.837    21569088.1164   21569094.0424
        47.2004         44.2004
  -9806352.39446  -7622343.62047  21126586.488    21126587.5614   21126593.3194
        48.6004         45.8004
   3996372.49842   3127344.64945  24703442.263    24703446.1254   24703456.9154
        35.6004         33.8004
   1291558.49743   1021643.30346  24661730.336    24661730.1454   24661731.0524
        38.9004         36.7004
 16  6 11  0 40  0.0000000  0  9G19G17G22G23G 9G 3G 6G 1G31
 -11547547.66245  -8977017.31046  22798910.042    22798908.9584   22798912.0684
        43.6004         41.1004
  -3384946.10344  -2605666.74246  23400631.356    23400631.8694   23400635.0894
        40.9004         38.3004
  -3834571.55443  -2706939.10046  23406169.990    23406169.6624   23406172.9794
        39.9004         37.4004
 -21425955.97047 -16145235.11247  20590964.068    20590963.6574   20590964.0704
        50.0004         47.2004
 -18939241.17246 -14740659.03147  20677276.885    20677276.5004   20677281.1054
        49.5004         46.6004
 -14159534.91346 -11007398.13347  21581463.889    21581464.6724   21581469.6234
        47.2004         44.4004
  -9858174.19846  -7662724.24147  21116725.898    21116726.3804   21116731.5394
        48.6004         45.8004
   4108875.22942   3215009.07145  24724858.050    24724855.3164   24724864.5714
        35.4004         33.8004
   1370663.13843   1083283.22346  24676783.337    24676783.1144   24676784.3694
        38.9004         36.6004
 16  6 11  0 40 30.0000000  0  9G19G17G22G23G 9G 3G 6G 1G31
 -11484361.64245  -8927781.47546  22810934.777    22810933.9684   22810935.8514
        43.9004         41.2004
  -3298097.35344  -2537992.42746  23417159.709    23417159.4074   23417162.7604
        41.1004         38.6004
  -3749131.06643  -2640362.11746  23422429.417    23422429.0284   23422431.7114
        39.9004         37.6004
 -21421237.68847 -16141558.52047  20591861.877    20591861.6524   20591862.3024
        50.0004         47.2004
 -18990426.15346 -14780543.42047  20667536.670    20667536.4494   20667541.0554
        49.5004         46.6004
 -14094242.89646 -10956521.24847  21593888.970    21593889.0264   21593894.9134
        47.0004         44.2004
  -9909522.55446  -7702735.92947  21106954.587    21106955.0824   21106960.6654
        48.6004         45.8004
   4221455.60942   3302734.02645  24746283.122    24746280.3764   24746289.4164
        35.4004         33.8004
   1450160.55143   1145229.37146  24691911.727    24691911.3854   24691912.8084
        39.0004         36.9004
 16  6 11  0 41  0.0000000  0  9G19G17G22G23G 9G 3G 6G 1G31
 -11420702.47045  -8878176.93546  22823046.953    22823046.8584   22823049.4744
        43.7004         40.4004
  -3210979.26544  -2470108.21046  23433736.697    23433736.2874   23433741.5164
        41.1004         38.5004
  -3663554.63843  -2573679.19246  23438714.409    23438714.3744   23438715.1414
        40.1004         37.4004
 -21416060.36247 -16137524.22647  20592847.111    20592847.0244   20592847.3404
        49.8004         47.2004
 -19041151.46646 -14820069.61847  20657883.495    20657883.7164   20657888.8144
        49.5004         46.6004
 -14028696.15946 -10905445.86447  21606361.894    21606362.1804   21606367.8074
        47.0004         44.2004
  -9960395.43146  -7742377.11547  21097273.981    21097274.7914   21097279.9624
        48.8004         46.1004
   4334111.83942   3390518.10045  24767722.653    24767717.6454   24767723.6394
        35.2004         33.8004
   1530048.06343   1207479.38846  24707112.956    24707112.3534   24707114.3834
        39.0004         36.7004
 16  6 11  0 41 30.0000000  0  9G19G17G22G23G 9G 3G 6G 1G31
 -11356572.54544  -8828205.58346  22835251.639    22835251.9114   22835253.1944
        43.4004         40.7004
  -3123594.74044  -2402016.39046  23450366.143    23450365.5814   23450369.6594
        41.1004         38.3004
  -3577842.96743  -2506890.89946  23455025.315    23455023.9144   23455024.8714
        39.7004         37.4004
 -21410424.77247 -16133132.84447  20593919.330    20593919.1364   20593920.4014
        49.8004         47.2004
 -19091416.41947 -14859237.09647  20648318.694    20648319.0134   20648323.6944
        49.6004         46.8004
 -13962895.38146 -10854172.54647  21618883.550    21618884.2204   21618889.5854
        47.0004         44.2004
 -10010790.84546  -7781646.25747  21087684.469    21087684.8034   21087690.0514
        48.9004         46.1004
   4446842.11142   3478359.83245  24789174.061    24789170.5464   24789176.1584
        35.4004         33.6004
   1610323.00543   1270031.25846  24722388.165    24722389.4174   24722389.7334
        38.9004         36.4004
 16  6 11  0 42  0.0000000  0  9G19G17G22G23G 9G 3G 6G 1G31
 -11291974.52845  -8777869.50446  22847544.319    22847543.8464   22847545.9674
        43.7004         41.1004
  -3035946.83544  -2333719.38146  23467045.332    23467045.0994   23467047.0564
        40.6004         37.9004
  -3491996.63743  -2439997.67346  23471360.372    23471359.3664   23471361.9254
        39.9004         37.4004
 -21404331.48947 -16128384.82247  20595079.110    20595078.3434   20595079.5054
        49.8004         47.2004
 -19141220.29947 -14898045.28747  20638841.335    20638841.2534   20638846.3854
        49.6004         46.8004
 -13896841.30146 -10802701.85447  21631453.390    21631453.1744   21631458.8744
        47.0004         44.2004
 -10060706.75346  -7820541.75747  21078185.522    21078186.3594   21078191.1044
        48.9004         46.3004
   4559644.51142   3566257.81745  24810638.748    24810635.8874   24810643.9114
        35.2004         33.8004
   1690982.84743   1332883.09846  24737738.878    24737737.8254   24737739.2024
        38.9004         36.4004
 16  6 11  0 42 30.0000000  0  9G19G17G22G23G 9G 3G 6G 1G31
 -11226911.13345  -8727170.79146  22859925.203    22859924.5544   22859927.6144
        43.7004         41.1004
  -2948038.47844  -2265219.36846  23483771.567    23483771.8064   23483776.8934
        40.6004         38.3004
  -3406016.34143  -2373000.05146  23487722.033    23487721.4374   23487723.6364
        39.9004         37.4004
 -21397781.36147 -16123280.81347  20596324.877    20596324.8334   20596325.9144
        49.8004         47.0004
 -19190562.36547 -14936493.63547  20629451.500    20629451.8794   20629456.5424
        49.6004         46.8004
 -13830534.60946 -10751034.31247  21644070.388    21644071.0144   21644076.6864
        47.0004         44.2004
 -10110141.24546  -7859062.13247  21068778.615    21068779.1284   21068784.1134
        49.1004         46.3004
   4672517.23542   3654210.61545  24832117.713    24832116.9364   24832120.1314
        34.7004         33.1004
   1772025.28643   1396033.04046  24753160.248    24753159.3684   24753163.1364
        38.7004         36.4004
 16  6 11  0 43  0.0000000  0  9G19G17G22G23G 9G 3G 6G 1G31
 -11161385.19645  -8676111.62446  22872394.673    22872393.8474   22872396.0864
        43.7004         40.9004
  -2859872.47044  -2196518.59046  23500550.166    23500551.1184   23500555.2764
        40.9004         38.5004
  -3319902.74343  -2305898.56746  23504109.199    23504108.0914   23504109.8884
        39.7004         37.3004
 -21390775.04847 -16117821.33547  20597658.910    20597658.1784   20597658.8354
        49.8004         47.0004
 -19239442.01747 -14974581.66047  20620150.161    20620150.2964   20620154.9124
        49.6004         46.8004
 -13763975.97946 -10699170.46347  21656736.907    21656737.1464   21656742.4684
        47.0004         44.2004
 -10159092.30746  -7897205.81247  21059463.645    21059464.0544   21059469.0414
        49.1004         46.3004
   4785458.53542   3742216.81645  24853607.386    24853605.4554   24853615.9444
        34.9004         33.6004
   1853447.62843   1459479.01145  24768653.469    24768653.2854   24768656.7374
        38.0004         35.7004
 16  6 11  0 43 30.0000000  0  9G19G17G22G23G 9G 3G 6G 1G31
 -11095399.19445  -8624693.98146  22884952.899    22884950.5674   22884954.1454
        43.9004         41.2004
  -2771452.15544  -2127619.68246  23517377.886    23517377.6994   23517378.8144
        40.8004         37.9004
  -3233656.56043  -2238693.75146  23520520.477    23520520.2184   23520522.5214
        39.7004         37.3004
 -21383313.48847 -16112007.12847  20599078.410    20599078.2464   20599078.8634
        49.8004         47.0004
 -19287858.50747 -15012308.78447  20610937.225    20610937.0194   20610941.7724
        49.6004         46.8004
 -13697166.15246 -10647110.88047  21669449.603    21669450.2414   21669456.8724
        46.9004         44.2004
 -10207558.02346  -7934971.28947  21050240.200    21050240.8514   21050246.4304
        49.1004         46.3004
   4898466.45542   3830274.92445  24875110.042    24875113.1184   24875120.0834
        35.2004         33.6004
   1935247.57043   1523219.22645  24784218.998    24784219.6874   24784221.3704
        37.8004         35.5004
 16  6 11  0 44  0.0000000  0  9G19G17G22G23G 9G 3G 6G 1G31
 -11028955.90445  -8572920.01546  22897595.111    22897594.2114   22897596.7784
        43.9004         41.1004
  -2682780.57543  -2058524.97246  23534247.900    23534249.4324   23534253.3534
        40.3004         37.6004
  -3147278.14643  -2171385.91146  23536958.636    23536957.8704   23536959.7524
        39.7004         37.1004
 -21375397.46447 -16105838.78247  20600584.810    20600584.2604   20600584.9064
        49.6004         47.0004
 -19335811.22247 -15049674.51747  20601812.371    20601812.1034   20601816.6064
        49.8004         47.0004
 -13630105.78246 -10594856.05747  21682211.077    21682211.4924   21682217.4984
        46.9004         44.0004
 -10255536.41846  -7972357.03547  21041110.745    21041111.1134   21041116.4334
        49.1004         46.1004
   5011539.21642   3918383.59045  24896628.783    24896629.4044   24896632.4944
        34.9004         33.3004
   2017422.17943   1587251.39945  24799857.108    24799857.8204   24799857.9454
        37.8004         35.5004
 16  6 11  0 44 30.0000000  0  9G19G17G22G23G 9G 3G 6G 1G31
 -10962057.99744  -8520791.79046  22910324.796    22910323.4774   22910326.7534
        43.4004         40.4004
  -2593860.69443  -1989236.77146  23551169.349    23551169.8924   23551175.6224
        40.4004         38.1004
  -3060768.53243  -2103975.83046  23553420.853    23553419.8544   23553421.5634
        39.7004         37.4004
 -21367027.38747 -16099316.64447  20602177.483    20602177.2974   20602178.0984
        49.8004         47.0004
 -19383299.53047 -15086678.38547  20592774.747    20592775.0384   20592779.9284
        49.8004         47.0004
 -13562795.60646 -10542406.58647  21695020.044    21695020.6224   21695025.7384
        46.9004         43.9004
 -10303025.57146  -8009361.55347  21032073.880    21032074.4494   21032079.4594
        49.1004         46.3004
   5124674.98942   4006541.32045  24918157.377    24918159.0754   24918165.9284
        35.2004         33.6004
   2099969.07543   1651573.70945  24815565.945    24815565.2304   24815567.5694
        38.0004         35.9004
 16  6 11  0 45  0.0000000  0  9G19G17G22G23G 9G 3G 6G 1G31
 -10894708.06544  -8468311.33646  22923141.503    22923141.6124   22923143.2264
        43.2004         40.6004
  -2504695.31943  -1919757.29046  23568138.524    23568138.8794   23568141.6544
        40.3004         37.6004
  -2974128.29543  -2036463.96046  23569907.742    23569906.8044   23569908.8664
        39.6004         37.1004
 -21358204.30447 -16092441.50547  20603856.742    20603856.4864   20603856.9314
        49.8004         47.0004
 -19430322.78947 -15123319.86747  20583826.699    20583826.9194   20583831.8784
        49.8004         47.0004
 -13495236.35146 -10489763.01647  21707875.801    21707876.5104   21707882.5974
        46.9004         43.9004
 -10350023.55146  -8045983.34147  21023130.217    21023130.4054   21023135.9044
        48.9004         45.9004
   5237871.93242   4094746.77445  24939698.196    24939697.9894   24939707.2924
        35.0004         33.6004
   2182885.49143   1716183.86645  24831342.995    24831342.2154   24831345.9884
        38.0004         35.9004
 16  6 11  0 45 30.0000000  0  9G19G17G22G23G 9G 3G 6G 1G31
 -10826908.80744  -8415480.78146  22936044.031    22936043.2354   22936044.0584
        43.2004         40.4004
  -2415288.02643  -1850089.30846  23585150.712    23585151.5204   23585155.1764
        39.9004         37.4004
  -2887357.91543  -1968850.68646  23586419.595    23586418.9594   23586421.2044
        39.6004         37.3004
 -21348928.88447 -16085213.90347  20605622.202    20605621.6744   20605622.1544
        49.8004         47.2004
 -19476880.39047 -15159598.50447  20574967.186    20574966.9264   20574972.1894
        49.8004         47.0004
 -13427428.69246 -10436925.89647  21720779.896    21720779.9544   21720785.4964
        46.7004         43.9004
 -10396528.47546  -8082220.92847  21014280.117    21014280.8184   21014286.4584
        48.9004         46.1004
   5351128.12742   4182998.39645  24961248.727    24961247.9694   24961256.6304
        35.0004         33.4004
   2266169.15543   1781080.23345  24847190.328    24847191.0894   24847194.7184
        37.6004         35.5004
 16  6 11  0 46  0.0000000  0  9G19G17G22G23G 9G 3G 6G 1G31
 -10758663.33344  -8362302.49946  22949029.748    22949028.7574   22949031.1344
        42.9004         39.9004
  -2325641.72343  -1780235.07246  23602210.273    23602210.5554   23602215.4404
        39.9004         37.6004
  -2800458.40443  -1901136.80746  23602955.659    23602955.0514   23602956.5804
        39.4004         36.7004
 -21339202.00247 -16077634.50947  20607472.923    20607472.3804   20607472.8144
        49.8004         47.0004
 -19522971.74547 -15195513.83347  20566196.571    20566196.3314   20566201.0284
        49.8004         47.0004
 -13359373.31446 -10383895.74447  21733729.512    21733730.4304   21733736.7524
        46.7004         43.9004
 -10442538.37246  -8118072.79147  21005525.087    21005525.6254   21005531.1094
        48.9004         46.1004
   5464441.79542   4271294.72545  24982811.819    24982812.0774   24982818.0924
        35.0004         33.4004
   2349817.50642   1846260.84445  24863107.991    24863107.0514   24863111.8584
        37.5004         35.2004
 16  6 11  0 46 30.0000000  0  9G19G17G22G23G 9G 3G 6G 1G31
 -10689974.18544  -8308778.49446  22962100.953    22962100.7814   22962102.2614
        42.7004         40.0004
  -2235759.21543  -1710196.76746  23619314.945    23619315.2274   23619319.9684
        40.1004         37.8004
  -2713430.20243  -1833322.63546  23619516.943    23619516.3104   23619517.4224
        39.4004         37.1004
 -21329024.61247 -16069704.06847  20609409.167    20609408.9894   20609409.5754
        49.8004         47.0004
 -19568596.22647 -15231065.35447  20557514.060    20557514.1714   20557519.1854
        49.8004         47.0004
 -13291070.96646 -10330673.14947  21746728.325    21746728.4274   21746733.7034
        46.7004         43.9004
 -10488051.47346  -8153537.53147  20996863.650    20996864.6174   20996870.0904
        48.9004         46.1004
   5577811.00742   4359634.40445  25004386.481    25004387.7564   25004392.0634
        35.2004         33.4004
   2433827.62243   1911723.26045  24879095.000    24879096.3114   24879098.9384
        37.6004         35.5004
 16  6 11  0 47  0.0000000  0  9G19G17G22G23G 9G 3G 6G 1G31
 -10620844.08344  -8254910.90046  22975256.275    22975255.2674   22975257.4624
        42.7004         39.9004
  -2145643.73343  -1639976.92046  23636463.459    23636463.4694   23636468.2804
        40.3004         37.6004
  -2626273.74043  -1765408.56646  23636104.154    23636101.4624   23636102.8884
        39.4004         37.1004
 -21318397.27047 -16061423.00947  20611432.258    20611431.5064   20611432.0934
        49.8004         47.2004
 -19613753.29947 -15266252.67347  20548920.856    20548921.3274   20548926.3614
        50.0004         47.2004
 -13222522.33046 -10277258.63247  21759770.962    21759772.0354   21759778.3054
        46.7004         43.9004
 -10533065.77046  -8188613.59447  20988298.322    20988298.8294   20988303.9384
        48.8004         45.9004
   5691234.12942   4448016.05145  25025969.554    25025969.3134   25025976.8414
        35.0004         33.3004
   2518197.23543   1977465.76045  24895150.079    24895150.6994   24895154.4504
        37.6004         35.7004
 16  6 11  0 47 30.0000000  0  9G19G17G22G23G 9G 3G 6G 1G31
 -10551275.72544  -8200701.81046  22988494.318    22988493.4454   22988495.6264
        42.5004         39.5004
  -2055298.40543  -1569578.00246  23653657.022    23653656.6874   23653659.4144
        39.9004         37.4004
  -2538990.12443  -1697395.35046  23652710.157    23652710.1274   23652713.6814
        39.4004         36.9004
 -21307321.01647 -16052792.15347  20613539.495    20613539.5084   20613540.1104
        49.8004         47.2004
 -19658442.41647 -15301075.34847  20540417.005    20540417.3254   20540422.1874
        50.0004         47.2004
 -13153728.11246 -10223652.75347  21772863.156    21772863.7364   21772869.2274
        46.7004         43.9004
 -10577579.46846  -8223299.58847  20979827.643    20979828.0124   20979833.3554
        48.8004         45.9004
   5804709.09442   4536438.09645  25047565.663    25047563.4574   25047568.7944
        35.4004         34.0004
   2602923.46643   2043486.16645  24911273.095    24911273.3984   24911276.0424
        38.0004         35.9004
 16  6 11  0 48  0.0000000  0  9G19G17G22G23G 9G 3G 6G 1G31
 -10481271.96044  -8146153.41746  23001814.711    23001814.2104   23001817.2674
        42.2004         39.5004
  -1964726.18843  -1499002.29446  23670890.095    23670890.6424   23670896.1244
        39.9004         37.4004
  -2451579.78143  -1629283.42246  23669345.571    23669343.7264   23669347.9504
        39.4004         37.3004
 -21295796.61147 -16043812.09547  20615732.684    20615732.5084   20615732.6854
        49.8004         47.0004
 -19702663.01047 -15335532.93847  20532002.109    20532002.0064   20532006.7564
        50.0004         47.2004
 -13084689.01246 -10169856.07447  21786000.616    21786001.3494   21786006.5574
        46.5004         43.7004
 -10621590.70746  -8257594.04647  20971452.879    20971453.2284   20971458.1494
        48.8004         46.1004
   5918234.09842   4624899.11645  25069168.011    25069164.8564   25069173.3684
        35.6004         33.8004
   2688003.85343   2109782.57045  24927464.239    24927464.5764   24927465.4244
        37.8004         35.3004
 16  6 11  0 48 30.0000000  0  9G19G17G22G23G 9G 3G 6G 1G31
 -10410835.52844  -8091267.91346  23015220.321    23015219.3834   23015222.0334
        42.7004         40.2004
  -1873930.28943  -1428252.27746  23688167.793    23688168.3924   23688173.3324
        39.9004         37.6004
  -2364043.30443  -1561073.19846  23686002.795    23686001.7664   23686004.9704
        39.4004         36.9004
 -21283825.11047 -16034483.64447  20618011.011    20618010.4124   20618010.4774
        49.8004         47.0004
 -19746414.55947 -15369625.03547  20523676.252    20523676.3854   20523681.4904
        50.0004         47.3004
 -13015405.76346 -10115869.14247  21799184.837    21799185.3634   21799190.5714
        46.5004         43.7004
 -10665097.65046  -8291495.55547  20963173.464    20963174.1274   20963179.4344
        48.9004         46.3004
   6031807.40642   4713397.81645  25090779.810    25090775.3434   25090782.7004
        35.4004         33.6004
   2773436.12743   2176353.18846  24943720.708    24943721.3064   24943722.6084
        37.8004         36.0004
 16  6 11  0 49  0.0000000  0  9G19G17G22G23G 9G 3G 6G 1G31
 -10339969.48544  -8036047.64746  23028704.643    23028703.8344   23028706.8264
        42.9004         40.0004
  -1782913.71043  -1357330.29746  23705489.325    23705487.7904   23705493.7384
        40.1004         37.6004
  -2276381.30343  -1492765.16546  23702684.461    23702684.1754   23702686.5214
        39.4004         37.1004
 -21271407.22447 -16024807.36147  20620373.666    20620373.4064   20620373.7594
        49.8004         46.8004
 -19789696.54547 -15403351.23747  20515440.294    20515440.4414   20515444.8384
        50.2004         47.3004
 -12945879.20746 -10061692.62347  21812416.133    21812416.3964   21812421.2524
        46.5004         43.7004
 -10708098.46846  -8325002.67147  20954990.878    20954991.0384   20954996.7924
        49.1004         46.3004
   6145427.10342   4801932.65245  25112399.396    25112400.1124   25112407.6954
        35.2004         33.6004
   2859216.97443   2243195.39145  24960044.955    24960045.1724   24960046.8124
        37.6004         35.5004
 16  6 11  0 49 30.0000000  0  9G19G17G22G23G 9G 3G 6G 1G31
 -10268676.64544  -7980494.79046  23042270.860    23042270.6094   23042273.2444
        42.7004         39.9004
  -1691679.49943  -1286238.73846  23722849.296    23722850.3594   23722854.5774
        40.3004         37.8004
  -2188594.57643  -1424359.91646  23719389.819    23719389.3574   23719389.5484
        39.4004         36.9004
 -21258543.69347 -16014783.82247  20622821.505    20622821.1974   20622821.5954
        49.6004         46.8004
 -19832508.48047 -15436711.16747  20507293.572    20507293.6854   20507298.0204
        50.2004         47.3004
 -12876109.73046 -10007326.80847  21825691.885    21825692.1264   21825698.0144
        46.5004         43.5004
 -10750591.31146  -8358113.96547  20946905.021    20946905.1504   20946910.3824
        49.1004         46.1004
   6259091.41042   4890502.26445  25134027.666    25134029.6394   25134037.5814
        35.4004         34.0004
   2945344.05642   2310307.42445  24976434.499    24976434.4874   24976436.4794
        36.8004         34.6004
 16  6 11  0 50  0.0000000  0  9G19G17G22G23G 9G 3G 6G 1G31
 -10196959.75844  -7924611.51846  23055919.631    23055918.6364   23055920.5404
        43.0004         40.4004
  -1600230.67943  -1214979.96746  23740251.466    23740251.4524   23740256.4914
        40.3004         37.6004
  -2100683.78443  -1355858.03046  23736119.174    23736117.7884   23736119.4624
        39.4004         36.9004
 -21245235.56647 -16004413.84147  20625354.005    20625353.4614   20625354.3184
        49.6004         46.8004
 -19874849.88047 -15469704.44047  20499236.506    20499236.0804   20499240.7484
        50.2004         47.3004
 -12806098.21545  -9952772.39747  21839014.355    21839015.3654   21839020.6224
        46.3004         43.5004
 -10792574.41046  -8390828.05747  20938915.300    20938915.9634   20938920.8474
        48.9004         46.1004
   6372798.41742   4979105.14845  25155664.307    25155667.8374   25155675.3334
        35.4004         33.6004
   3031815.21642   2377687.60245  24992889.732    24992889.0594   24992889.9744
        36.8004         35.0004
 16  6 11  0 50 30.0000000  0  9G19G17G22G23G 9G 3G 6G 1G31
 -10124821.60344  -7868399.99346  23069647.383    23069646.5154   23069648.4354
        43.2004         40.4004
  -1508570.45043  -1143556.39446  23757692.222    23757693.2554   23757699.0434
        39.9004         37.6004
  -2012649.74643  -1287260.09546  23752872.054    23752870.8664   23752872.9304
        39.6004         37.4004
 -21231483.84547 -15993698.20547  20627970.807    20627970.5034   20627971.2064
        49.6004         47.0004
 -19916720.25647 -15502330.69347  20491267.776    20491267.9154   20491272.9984
        50.2004         47.2004
 -12735845.36845  -9898029.93247  21852383.068    21852383.9134   21852389.8104
        46.3004         43.5004
 -10834045.99746  -8423143.56747  20931023.889    20931024.2534   20931029.2764
        48.9004         46.1004
   6486546.22242   5067739.79145  25177309.747    25177312.5634   25177319.9184
        35.7004         34.1004
   3118627.40642   2445333.47845  25009408.028    25009408.2924   25009409.6284
        37.1004         35.3004
 16  6 11  0 51  0.0000000  0  9G19G17G22G23G 9G 3G 6G 1G31
 -10052264.88144  -7811862.28746  23083452.577    23083451.8524   23083455.2244
        42.5004         39.5004
  -1416701.92443  -1071970.56946  23775176.560    23775176.3764   23775180.9034
        40.1004         37.6004
  -1924492.98943  -1218566.50446  23769646.177    23769646.0784   23769647.5284
        39.6004         37.1004
 -21217289.15347 -15982637.39747  20630672.183    20630671.6964   20630672.3174
        49.6004         47.0004
 -19958119.15147 -15534589.54247  20483390.330    20483389.9884   20483395.1654
        50.2004         47.3004
 -12665351.89245  -9843099.97047  21865799.547    21865799.4034   21865804.0404
        46.3004         43.7004
 -10875004.26146  -8455059.08647  20923229.875    20923230.4714   20923235.3344
        49.1004         46.3004
   6600333.07142   5156404.90445  25198964.215    25198964.9574   25198972.4424
        35.9004         34.3004
   3205778.19242   2513243.23745  25025992.884    25025994.0034   25025994.7894
        37.1004         35.0004
 16  6 11  0 51 30.0000000  0  9G19G17G22G23G 9G 3G 6G 1G31
  -9979292.68844  -7755000.85546  23097338.842    23097338.2084   23097340.4654
        42.2004         39.5004
  -1324628.04143  -1000224.73146  23792697.641    23792697.3664   23792701.7604
        39.9004         37.6004
  -1836214.02143  -1149777.70846  23786447.711    23786445.4174   23786447.2414
        39.7004         37.3004
 -21202652.64247 -15971232.31947  20633457.201    20633456.9214   20633457.5084
        49.6004         47.0004
 -19999046.13447 -15566480.67747  20475601.404    20475601.7104   20475607.0324
        50.0004         47.3004
 -12594618.50245  -9787983.05447  21879258.920    21879259.3944   21879263.8114
        46.3004         43.5004
 -10915447.45846  -8486573.25847  20915534.019    20915534.3774   20915539.2654
        49.1004         46.3004
   6714157.12742   5245098.99645  25220623.745    25220628.5404   25220632.5554
        35.9004         34.3004
   3293264.41842   2581414.32945  25042641.269    25042641.4244   25042642.9524
        37.1004         35.2004
 16  6 11  0 52  0.0000000  0  9G19G17G22G23G 9G 3G 6G 1G31
  -9905907.97944  -7697817.98846  23111304.501    23111302.6354   23111304.4614
        42.2004         39.7004
  -1232351.67843   -928321.09046  23810256.196    23810257.2974   23810260.5754
        39.7004         37.4004
  -1747813.66843  -1080894.32546  23803267.770    23803267.3664   23803269.2584
        39.7004         37.3004
 -21187574.78647 -15959483.32747  20636327.077    20636326.3334   20636326.3424
        49.6004         47.0004
 -20039500.76747 -15598003.74947  20467903.805    20467903.9504   20467908.6754
        50.2004         47.3004
 -12523645.89246  -9732679.72947  21892764.585    21892764.9474   21892770.0234
        46.5004         43.7004
 -10955373.80246  -8517684.67847  20907935.583    20907936.2924   20907941.3144
        49.1004         46.3004
   6828016.53142   5333820.63745  25242292.408    25242291.5804   25242299.1864
        35.7004         34.1004
   3381083.70542   2649844.91145  25059353.218    25059352.7954   25059352.8494
        37.0004         35.0004
 16  6 11  0 52 30.0000000  0  9G19G17G22G23G 9G 3G 6G 1G31
  -9832113.54544  -7640315.83946  23125346.719    23125346.4844   23125347.8994
        42.2004         39.5004
  -1139876.19743   -856262.29346  23827857.225    23827856.6794   23827859.5454
        40.3004         38.1004
  -1659292.61043  -1011916.86646  23820113.161    23820113.0174   23820114.3144
        39.6004         36.9004
 -21172057.17447 -15947391.67347  20639278.827    20639278.8934   20639279.4194
        49.6004         46.8004
 -20079482.64147 -15629158.43447  20460296.237    20460296.0214   20460300.3134
        50.3004         47.5004
 -12452434.76446  -9677190.55147  21906315.879    21906315.5714   21906320.3804
        46.5004         43.5004
 -10994781.60946  -8548392.04747  20900436.826    20900437.1704   20900442.4184
        49.3004         46.5004
   6941909.41142   5422568.38845  25263966.333    25263966.8544   25263974.4674
        35.9004         34.1004
   3469233.61242   2718533.17045  25076126.994    25076126.7634   25076128.7654
        37.1004         35.3004
 16  6 11  0 53  0.0000000  0  9G19G17G22G23G 9G 3G 6G 1G31
  -9757912.15344  -7582496.56946  23139467.170    23139466.8044   23139468.2984
        42.5004         40.0004
  -1047205.02943   -784051.01846  23845490.144    23845490.3334   23845494.1014
        40.4004         37.9004
  -1570651.28343   -942845.70946  23836981.115    23836981.0034   23836981.4494
        39.6004         36.9004
 -21156100.65946 -15934958.01447  20642315.787    20642315.2914   20642315.8844
        49.5004         46.6004
 -20118991.32447 -15659944.39947  20452778.028    20452777.9774   20452782.3214
        50.3004         47.7004
 -12380985.86845  -9621516.10347  21919911.627    21919912.1234   21919917.1604
        46.3004         43.3004
 -11033669.12746  -8578694.00347  20893036.864    20893037.2534   20893042.4534
        49.3004         46.3004
   7055833.96842   5511340.77645  25285644.911    25285645.7524   25285651.9354
        36.1004         34.1004
   3557711.36242   2787476.89545  25092962.867    25092964.1244   25092964.4664
        37.3004         35.2004
 16  6 11  0 53 30.0000000  0  9G19G17G22G23G 9G 3G 6G 1G31
  -9683306.88344  -7524362.61246  23153664.463    23153662.9834   23153665.2114
        42.7004         40.0004
   -954340.81343   -711689.32246  23863158.870    23863159.5614   23863165.3444
        40.1004         37.4004
  -1481890.53143   -873681.46346  23853870.665    23853871.0364   23853872.1504
        39.2004         36.7004
 -21139705.81946 -15922182.80347  20645435.410    20645435.1174   20645435.5964
        49.5004         46.8004
 -20158026.45047 -15690361.35847  20445349.482    20445349.6644   20445354.1374
        50.5004         47.7004
 -12309299.87845  -9565656.90547  21933553.224    21933553.4254   21933558.2864
        46.2004         43.3004
 -11072034.64846  -8608589.20747  20885735.636    20885736.3744   20885741.6174
        49.1004         46.3004
   7169788.26142   5600136.38545  25307328.390    25307330.8054   25307337.4754
        36.1004         34.1004
   3646514.33342   2856673.99045  25109862.437    25109862.4974   25109863.5264
        37.5004         35.3004
 16  6 11  0 54  0.0000000  0  9G19G17G22G23G 9G 3G 6G 1G31
  -9608300.57744  -7465916.15346  23167936.608    23167935.9294   23167938.6904
        42.5004         39.5004
   -861286.74143   -639179.69146  23880869.562    23880869.3964   23880873.3334
        39.9004         37.4004
  -1393010.90043   -804424.62146  23870783.707    23870782.5514   23870785.2614
        38.9004         36.4004
 -21122873.82546 -15909066.96147  20648639.104    20648638.3474   20648638.4374
        49.5004         46.6004
 -20196587.63247 -15720409.01747  20438010.781    20438011.0364   20438015.8934
        50.3004         47.5004
 -12237377.51945  -9509613.52847  21947239.719    21947239.8474   21947244.5404
        46.2004         43.3004
 -11109876.51046  -8638076.35947  20878535.240    20878535.4054   20878540.7334
        49.1004         46.3004
   7283770.63542   5688953.87045  25329017.138    25329021.5594   25329026.9554
        35.7004         33.8004
   3735639.86142   2926122.43945  25126824.169    25126822.4024   25126824.0404
        37.3004         35.3004
 16  6 11  0 54 30.0000000  0  9G19G17G22G23G 9G 3G 6G 1G31
  -9532896.19144  -7407159.46446  23182285.817    23182285.1734   23182286.4194
        42.2004         39.3004
   -768046.12143   -566524.67446  23898611.157    23898611.4324   23898617.7954
        40.3004         37.8004
  -1304013.32743   -735075.84446  23887717.604    23887717.9904   23887721.7954
        38.5004         36.0004
 -21105605.71646 -15895611.28447  20651924.956    20651924.4424   20651924.5904
        49.5004         46.8004
 -20234674.52847 -15750087.09147  20430763.082    20430763.2974   20430768.3284
        50.3004         47.3004
 -12165219.51845  -9453386.52847  21960970.237    21960970.6744   21960975.8994
        46.0004         43.2004
 -11147193.02346  -8667154.16247  20871433.798    20871434.1344   20871439.4384
        49.1004         46.3004
   7397779.13142   5777791.67745  25350714.768    25350716.1434   25350720.3714
        35.9004         34.1004
   3825085.29642   2995820.13845  25143843.198    25143842.2584   25143845.9364
        37.1004         35.2004
 16  6 11  0 55  0.0000000  0  9G19G17G22G23G 9G 3G 6G 1G31
  -9457096.67044  -7348094.93846  23196711.599    23196710.3774   23196710.6464
        42.2004         39.3004
   -674621.64643   -493726.44546  23916388.870    23916389.1794   23916394.5514
        40.1004         37.4004
  -1214898.35143   -665635.60846  23904677.660    23904676.7484   23904679.4104
        38.7004         36.6004
 -21087902.38147 -15881816.47547  20655293.843    20655293.3394   20655293.3644
        49.6004         46.8004
 -20272286.77347 -15779395.31347  20423606.064    20423606.0684   20423610.6834
        50.2004         47.3004
 -12092826.55745  -9396976.45147  21974747.081    21974747.1584   21974752.0244
        46.0004         43.3004
 -11183982.50346  -8695821.28647  20864432.916    20864433.3744   20864438.6034
        49.1004         46.3004
   7511811.95642   5866648.46645  25372412.605    25372414.5524   25372421.5124
        35.6004         34.0004
   3914848.10842   3065765.20945  25160923.975    25160924.7254   25160926.6874
        37.0004         35.0004
 16  6 11  0 55 30.0000000  0  8G19G17G22G23G 9G 3G 6G31
  -9380904.92544  -7288724.76646  23211207.912    23211206.8524   23211209.5544
        41.6004         38.5004
   -581016.46943   -420787.35846  23934201.891    23934201.2934   23934206.8174
        39.6004         37.1004
  -1125666.73743   -596104.48646  23921659.193    23921657.8714   23921658.6644
        38.5004         36.4004
 -21069764.76947 -15867683.25847  20658744.878    20658744.5184   20658745.0894
        49.6004         46.8004
 -20309424.03747 -15808333.41747  20416539.151    20416539.1504   20416544.0454
        50.2004         47.3004
 -12020199.35845  -9340383.84747  21988566.979    21988567.7114   21988572.1834
        46.2004         43.3004
 -11220243.33446  -8724076.45947  20857532.529    20857533.1194   20857538.8414
        49.1004         46.5004
   4004925.28742   3135955.20045  25178064.832    25178064.3944   25178067.3304
        36.8004         34.8004
 16  6 11  0 56  0.0000000  0  8G19G17G22G23G 9G 3G 6G31
  -9304323.92344  -7229051.25246  23225781.271    23225781.1284   23225783.4974
        41.3004         38.6004
   -487233.78243   -347710.01646  23952049.928    23952049.6034   23952054.3214
        40.1004         37.8004
  -1036318.75443   -526482.68346  23938659.421    23938660.0824   23938661.8864
        38.7004         36.6004
 -21051194.29247 -15853212.75047  20662279.013    20662278.3464   20662278.9724
        49.6004         46.8004
 -20346085.99147 -15836901.15447  20409562.789    20409562.5834   20409567.4534
        50.2004         47.3004
 -11947338.64045  -9283609.27747  22002432.509    22002432.3744   22002437.4714
        46.2004         43.3004
 -11255973.85846  -8751918.41947  20850733.690    20850734.2884   20850738.8864
        49.3004         46.5004
   4095314.32542   3206388.20145  25195266.949    25195266.7814   25195269.2214
        36.6004         34.6004
 16  6 11  0 56 30.0000000  0  8G19G17G22G23G 9G 3G 6G31
  -9227356.59544  -7169076.72346  23240429.090    23240427.8544   23240429.9334
        41.6004         39.3004
   -393276.85443   -274496.86246  23969928.496    23969928.4774   23969932.3054
        39.7004         37.1004
   -946855.16343   -456770.78046  23955684.795    23955685.7314   23955687.5064
        39.0004         36.9004
 -21032191.56647 -15838405.42247  20665894.901    20665894.7654   20665894.7614
        49.6004         46.8004
 -20382272.37147 -15865098.31147  20402676.310    20402676.3764   20402681.2114
        50.2004         47.3004
 -11874245.11945  -9226653.30847  22016341.111    22016341.5064   22016346.9124
        46.2004         43.3004
 -11291172.45146  -8779345.88547  20844035.261    20844035.8024   20844040.8284
        49.3004         46.6004
   4186012.67642   3277062.30145  25212526.011    25212525.3414   25212528.8084
        36.4004         34.6004
 16  6 11  0 57  0.0000000  0  8G19G17G22G23G 9G 3G 6G31
  -9150005.92844  -7108803.49546  23255147.798    23255146.2584   23255149.1734
        41.3004         38.3004
   -299148.68343   -201150.26346  23987839.807    23987839.9964   23987845.6074
        39.4004         37.1004
   -857276.90443   -386969.55046  23972733.513    23972731.2624   23972733.0874
        39.2004         36.9004
 -21012757.60547 -15823262.07247  20669593.228    20669592.8334   20669592.8024
        49.6004         46.8004
 -20417982.85247 -15892924.64147  20395880.186    20395880.8704   20395885.7934
        50.2004         47.3004
 -11800919.48545  -9169516.48747  22030295.874    22030295.2074   22030300.2594
        46.2004         43.5004
 -11325837.53246  -8806357.62447  20837438.759    20837439.5754   20837444.5074
        49.3004         46.5004
   4277017.44742   3347975.08945  25229842.106    25229840.9014   25229846.6734
        36.1004         34.0004
 16  6 11  0 57 30.0000000  0  8G19G17G22G23G 9G 3G 6G31
  -9072275.05244  -7048233.96646  23269938.271    23269937.6444   23269940.5794
        40.9004         38.5004
   -204852.22743   -127672.54346  24005784.906    24005784.6814   24005788.8674
        39.6004         37.3004
   -767584.41343   -317079.28546  23989800.350    23989799.1094   23989800.7364
        39.2004         36.7004
 -20992893.58946 -15807783.61447  20673373.205    20673372.8114   20673372.8294
        49.5004         46.8004
 -20453217.13547 -15920379.90547  20389176.341    20389175.9564   20389180.8714
        50.2004         47.3004
 -11727362.50145  -9112199.37747  22044292.309    22044292.8434   22044297.7274
        46.2004         43.3004
 -11359967.50946  -8832952.40447  20830943.813    20830944.2704   20830949.2614
        49.1004         46.3004
   4368326.22042   3419124.74845  25247217.910    25247217.3384   25247221.0904
        35.9004         34.3004
 16  6 11  0 58  0.0000000  0  8G19G17G22G23G 9G 3G 6G31
  -8994166.76144  -6987370.38446  23284804.663    23284803.6154   23284804.0774
        41.6004         39.3004
   -110390.48343    -54066.06746  24023759.702    24023759.6884   24023763.2764
        39.2004         36.7004
   -677778.68343   -247100.79946  24006889.866    24006888.9454   24006887.9654
        39.0004         36.4004
 -20972600.42746 -15791970.75147  20677234.505    20677234.2884   20677234.5534
        49.5004         46.6004
 -20487975.01647 -15947463.95047  20382562.164    20382561.9344   20382566.7744
        50.2004         47.3004
 -11653574.82445  -9054702.50547  22058334.000    22058333.8344   22058339.4004
        46.2004         43.3004
 -11393560.78646  -8859128.98147  20824551.301    20824551.9594   20824556.7184
        49.3004         46.5004
   4459936.15642   3490509.08445  25264650.320    25264651.1044   25264656.9554
        35.9004         34.1004
 16  6 11  0 58 30.0000000  0  8G19G17G22G23G 9G 3G 6G31
  -8915684.12944  -6926215.10646  23299738.339    23299737.7044   23299738.5504
        41.8004         39.0004
    -15766.78443     19666.67746  24041764.870    24041765.7164   24041771.2244
        39.4004         36.9004
   -587860.34843   -177034.54946  24024001.466    24023999.5454   24023998.9494
        38.7004         36.4004
 -20951879.29646 -15775824.41247  20681177.686    20681177.4004   20681177.8504
        49.5004         46.6004
 -20522256.18047 -15974176.52947  20376038.521    20376038.5484   20376043.0484
        50.3004         47.5004
 -11579557.21345  -8997026.46247  22072417.498    22072418.2364   22072423.9184
        45.8004         43.0004
 -11426615.66946  -8884886.02447  20818261.595    20818261.8384   20818266.7004
        49.3004         46.5004
   4551844.37742   3562125.88745  25282140.702    25282139.3484   25282145.2254
        35.6004         33.8004
 16  6 11  0 59  0.0000000  0  8G19G17G 2G22G23G 9G 3G 6
  -8836830.16244  -6864770.46846  23314743.478    23314742.7164   23314744.6964
        41.6004         38.8004
     79015.85743     93523.22646  24059803.506    24059803.2494   24059807.8184
        39.4004         37.1004
   -303557.86852   -215199.44755  24071286.913    24071286.5954   24071288.4914
        36.4004         35.0004
   -497829.70243   -106880.79846  24041132.566    24041130.9334   24041132.5794
        38.3004         36.2004
 -20930731.23946 -15759345.40047  20685202.444    20685201.9144   20685202.2944
        49.5004         46.8004
 -20556060.41747 -16000517.47547  20369606.192    20369605.9294   20369610.2294
        50.3004         47.5004
 -11505310.38345  -8939171.81747  22086547.173    22086547.5814   22086552.9554
        45.8004         42.8004
 -11459130.92546  -8910222.57847  20812073.974    20812074.5484   20812079.4474
        49.5004         46.8004
 16  6 11  0 59 30.0000000  0  8G19G17G 2G22G23G 9G 3G 6
  -8757607.69544  -6803038.69646  23329819.323    23329818.3164   23329821.0594
        41.6004         39.3004
    173954.42443    167501.28246  24077869.199    24077869.9694   24077872.8764
        39.4004         36.9004
   -399272.19642   -289782.01645  24053071.501    24053072.9264   24053074.9214
        37.3004         35.3004
   -407687.67243    -36640.26446  24058285.867    24058285.3804   24058285.8824
        38.3004         36.0004
 -20909157.24847 -15742534.49247  20689307.433    20689307.1434   20689307.6194
        49.6004         46.8004
 -20589387.52047 -16026486.62647  20363263.698    20363263.7284   20363268.6064
        50.3004         47.5004
 -11430835.00645  -8881139.08147  22100719.767    22100719.8984   22100725.1154
        45.6004         42.8004
 -11491104.87646  -8935137.32847  20805989.186    20805990.0124   20805995.2764
        49.5004         46.6004
 16  6 11  1  0  0.0000000  0  8G19G17G 2G22G23G 9G 3G 6
  -8678019.95544  -6741022.29246  23344963.748    23344962.6424   23344965.8754
        41.8004         39.2004
    269045.81743    241598.41846  24095964.275    24095964.2774   24095969.1274
        39.4004         37.1004
   -494810.86853   -364227.72556  24034893.790    24034892.8314   24034894.7334
        38.2004         36.2004
   -317434.93043     33686.54245  24075460.238    24075460.0794   24075459.4454
        38.2004         35.9004
 -20887158.41946 -15725392.54047  20693494.046    20693493.1934   20693493.9374
        49.5004         46.6004
 -20622237.26047 -16052083.80747  20357011.921    20357012.3654   20357017.5404
        50.3004         47.5004
 -11356131.84045  -8822928.84247  22114934.400    22114935.1544   22114940.7374
        45.6004         42.8004
 -11522536.02346  -8959629.12247  20800008.380    20800008.9324   20800014.0144
        49.5004         46.5004
 16  6 11  1  0 30.0000000  0  8G19G17G 2G22G23G 9G 3G 6
  -8598069.98244  -6678723.61446  23360176.919    23360176.6294   23360179.4014
        41.5004         38.8004
    364286.84743    315812.15746  24114088.459    24114088.3544   24114092.8574
        39.4004         37.1004
   -590171.58443   -438534.71946  24016746.618    24016746.0124   24016747.7114
        38.7004         36.6004
   -227072.09143    104099.14545  24092654.314    24092652.2034   24092657.0454
        38.0004         35.9004
 -20864735.87946 -15707920.43047  20697760.334    20697760.2144   20697760.7844
        49.5004         46.6004
 -20654609.46147 -16077308.88147  20350852.002    20350852.2254   20350857.2524
        50.5004         47.7004
 -11281201.57345  -8764541.64447  22129194.397    22129194.1844   22129198.9644
        45.6004         42.6004
 -11553422.85146  -8983696.77147  20794130.605    20794130.9724   20794136.3804
        49.5004         46.5004
 16  6 11  1  1  0.0000000  0  8G19G17G 2G22G23G 9G 3G 6
  -8517760.81844  -6616145.08746  23375459.250    23375458.5334   23375461.6964
        41.5004         38.8004
    459674.64043    390140.26546  24132240.755    24132239.8424   24132244.0544
        39.4004         36.9004
   -685351.89143   -512701.15546  23998634.619    23998633.7594   23998634.3084
        38.9004         36.7004
   -136599.73643    174597.07445  24109870.588    24109870.8754   24109873.9634
        37.8004         35.7004
 -20841890.55146 -15690118.87547  20702108.031    20702107.5494   20702107.8324
        49.5004         46.6004
 -20686503.92147 -16102161.68847  20344783.331    20344783.2684   20344787.9764
        50.5004         47.7004
 -11206044.95445  -8705978.07047  22143495.655    22143495.2674   22143501.1374
        45.5004         42.6004
 -11583763.91746  -9007339.15447  20788356.681    20788357.3454   20788362.6064
        49.5004         46.6004
 16  6 11  1  1 30.0000000  0  8G19G17G 2G22G23G 9G 3G 6
  -8437095.35744  -6553288.90246  23390809.499    23390808.7584   23390810.8254
        41.3004         38.6004
    555205.75043    464580.03246  24150418.310    24150418.4164   24150423.3204
        39.2004         36.7004
   -780350.11943   -586725.69446  23980557.383    23980556.1844   23980558.1284
        39.4004         37.1004
    -46018.58843    245179.77545  24127108.553    24127106.6104   24127110.9914
        38.0004         35.9004
 -20818623.41246 -15671988.63147  20706535.196    20706535.1584   20706535.5984
        49.3004         46.6004
 -20717920.50347 -16126642.12247  20338804.733    20338804.7724   20338809.4984
        50.5004         47.7004
 -11130662.69745  -8647238.66547  22157840.125    22157840.9294   22157845.8404
        45.5004         42.6004
 -11613557.73847  -9030555.11347  20782687.297    20782687.7254   20782693.4504
        49.6004         46.8004
 16  6 11  1  2  0.0000000  0  8G19G17G 2G22G23G 9G 3G 6
  -8356076.86044  -6490157.63646  23406227.105    23406226.9974   23406228.9434
        41.5004         39.2004
    650877.52943    539129.41846  24168625.095    24168624.9124   24168629.3054
        38.7004         36.4004
   -875163.68243   -660606.34146  23962514.219    23962513.9514   23962514.0374
        39.6004         37.1004
     44670.56143    315846.66845  24144361.472    24144364.2414   24144368.6094
        37.8004         35.9004
 -20794936.11346 -15653530.99147  20711042.693    20711042.2744   20711043.4684
        49.3004         46.5004
 -20748859.03647 -16150750.05347  20332917.301    20332917.1974   20332922.0984
        50.5004         47.7004
 -11055055.50945  -8588323.99047  22172227.255    22172228.1214   22172233.7414
        45.5004         42.6004
 -11642802.90347  -9053343.54947  20777122.049    20777122.3974   20777127.8644
        49.6004         46.6004
 16  6 11  1  2 30.0000000  0  8G19G17G 2G22G23G 9G 3G 6
  -8274708.25344  -6426753.52846  23421711.015    23421709.7254   23421713.4424
        41.5004         39.0004
    746686.64343    613785.82646  24186857.786    24186858.1204   24186861.0064
        38.7004         36.4004
   -969790.00643   -734341.09646  23944507.421    23944506.2774   23944507.4834
        39.6004         37.3004
    135467.14943    386597.25645  24161644.696    24161641.6664   24161646.5754
        37.6004         35.3004
 -20770829.48546 -15634746.59947  20715629.569    20715629.5844   20715630.5574
        49.3004         46.5004
 -20779319.39347 -16174485.37647  20327121.277    20327120.8984   20327125.6414
        50.5004         47.7004
 -10979224.11345  -8529234.61947  22186658.819    22186659.0154   22186663.3784
        45.5004         42.5004
 -11671497.91746  -9075703.29747  20771661.319    20771661.8914   20771667.8024
        49.5004         46.8004
 16  6 11  1  3  0.0000000  0  8G19G17G 2G22G23G 9G 3G 6
  -8192992.79144  -6363079.17046  23437260.919    23437259.8474   23437262.7434
        41.5004         38.8004
    842629.94743    688546.82846  24205113.128    24205114.0504   24205118.6344
        38.7004         36.4004
  -1064227.13443   -807928.43346  23926535.989    23926534.9854   23926537.8294
        39.7004         37.4004
    226370.36542    457430.88045  24178944.511    24178942.0964   24178944.0854
        37.3004         35.2004
 -20746304.45046 -15615636.17747  20720297.387    20720296.5794   20720297.7104
        49.3004         46.3004
 -20809301.42847 -16197847.98047  20321415.459    20321415.5774   20321420.0374
        50.5004         47.7004
 -10903169.23245  -8469971.09347  22201131.355    22201132.1134   22201136.4854
        45.3004         42.5004
 -11699641.43647  -9097633.30747  20766306.186    20766306.8284   20766312.3184
        49.6004         46.8004
 16  6 11  1  3 30.0000000  0  8G19G17G 2G22G23G 9G 3G 6
  -8110933.12944  -6299136.62446  23452877.360    23452876.1404   23452878.2174
        41.5004         39.0004
    938704.45343    763410.05446  24223396.797    24223396.1754   24223400.6134
        38.7004         36.2004
  -1158472.68943   -881366.47446  23908601.855    23908600.5734   23908603.5854
        39.9004         37.6004
    317379.83442    528347.33145  24196257.147    24196257.9284   24196261.2534
        37.0004         34.6004
 -20721362.32946 -15596200.75747  20725043.467    20725043.0404   20725043.8444
        49.1004         46.3004
 -20838805.02747 -16220837.78047  20315800.701    20315801.0354   20315805.8144
        50.5004         47.7004
 -10826891.59745  -8410533.99547  22215646.813    22215647.1234   22215652.0234
        45.3004         42.3004
 -11727232.05647  -9119132.48547  20761056.079    20761056.2484   20761061.7744
        49.6004         46.6004
 16  6 11  1  4  0.0000000  0  8G19G17G 2G22G23G 9G 3G 6
  -8028532.60444  -6234928.44746  23468557.196    23468556.2764   23468558.4114
        41.3004         38.6004
   1034907.08943    838373.08346  24241703.770    24241703.9444   24241707.8434
        38.7004         36.4004
  -1252524.42843   -954653.51046  23890704.898    23890703.7234   23890705.4354
        40.3004         37.9004
    408494.75042    599345.96145  24213598.745    24213597.7744   24213603.2124
        36.6004         34.5004
 -20696004.15746 -15576441.13947  20729868.545    20729868.2794   20729869.2014
        49.1004         46.3004
 -20867830.11647 -16243454.72347  20310277.894    20310277.7744   20310282.3504
        50.5004         47.7004
 -10750391.93145  -8350923.87947  22230203.066    22230203.8164   22230209.4344
        45.3004         42.5004
 -11754268.38946  -9140199.74547  20755910.115    20755911.2064   20755916.7364
        49.5004         46.6004
 16  6 11  1  4 30.0000000  0  8G19G17G 2G22G23G 9G 3G 6
  -7945794.23444  -6170456.97446  23484302.033    23484301.4724   23484302.7364
        41.3004         38.8004
   1131234.57643    913433.44246  24260034.374    24260034.2434   24260038.9134
        38.7004         36.6004
  -1346380.09743  -1027787.74046  23872843.634    23872842.5694   23872845.9254
        40.3004         37.8004
    499714.25142    670426.06445  24230960.323    24230959.9904   24230958.1964
        36.3004         34.5004
 -20670231.27846 -15556358.37447  20734773.307    20734773.0944   20734773.7754
        49.1004         46.3004
 -20896376.62347 -16265698.74347  20304845.745    20304845.5224   20304850.2774
        50.5004         47.7004
 -10673670.94245  -8291141.32447  22244803.828    22244803.3594   22244808.5944
        45.3004         42.3004
 -11780749.09646  -9160834.05247  20750871.451    20750871.8454   20750877.4734
        49.5004         46.6004
 16  6 11  1  5  0.0000000  0  8G19G17G 2G22G23G 9G 3G 6
  -7862721.06844  -6105724.65246  23500109.993    23500109.7104   23500111.8564
        41.3004         38.8004
   1227684.23943    988588.98346  24278386.998    24278387.1964   24278392.3954
        38.5004         36.2004
  -1440037.24343  -1100767.33846  23855022.839    23855021.1744   23855022.9824
        40.4004         37.9004
    591037.67542    741587.20245  24248335.290    24248333.6414   24248336.6824
        36.3004         34.5004
 -20644044.72146 -15535953.26347  20739756.084    20739755.9864   20739756.5214
        48.9004         46.1004
 -20924444.44147 -16287569.75747  20299504.516    20299504.8444   20299509.1334
        50.5004         47.7004
 -10596729.35745  -8231186.85446  22259444.968    22259445.2564   22259450.0184
        45.1004         41.9004
 -11806672.81946  -9181034.35547  20745938.656    20745939.2104   20745944.4584
        49.5004         46.6004
 16  6 11  1  5 30.0000000  0  8G19G17G 2G22G23G 9G 3G 6
  -7779316.30544  -6040733.94546  23515980.922    23515979.7544   23515982.8024
        40.8004         37.9004
   1324252.78443   1063837.13545  24296762.790    24296764.9564   24296769.0914
        38.2004         35.9004
  -1533493.70043  -1173590.53546  23837237.787    23837237.1594   23837238.3864
        40.3004         37.8004
    682464.51742    812828.90245  24265738.046    24265734.0764   24265734.4174
        36.4004         34.6004
 -20617445.58646 -15515226.66147  20744818.328    20744817.9354   20744818.8444
        49.1004         46.5004
 -20952033.51047 -16309067.71447  20294254.326    20294254.2974   20294259.0674
        50.5004         47.7004
 -10519567.90445  -8171061.06647  22274127.287    22274128.6174   22274133.8004
        44.9004         42.1004
 -11832038.26046  -9200799.63247  20741111.741    20741112.2164   20741117.4534
        49.5004         46.6004
 16  6 11  1  6  0.0000000  0  9G19G17G 2G22G23G 9G 3G 7G 6
  -7695583.10544  -5975487.32146  23531915.119    23531914.6644   23531916.9854
        40.6004         38.3004
   1420937.09943   1139175.51846  24315164.653    24315162.9364   24315166.5054
        38.2004         36.0004
  -1626747.32043  -1246255.64146  23819491.393    23819490.5024   23819493.6944
        40.1004         37.6004
    773993.93342    884150.53645  24283155.052    24283149.3974   24283153.4344
        36.6004         34.6004
 -20590435.18046 -15494179.58547  20749958.338    20749958.0234   20749958.6094
        49.3004         46.5004
 -20979143.83247 -16330192.62247  20289095.285    20289095.3714   20289100.2304
        50.5004         47.7004
 -10442187.32645  -8110764.52946  22288852.466    22288852.6294   22288858.0134
        44.8004         41.9004
   -269398.78752   -190107.57055  24220798.563    24220797.7194   24220802.2994
        36.4004         35.5004
 -11856844.11946  -9220128.86347  20736391.371    20736391.9834   20736397.3714
        49.5004         46.8004
 16  6 11  1  6 30.0000000  0  9G19G17G 2G22G23G 9G 3G 7G 6
  -7611524.20044  -5909986.90246  23547911.718    23547910.8644   23547913.0564
        40.9004         38.6004
   1517734.25643   1214601.82545  24333581.226    24333581.9914   24333586.8194
        38.0004         35.9004
  -1719795.80443  -1318760.93346  23801784.920    23801784.1344   23801787.1744
        40.1004         37.6004
    865625.37442    955551.66445  24300583.159    24300587.4264   24300587.3314
        36.3004         34.3004
 -20563014.50646 -15472812.81847  20755175.973    20755175.7314   20755176.5344
        49.1004         46.3004
 -21005775.35847 -16350944.44747  20284027.988    20284027.5624   20284032.5354
        50.5004         47.8004
 -10364588.33445  -8050297.80646  22303618.940    22303620.0234   22303624.6374
        44.8004         41.9004
   -376533.57342   -273589.16045  24200414.652    24200411.8364   24200414.9834
        37.5004         35.7004
 -11881089.09147  -9239021.04547  20731777.839    20731778.0704   20731783.5234
        49.6004         46.6004
 16  6 11  1  7  0.0000000  0  9G19G17G 2G22G23G 9G 3G 7G 6
  -7527143.01644  -5844235.33846  23563968.655    23563967.9364   23563970.3274
        40.8004         38.1004
   1614641.13943   1290113.64845  24352023.351    24352023.5264   24352027.5054
        38.0004         35.7004
  -1812636.62743  -1391104.41146  23784117.170    23784117.5014   23784119.5804
        40.3004         37.9004
    957358.09142   1027031.73545  24318045.785    24318044.4214   24318046.4954
        36.8004         34.8004
 -20535184.72346 -15451127.26447  20760471.749    20760471.4934   20760472.1004
        49.1004         46.5004
 -21031928.04847 -16371323.15947  20279050.847    20279051.0964   20279055.2474
        50.5004         47.7004
 -10286771.61945  -7989661.43946  22318427.447    22318427.9344   22318433.0484
        44.8004         41.9004
   -483610.89653   -357025.95655  24180035.223    24180035.7104   24180038.7854
        38.0004         35.9004
 -11904771.92446  -9257475.19547  20727271.158    20727271.5724   20727276.7424
        49.5004         46.6004
 16  6 11  1  7 30.0000000  0  9G19G17G 2G22G23G 9G 3G 7G 6
  -7442442.77243  -5778235.17246  23580085.913    23580085.5374   23580087.1434
        40.3004         37.6004
   1711654.60543   1365708.51645  24370483.614    24370485.1154   24370488.6754
        38.0004         35.9004
  -1905267.50043  -1463284.28046  23766491.584    23766490.5074   23766493.2444
        40.4004         37.9004
   1049191.46542   1098590.14745  24335525.071    24335519.1114   24335522.7574
        37.0004         35.0004
 -20506947.06846 -15429123.88847  20765845.107    20765845.0484   20765845.6094
        49.3004         46.5004
 -21057601.92947 -16391328.76447  20274165.380    20274165.3074   20274169.9204
        50.7004         47.8004
 -10208737.97145  -7928856.00947  22333276.634    22333276.9684   22333283.6344
        44.8004         42.1004
   -590628.23243   -440416.02045  24159671.921    24159670.9374   24159674.1444
        38.0004         35.9004
 -11927891.36646  -9275490.33747  20722871.269    20722871.8994   20722877.0414
        49.5004         46.6004
 16  6 11  1  8  0.0000000  0  9G19G17G 2G22G23G 9G 3G 7G 6
  -7357426.44543  -5711988.71846  23596263.526    23596263.4684   23596265.0924
        40.1004         37.6004
   1808771.96943   1441384.35145  24388966.378    24388965.2714   24388968.8934
        37.8004         35.9004
  -1997686.24543  -1535298.86146  23748904.908    23748903.6964   23748905.6404
        40.3004         37.6004
   1141124.60942   1170226.34845  24353014.340    24353013.7264   24353015.6884
        37.0004         35.2004
 -20478302.93546 -15406803.78947  20771295.851    20771295.8094   20771296.7044
        49.3004         46.5004
 -21082797.00147 -16410961.27547  20269370.567    20269370.6324   20269375.4614
        50.7004         47.8004
 -10130488.07245  -7867882.08347  22348167.006    22348167.6054   22348173.5624
        44.8004         42.1004
   -697582.93543   -523757.27746  24139318.738    24139317.5724   24139321.3164
        38.3004         36.0004
 -11950446.18846  -9293065.52047  20718580.029    20718580.1814   20718584.8574
        49.5004         46.6004
 16  6 11  1  8 30.0000000  0  9G19G17G 2G22G23G 9G 3G 7G 6
  -7272097.09343  -5645498.34746  23612502.322    23612501.1684   23612503.7044
        40.3004         37.9004
   1905989.47442   1517138.21845  24407465.343    24407466.3304   24407468.9864
        37.5004         35.3004
  -2089890.49943  -1607146.31446  23731358.991    23731358.2824   23731359.3154
        39.7004         37.1004
   1233157.04142   1241939.95445  24370526.376    24370524.2974   24370529.9264
        37.1004         35.2004
 -20449253.50346 -15384167.85647  20776824.257    20776824.0494   20776824.3924
        49.3004         46.5004
 -21107513.28147 -16430220.70147  20264667.112    20264667.3514   20264672.2914
        50.7004         47.8004
 -10052022.70045  -7806740.25847  22363098.187    22363099.2204   22363105.1244
        44.9004         42.1004
   -804472.47243   -607047.74146  24118978.503    24118976.8164   24118981.0414
        38.5004         36.2004
 -11972435.20046  -9310199.80947  20714395.646    20714396.0394   20714400.6044
        49.5004         46.6004
 16  6 11  1  9  0.0000000  0  9G19G17G 2G22G23G 9G 3G 7G 6
  -7186457.93243  -5578766.53746  23628798.088    23628796.7984   23628800.8184
        40.4004         37.9004
   2003304.42542   1592968.02245  24425983.045    24425983.4384   24425987.3134
        37.0004         34.8004
  -2181877.85043  -1678824.71546  23713853.895    23713853.0434   23713854.7174
        39.6004         37.3004
   1325288.06742   1313730.35445  24388058.060    24388058.1674   24388062.1604
        37.1004         35.0004
 -20419799.72246 -15361216.85147  20782429.444    20782428.7294   20782429.1324
        49.3004         46.5004
 -21131750.82047 -16449107.07747  20260055.040    20260055.0034   20260059.9484
        50.7004         47.8004
  -9973342.54745  -7745431.06747  22378071.009    22378071.4954   22378077.4194
        44.9004         42.3004
   -911294.23943   -690285.39646  24098649.902    24098649.5924   24098652.9034
        38.5004         36.4004
 -11993857.17346  -9326892.24347  20710319.028    20710319.2224   20710324.2314
        49.5004         46.6004
 16  6 11  1  9 30.0000000  0  9G19G17G 2G22G23G 9G 3G 7G 6
  -7100512.03344  -5511795.73046  23645153.501    23645153.5594   23645155.5504
        40.6004         38.3004
   2100713.74042   1668871.32445  24444520.488    24444521.5324   24444524.9924
        37.0004         35.0004
  -2273646.01843  -1750332.33646  23696391.276    23696391.0644   23696391.9764
        39.7004         37.4004
   1417517.11842   1385597.12845  24405613.198    24405609.9864   24405612.8314
        37.1004         35.2004
 -20389942.89446 -15337951.78547  20788110.929    20788110.4204   20788110.5264
        49.1004         46.3004
 -21155509.65247 -16467620.44347  20255533.910    20255534.0124   20255538.8394
        50.7004         47.8004
  -9894448.35445  -7683955.10047  22393085.056    22393084.7724   22393089.9254
        45.1004         42.1004
  -1018045.35143   -773467.98546  24078335.906    24078335.0694   24078340.2634
        38.9004         36.6004
 -12014710.97846  -9343141.95347  20706350.391    20706351.2284   20706356.0044
        49.5004         46.6004
 16  6 11  1 10  0.0000000  0  9G19G17G 2G22G23G 9G 3G 7G 6
  -7014262.29644  -5444588.18146  23661565.852    23661565.0534   23661567.6424
        40.6004         37.9004
   2198214.55942   1744845.89645  24463071.177    24463071.7284   24463077.6804
        36.4004         34.5004
  -2365192.86643  -1821667.51246  23678970.960    23678970.0354   23678971.6434
        40.3004         37.9004
   1509843.32442   1457539.59745  24423181.727    24423181.0354   24423179.9104
        37.1004         35.3004
 -20359684.26546 -15314373.62947  20793868.557    20793868.4364   20793868.5164
        49.1004         46.1004
 -21178789.87547 -16485760.86647  20251103.872    20251104.0724   20251108.7334
        50.7004         47.8004
  -9815340.87645  -7622312.93346  22408137.779    22408137.9424   22408144.0244
        44.8004         41.9004
  -1124723.40043   -856593.65746  24058036.982    24058035.0774   24058040.5914
        39.0004         36.7004
 -12034995.42747  -9358948.00947  20702490.783    20702491.0654   20702496.1004
        49.6004         46.8004
 16  6 11  1 10 30.0000000  0  9G19G17G 2G22G23G 9G 3G 7G 6
  -6927712.19744  -5377146.55946  23678036.583    23678035.9274   23678038.8634
        40.8004         38.3004
   2295803.58942   1820889.24745  24481642.862    24481643.3974   24481646.4484
        36.1004         34.3004
  -2456515.93343  -1892828.30046  23661592.130    23661591.3694   23661593.5204
        40.4004         37.8004
   1602266.19042   1529557.43545  24440766.502    24440766.7854   24440767.5164
        37.5004         35.3004
 -20329025.08446 -15290483.35047  20799702.904    20799702.3954   20799702.8494
        48.9004         46.3004
 -21201591.54047 -16503528.38647  20246764.928    20246765.0804   20246769.7814
        50.7004         47.8004
  -9736020.82545  -7560505.12246  22423232.059    22423232.8454   22423237.7014
        44.8004         41.9004
  -1231325.64043   -939660.25146  24037748.536    24037749.0614   24037753.7804
        38.9004         36.6004
 -12054709.37947  -9374309.52747  20698739.521    20698739.8654   20698744.5654
        49.6004         46.8004
 16  6 11  1 11  0.0000000  0  9G19G17G 2G22G23G 9G 3G 7G 6
  -6840864.80444  -5309473.27046  23694561.983    23694562.1864   23694565.0834
        40.9004         38.6004
   2393478.04542   1896999.15745  24500230.739    24500231.1944   24500235.6634
        36.1004         34.3004
  -2547612.83743  -1963812.85846  23644257.349    23644256.1554   23644257.7274
        40.4004         38.1004
   1694784.71242   1601649.80345  24458371.082    24458371.1134   24458372.8154
        37.1004         35.2004
 -20297966.35146 -15266281.73647  20805612.571    20805612.6294   20805613.1434
        48.9004         46.1004
 -21223914.74847 -16520923.07947  20242517.048    20242516.9024   20242521.8304
        50.7004         47.8004
  -9656488.94045  -7498532.22847  22438366.300    22438366.9244   22438372.3704
        44.8004         42.1004
  -1337849.72543  -1022665.95546  24017478.157    24017478.1504   24017482.3094
        39.0004         36.7004
 -12073851.77347  -9389225.66547  20695096.283    20695096.6494   20695102.0984
        49.6004         46.8004
 16  6 11  1 11 30.0000000  0  9G19G17G 2G22G23G 9G 3G 7G 6
  -6753723.23444  -5241570.77346  23711145.020    23711144.2794   23711146.8204
        40.9004         38.5004
   2491235.04542   1973173.40445  24518832.283    24518832.7904   24518836.5584
        36.3004         34.3004
  -2638481.23344  -2034619.37146  23626966.044    23626965.3434   23626966.9434
        40.6004         38.3004
   1787398.28442   1673816.21245  24475996.609    24475994.7324   24475997.2414
        37.0004         35.2004
 -20266509.58446 -15241769.95947  20811599.303    20811598.7734   20811599.4104
        48.9004         46.1004
 -21245759.58647 -16537945.01448  20238359.803    20238359.7524   20238364.9284
        50.7004         48.0004
  -9576745.91045  -7436394.82646  22453541.847    22453541.3374   22453547.6064
        44.8004         41.9004
  -1444293.27143  -1105608.88846  23997222.470    23997222.5894   23997226.3804
        38.9004         36.6004
 -12092421.47247  -9403695.54447  20691561.984    20691562.5244   20691568.7144
        49.6004         46.6004
 16  6 11  1 12  0.0000000  0  9G19G17G 2G22G23G 9G 3G 7G 6
  -6666290.88444  -5173441.72246  23727783.816    23727783.1584   23727785.3324
        41.1004         38.6004
   2589071.04242   2049409.21845  24537451.728    24537450.6214   24537455.5704
        36.3004         34.5004
  -2729118.81544  -2105246.03246  23609718.152    23609716.8234   23609718.0354
        40.6004         37.9004
   1880106.18942   1746056.13345  24493638.309    24493637.4734   24493637.2874
        37.0004         34.8004
 -20234656.03546 -15216949.00547  20817661.065    20817660.3854   20817660.7104
        49.1004         46.1004
 -21267126.20047 -16554594.30948  20234294.007    20234294.0674   20234298.9254
        50.7004         48.0004
  -9496792.55945  -7374093.53846  22468755.275    22468755.7954   22468761.8964
        44.8004         41.9004
  -1550653.00643  -1188486.52346  23976982.265    23976982.8344   23976986.0364
        38.9004         36.6004
 -12110417.41046  -9417718.35147  20688138.018    20688138.4454   20688143.8824
        49.5004         46.6004
 16  6 11  1 12 30.0000000  0  9G19G17G 2G22G23G 9G 3G 7G 6
  -6578570.93044  -5105088.53046  23744473.877    23744473.8764   23744477.3484
        40.8004         38.1004
   2686983.14642   2125704.32245  24556084.792    24556085.1184   24556085.2414
        36.4004         34.6004
  -2819523.27943  -2175691.03646  23592513.866    23592513.1224   23592514.8304
        40.4004         37.9004
   1972907.82742   1818369.13145  24511295.797    24511296.8224   24511297.8194
        36.6004         34.8004
 -20202406.76746 -15191819.70247  20823797.083    20823796.8194   20823797.4644
        48.9004         46.1004
 -21288014.70747 -16570871.05047  20230319.222    20230318.7224   20230323.7204
        50.7004         47.8004
  -9416629.58245  -7311628.89646  22484009.377    22484010.1024   22484015.8974
        44.6004         41.8004
  -1656926.33443  -1271296.82746  23956757.814    23956759.9114   23956762.9594
        38.9004         36.6004
 -12127838.53146  -9431293.25547  20684822.997    20684823.4954   20684828.4934
        49.5004         46.6004
 16  6 11  1 13  0.0000000  0  9G19G17G 2G22G23G 9G 3G 7G 6
  -6490565.99444  -5036513.28646  23761222.734    23761222.0634   23761224.2644
        40.8004         38.3004
   2784968.19842   2202056.29145  24574728.639    24574729.5784   24574732.9884
        36.8004         35.0004
  -2909692.45643  -2245952.69946  23575355.383    23575354.6584   23575356.0024
        40.4004         38.1004
   2065802.67542   1890754.70445  24528976.023    24528973.7974   24528974.6914
        36.8004         34.8004
 -20169763.00846 -15166382.99947  20830009.062    20830009.0894   20830009.6684
        48.9004         46.1004
 -21308425.25147 -16586775.35547  20226434.320    20226434.9744   20226439.4564
        50.7004         47.8004
  -9336257.69545  -7249001.46746  22499304.466    22499304.5574   22499310.9784
        44.6004         41.9004
  -1763111.18943  -1354038.16946  23936554.749    23936553.5024   23936556.5624
        38.7004         36.4004
 -12144683.80746  -9444419.43947  20681617.081    20681617.4704   20681623.3914
        49.5004         46.6004
 16  6 11  1 13 30.0000000  0  9G19G17G 2G22G23G 9G 3G 7G 6
  -6402279.46644  -4967718.62746  23778024.245    23778022.6494   23778024.9834
        40.9004         38.6004
   2883023.18442   2278462.77045  24593387.654    24593388.2434   24593394.1704
        36.8004         34.8004
  -2999623.69844  -2316028.98846  23558242.727    23558241.4874   23558243.1184
        40.8004         38.5004
   2158789.92742   1963212.27245  24546669.808    24546669.1994   24546670.5714
        36.6004         34.6004
 -20136726.17146 -15140640.00547  20836296.168    20836295.8054   20836296.3144
        48.9004         46.1004
 -21328358.02147 -16602307.36647  20222641.639    20222641.6394   20222646.3824
        50.5004         47.7004
  -9255677.67945  -7186211.87246  22514638.452    22514638.7364   22514644.4234
        44.6004         41.8004
  -1869204.58543  -1436708.26846  23916365.153    23916363.5194   23916367.3364
        38.7004         36.4004
 -12160952.22446  -9457096.12047  20678521.736    20678521.9694   20678527.6894
        49.5004         46.8004
 16  6 11  1 14  0.0000000  0  9G19G17G 2G22G23G 9G 3G 7G 6
  -6313714.55644  -4898707.03546  23794877.322    23794875.6314   23794879.1544
        40.9004         38.5004
   2981145.39142   2354921.62645  24612058.975    24612062.9194   24612066.3304
        36.6004         34.6004
  -3089314.85844  -2385918.15146  23541174.487    23541174.4434   23541174.8854
        40.8004         38.3004
   2251868.66442   2035741.15045  24564386.006    24564382.4904   24564382.2794
        36.6004         34.8004
 -20103297.43546 -15114591.63647  20842657.316    20842656.9604   20842657.8604
        48.9004         46.1004
 -21347813.13947 -16617467.18747  20218939.177    20218939.5674   20218944.3884
        50.7004         47.8004
  -9174890.25745  -7123260.65746  22530010.991    22530011.9244   22530017.9854
        44.4004         41.8004
  -1975204.00043  -1519305.12546  23896194.121    23896192.8124   23896196.4424
        38.7004         36.6004
 -12176642.75546  -9469322.50047  20675535.693    20675536.3174   20675541.7074
        49.5004         46.8004
 16  6 11  1 14 30.0000000  0  9G19G17G 2G22G23G 9G 3G 7G 6
  -6224874.71044  -4829481.20046  23811783.659    23811782.4424   23811783.9894
        41.1004         38.6004
   3079331.45842   2431430.19945  24630746.354    24630745.4854   24630750.6134
        36.4004         34.5004
  -3178763.32444  -2455618.20146  23524153.014    23524153.3144   23524153.9004
        41.3004         38.8004
   2345038.20242   2108340.76245  24582110.065    24582111.5424   24582110.3824
        36.6004         34.8004
 -20069478.13146 -15088238.93147  20849092.660    20849092.5684   20849093.2134
        48.9004         45.9004
 -21366790.82147 -16632254.98247  20215328.034    20215328.2794   20215333.0904
        50.7004         47.8004
  -9093896.13545  -7060148.37446  22545425.022    22545425.7124   22545430.1534
        44.6004         41.9004
  -2081106.69343  -1601826.61746  23876041.184    23876039.1414   23876043.2304
        38.5004         36.4004
 -12191754.48546  -9481097.87347  20672659.864    20672660.2334   20672666.3594
        49.5004         46.6004
 16  6 11  1 15  0.0000000  0  9G19G17G 2G22G23G 9G 3G 7G 6
  -6135762.60444  -4760043.23746  23828740.045    23828738.7484   23828741.6824
        41.1004         38.5004
   3177578.78042   2507986.49445  24649439.377    24649440.2434   24649443.8434
        36.3004         34.3004
  -3267967.08644  -2525127.58246  23507179.153    23507177.8414   23507178.5854
        41.3004         38.6004
   2438298.14342   2181010.86745  24599857.771    24599856.5664   24599860.3084
        36.8004         35.2004
 -20035269.56246 -15061582.89747  20855602.446    20855602.3424   20855602.9374
        48.8004         45.9004
 -21385291.26447 -16646670.89547  20211807.929    20211807.7214   20211812.6284
        50.7004         47.8004
  -9012696.10945  -6996875.65646  22560877.390    22560877.3384   22560882.4914
        44.6004         41.8004
  -2186910.02443  -1684270.68746  23855905.329    23855906.0654   23855911.0524
        38.7004         36.6004
 -12206286.40846  -9492421.44747  20669894.464    20669894.8104   20669901.0824
        49.5004         46.6004
 16  6 11  1 15 30.0000000  0  9G19G17G 2G22G23G 9G 3G 7G 6
  -6046381.29344  -4690395.48046  23845748.472    23845747.6544   23845750.3434
        40.9004         38.5004
   3275884.29642   2584588.12645  24668146.064    24668147.7474   24668150.7174
        35.7004         34.0004
  -3356923.75744  -2594444.43746  23490250.690    23490249.6724   23490251.1334
        41.1004         38.5004
   2531647.61542   2253750.69545  24617624.600    24617622.7784   24617624.2454
        37.0004         35.0004
 -20000673.12046 -15034624.62747  20862185.710    20862185.7994   20862186.5294
        48.8004         45.9004
 -21403314.66147 -16660715.08947  20208377.992    20208377.9904   20208382.6984
        50.7004         47.8004
  -8931290.88145  -6933443.02546  22576367.355    22576368.0444   22576373.5894
        44.6004         41.8004
  -2292611.38443  -1766635.30346  23835791.903    23835792.1904   23835796.1424
        39.0004         36.7004
 -12220237.62546  -9503292.52247  20667239.101    20667239.7654   20667246.4544
        49.5004         46.6004
 16  6 11  1 16  0.0000000  0  9G19G17G 2G22G23G 9G 3G 7G 6
  -5956733.99944  -4620540.47646  23862807.437    23862806.1684   23862809.3264
        40.8004         38.1004
   3374244.72342   2661232.59745  24686863.625    24686864.8724   24686867.4014
        35.6004         34.0004
  -3445630.95544  -2663566.87746  23473370.420    23473368.8074   23473370.3224
        40.9004         38.5004
   2625085.83742   2326559.68545  24635400.108    24635402.2854   24635404.1964
        37.0004         35.0004
 -19965689.86546 -15007364.94347  20868843.188    20868842.6944   20868843.2624
        48.8004         45.9004
 -21420861.24447 -16674387.74247  20205039.007    20205039.1184   20205043.7054
        50.7004         47.8004
  -8849681.21245  -6869851.09146  22591897.117    22591897.6074   22591903.0494
        44.4004         41.6004
  -2398208.06943  -1848918.35246  23815700.475    23815698.1594   23815700.9584
        39.2004         37.1004
 -12233607.20347  -9513710.38247  20664695.403    20664696.1734   20664701.9464
        49.6004         47.0004
 16  6 11  1 16 30.0000000  0  9G19G17G 2G22G23G 9G 3G 7G 6
  -5866824.73444  -4550481.34846  23879917.346    23879916.3984   23879918.5934
        40.9004         38.5004
   3472656.78042   2737917.33345  24705593.582    24705592.3534   24705596.3014
        36.1004         34.5004
  -3534086.41344  -2732493.16146  23456536.738    23456536.3054   23456537.6414
        40.9004         38.3004
   2718612.23742   2399437.42145  24653199.501    24653197.6734   24653201.8664
        36.8004         35.0004
 -19930321.20246 -14979804.94347  20875573.616    20875572.7564   20875573.8584
        48.8004         45.9004
 -21437931.23147 -16687689.02247  20201790.797    20201790.9494   20201795.0684
        50.7004         47.7004
  -8767867.86645  -6806100.44246  22607465.431    22607465.4784   22607471.9484
        44.1004         41.2004
  -2503697.53443  -1931117.84346  23795623.635    23795622.8664   23795626.7444
        39.4004         37.1004
 -12246394.22947  -9523674.29947  20662262.773    20662262.9044   20662268.5984
        49.6004         46.8004
 16  6 11  1 17  0.0000000  0  9G19G17G 2G22G23G 9G 3G 7G 6
  -5776656.30344  -4480220.25146  23897075.937    23897074.9554   23897078.6224
        41.1004         38.6004
   3571118.11742   2814640.42645  24724330.158    24724330.2544   24724332.1884
        36.4004         34.6004
  -3622287.34044  -2801221.13046  23439753.057    23439752.7904   23439753.8704
        40.9004         38.3004
   2812226.19242   2472383.31845  24671017.433    24671012.9274   24671016.0794
        36.8004         35.0004
 -19894568.38246 -14951945.59447  20882375.866    20882375.8854   20882377.0104
        48.8004         45.8004
 -21454524.90347 -16700619.14247  20198633.520    20198633.1644   20198637.5034
        50.7004         47.8004
  -8685851.57745  -6742191.67246  22623071.774    22623072.3924   22623079.0774
        43.9004         41.2004
  -2609077.21343  -2013231.82246  23775570.614    23775571.1394   23775573.6884
        39.4004         37.1004
 -12258597.87347  -9533183.62747  20659939.953    20659940.3934   20659946.1524
        49.6004         46.6004
 16  6 11  1 17 30.0000000  0  9G19G17G 2G22G23G 9G 3G 7G 6
  -5686231.57944  -4409759.45446  23914284.589    23914282.8644   23914284.8614
        41.3004         38.6004
   3669625.31742   2891399.27145  24743073.649    24743074.0094   24743077.6514
        36.3004         34.1004
  -3710231.79344  -2869749.24746  23423018.520    23423017.8984   23423019.0754
        40.8004         38.3004
   2905927.05142   2545396.93345  24688847.964    24688844.8184   24688846.2264
        37.0004         35.0004
 -19858432.40046 -14923787.68247  20889252.898    20889252.7784   20889253.7404
        48.6004         45.9004
 -21470642.50847 -16713178.30447  20195565.943    20195565.9304   20195570.3494
        50.7004         47.8004
  -8603633.09245  -6678125.34046  22638719.112    22638719.1034   22638724.3504
        43.9004         41.2004
  -2714344.84743  -2095258.49146  23755541.400    23755540.0014   23755542.0164
        39.6004         37.1004
 -12270217.27046  -9542237.70247  20657729.110    20657729.4894   20657734.8544
        49.5004         46.6004
 16  6 11  1 18  0.0000000  0  9G19G17G 2G22G23G 9G 3G 7G 6
  -5595553.86444  -4339101.53146  23931536.888    23931536.6424   23931540.4704
        40.8004         37.9004
   3768175.36142   2968191.50245  24761827.885    24761827.2844   24761830.8464
        35.6004         33.8004
  -3797917.25944  -2938075.57646  23406331.327    23406330.6204   23406332.5644
        40.6004         38.3004
   2999713.75942   2618477.50145  24706691.111    24706691.6294   24706694.3314
        37.1004         35.3004
 -19821914.86346 -14895332.45747  20896202.455    20896201.9084   20896202.7544
        48.8004         45.9004
 -21486284.31047 -16725366.71647  20192588.927    20192589.4174   20192594.0934
        50.7004         47.8004
  -8521213.13445  -6613902.02546  22654401.848    22654402.5654   22654408.8534
        43.9004         41.1004
  -2819497.06143  -2177195.20946  23735530.780    23735529.3104   23735532.4344
        39.6004         37.3004
 -12281251.59346  -9550835.87847  20655629.323    20655629.6084   20655634.9274
        49.5004         46.8004
 16  6 11  1 18 30.0000000  0  9G19G17G 2G22G23G 9G 3G 7G 6
  -5504626.44043  -4268249.02446  23948839.599    23948840.1434   23948842.8864
        40.4004         37.9004
   3866765.64642   3045015.11245  24780590.104    24780589.8034   24780593.7624
        35.9004         34.3004
  -3885341.37044  -3006198.26546  23389695.087    23389694.6114   23389695.5584
        40.6004         37.9004
   3093585.78442   2691624.54345  24724557.479    24724554.4284   24724558.2434
        37.0004         35.0004
 -19785017.17346 -14866581.00947  20903224.009    20903223.7274   20903224.0574
        48.8004         45.9004
 -21501450.60747 -16737184.60048  20189703.850    20189703.4734   20189708.2254
        50.7004         48.0004
  -8438592.47845  -6549522.31446  22670125.078    22670124.6654   22670131.4794
        43.7004         40.9004
  -2924531.44543  -2259040.10646  23715543.447    23715542.4774   23715545.5474
        39.6004         37.1004
 -12291700.02346  -9558977.51047  20653640.528    20653641.2724   20653646.7114
        49.5004         46.6004
 16  6 11  1 19  0.0000000  0  9G19G17G 2G22G23G 9G 3G 7G 6
  -5413452.30344  -4197204.27646  23966190.818    23966190.3044   23966193.4314
        40.6004         38.1004
   3965393.03942   3121867.63445  24799357.109    24799358.9254   24799363.0984
        36.3004         34.5004
  -3972501.77544  -3074115.43146  23373109.269    23373108.6024   23373110.0914
        40.8004         38.5004
   3187542.52142   2764837.56945  24742436.423    24742433.0654   24742436.4464
        36.4004         34.5004
 -19747740.42746 -14837534.19347  20910318.121    20910317.6804   20910317.7724
        48.8004         46.1004
 -21516141.69247 -16748632.18348  20186907.806    20186907.7664   20186912.5754
        50.8004         48.0004
  -8355771.87445  -6484986.78946  22685883.763    22685884.8374   22685891.7774
        43.7004         41.1004
  -3029445.58343  -2340791.31746  23695577.130    23695577.3464   23695579.8624
        39.4004         36.9004
 -12301561.77446  -9566661.98747  20651764.100    20651764.8784   20651770.0354
        49.5004         46.8004
 16  6 11  1 19 30.0000000  0  9G19G17G 2G22G23G 9G 3G 7G 6
  -5322034.60843  -4125969.75046  23983586.920    23983586.0314   23983588.5004
        40.3004         37.8004
   4064054.36842   3198746.56645  24818132.078    24818131.4504   24818136.3974
        36.3004         34.3004
  -4059396.26144  -3141825.36546  23356574.309    23356573.1734   23356575.2554
        41.3004         38.8004
   3281582.99442   2838115.86945  24760328.455    24760329.3904   24760332.0294
        36.8004         35.0004
 -19710086.04746 -14808193.11647  20917482.751    20917482.7844   20917483.3984
        48.8004         45.9004
 -21530357.86347 -16759709.71248  20184201.994    20184202.4644   20184207.5564
        50.8004         48.0004
  -8272752.04745  -6420296.03246  22701684.482    22701683.6414   22701689.6634
        43.9004         41.2004
  -3134236.35043  -2422446.41146  23675633.888    23675636.4944   23675639.3054
        39.6004         37.4004
 -12310836.07446  -9573888.71947  20649999.641    20649999.8644   20650005.3144
        49.5004         46.6004
 16  6 11  1 20  0.0000000  0  9G19G17G 2G22G23G 9G 3G 7G 6
  -5230376.80643  -4054548.10746  24001030.042    24001029.0484   24001030.8884
        40.3004         37.8004
   4162746.87542   3275649.77045  24836912.630    24836913.1994   24836915.4914
        35.6004         33.6004
  -4146022.17244  -3209326.04846  23340089.626    23340088.7564   23340090.8894
        41.8004         39.5004
   3375706.59942   2911458.91245  24778242.387    24778240.3834   24778242.2224
        36.4004         34.5004
 -19672055.44946 -14778558.88247  20924719.773    20924719.5214   20924720.0424
        48.6004         45.8004
 -21544099.47547 -16770417.44548  20181587.205    20181587.3994   20181592.4354
        50.8004         48.0004
  -8189533.79345  -6355450.65046  22717518.247    22717519.4794   22717525.5694
        43.9004         41.1004
  -3238901.53543  -2504003.62146  23655716.377    23655719.0024   23655722.2534
        39.7004         37.4004
 -12319522.18746  -9580657.11547  20648346.361    20648346.9294   20648352.1314
        49.5004         46.6004
 16  6 11  1 20 30.0000000  0  9G19G17G 2G22G23G 9G 3G 7G 6
  -5138481.95343  -3982941.74146  24018516.325    24018515.0424   24018517.7264
        40.1004         37.6004
   4261467.29642   3352574.76245  24855698.092    24855701.2814   24855702.5934
        35.2004         33.6004
  -4232377.42144  -3276615.82446  23323657.003    23323656.2994   23323657.6114
        42.3004         40.0004
   3469912.78942   2984866.30845  24796168.628    24796165.9324   24796169.8574
        36.3004         34.3004
 -19633649.70346 -14748632.32547  20932028.041    20932027.7204   20932028.0304
        48.6004         45.6004
 -21557366.85347 -16780755.64448  20179062.909    20179062.8534   20179067.6194
        50.8004         48.0004
  -8106117.83745  -6290451.22546  22733393.065    22733391.7634   22733398.4234
        43.6004         40.6004
  -3343438.52443  -2585460.94646  23635826.602    23635826.2574   23635829.8104
        39.9004         37.8004
 -12327619.41146  -9586966.64547  20646805.578    20646805.9874   20646811.6754
        49.5004         46.8004
 16  6 11  1 21  0.0000000  0  9G19G17G 2G22G23G 9G 3G 7G 6
  -5046353.27643  -3911153.20646  24036047.770    24036047.0354   24036049.4104
        39.9004         37.4004
   4360212.99242   3429519.43045  24874489.075    24874490.2924   24874494.3224
        35.4004         33.8004
  -4318459.71044  -3343692.91246  23307275.919    23307274.9524   23307276.7494
        43.0004         40.6004
   3564200.88242   3058337.54545  24814112.258    24814111.9224   24814111.1944
        36.3004         34.5004
 -19594870.46946 -14718414.73747  20939407.983    20939407.1494   20939407.8164
        48.6004         45.8004
 -21570160.33247 -16790724.57948  20176628.363    20176628.4494   20176633.0154
        50.8004         48.0004
  -8022504.96144  -6225298.33846  22749301.215    22749302.6224   22749309.3544
        43.4004         40.4004
  -3447844.84743  -2666816.45346  23615958.854    23615958.4244   23615962.2194
        40.3004         37.8004
 -12335127.01547  -9592816.72047  20645376.707    20645377.2464   20645383.1564
        49.6004         46.8004
 16  6 11  1 21 30.0000000  0  9G19G17G 2G22G23G 9G 3G 7G 6
  -4953993.91643  -3839184.89246  24053623.343    24053622.2634   24053624.8474
        39.7004         37.3004
   4458980.84442   3506481.37645  24893282.577    24893283.2564   24893288.2064
        35.2004         33.4004
  -4404266.24745  -3410555.09446  23290946.768    23290946.5514   23290948.0774
        43.6004         40.9004
   3658569.94942   3131871.88245  24832071.993    24832068.5704   24832070.3294
        36.4004         34.5004
 -19555719.02646 -14687907.11847  20946858.145    20946857.7244   20946858.0384
        48.6004         45.8004
 -21582480.29147 -16800324.53448  20174284.131    20174284.1454   20174288.8474
        50.8004         48.2004
  -7938695.89344  -6159992.59546  22765251.967    22765251.6194   22765258.3394
        43.2004         40.4004
  -3552117.61143  -2748067.91646  23596115.539    23596115.5104   23596120.6864
        40.4004         37.8004
 -12342044.31547  -9598206.81947  20644060.495    20644061.0244   20644066.5924
        49.6004         46.8004
 16  6 11  1 22  0.0000000  0  9G19G17G 2G22G23G 9G 3G 7G 6
  -4861407.13843  -3767039.36446  24071241.775    24071240.4624   24071243.5704
        39.9004         37.6004
   4557767.86042   3583458.23945  24912083.400    24912085.1444   24912087.4584
        34.7004         33.1004
  -4489795.05945  -3477200.90146  23274671.488    23274671.0954   23274672.5384
        43.9004         41.4004
   3753019.26842   3205468.75045  24850038.563    24850041.5954   24850042.4124
        35.7004         34.0004
 -19516196.50246 -14657110.35447  20954379.036    20954378.9324   20954378.7834
        48.6004         45.6004
 -21594327.09447 -16809555.79648  20172029.801    20172029.5874   20172034.3494
        50.8004         48.0004
  -7854691.42644  -6094534.58746  22781236.835    22781237.3994   22781243.7894
        43.4004         40.7004
  -3656253.93143  -2829213.04246  23576299.523    23576299.2804   23576303.8654
        40.4004         37.9004
 -12348370.63547  -9603136.42347  20642857.181    20642857.4064   20642862.5254
        49.6004         46.8004
 16  6 11  1 22 30.0000000  0  9G19G17G 2G22G23G 9G 3G 7G 6
  -4768595.97043  -3694719.02746  24088902.596    24088901.6534   24088903.3074
        39.6004         36.7004
   4656571.16441   3660447.71545  24930884.296    24930886.6854   24930888.2614
        34.3004         32.7004
  -4575043.57945  -3543628.28246  23258449.827    23258449.0254   23258449.4664
        44.2004         41.6004
   3847548.32342   3279127.75445  24868028.903    24868028.2434   24868031.6994
        35.4004         33.6004
 -19476304.25746 -14626025.49147  20961969.989    20961970.1544   20961969.9914
        48.6004         45.6004
 -21605701.13547 -16818418.67848  20169865.293    20169865.1434   20169869.7114
        50.8004         48.0004
  -7770492.28944  -6028924.87846  22797259.510    22797260.3664   22797267.2924
        43.4004         40.7004
  -3760251.29443  -2910249.89046  23556510.391    23556509.6534   23556513.0544
        40.4004         37.9004
 -12354105.41047  -9607605.08347  20641765.683    20641766.4884   20641771.6684
        49.6004         47.0004
 16  6 11  1 23  0.0000000  0  9G19G17G 2G22G23G 9G 3G 7G 6
  -4675563.71643  -3622226.40746  24106606.823    24106606.5614   24106608.0554
        39.4004         37.1004
   4755387.75341   3737447.61045  24949688.237    24949687.9614   24949692.7794
        34.3004         33.1004
  -4660009.44645  -3609835.41346  23242281.628    23242280.3454   23242281.8984
        44.2004         41.4004
   3942156.40042   3352848.26345  24886034.653    24886032.7684   24886031.0134
        35.2004         33.6004
 -19436043.79646 -14594653.70147  20969631.377    20969630.6294   20969631.8404
        48.4004         45.6004
 -21616602.81447 -16826913.48648  20167790.620    20167790.6514   20167795.4804
        50.8004         48.0004
  -7686099.24445  -5963164.09146  22813320.482    22813320.0414   22813325.8704
        43.6004         40.9004
  -3864107.11144  -2991176.44446  23536746.771    23536746.2704   23536750.5914
        40.6004         38.1004
 -12359247.98147  -9611612.27747  20640787.858    20640788.1034   20640792.9584
        49.8004         47.2004
 16  6 11  1 23 30.0000000  0  9G19G17G 2G22G23G 9G 3G 7G 6
  -4582313.56143  -3549563.98646  24124351.965    24124351.4364   24124353.2414
        39.9004         37.4004
   4854214.76641   3814455.66745  24968493.180    24968493.4634   24968499.3304
        34.2004         32.7004
  -4744690.43745  -3675820.57146  23226166.979    23226166.3654   23226167.5194
        44.1004         41.2004
   4036842.65442   3426629.76545  24904050.672    24904050.5494   24904052.1764
        35.2004         33.6004
 -19395416.36546 -14562995.95647  20977362.134    20977361.7374   20977362.6364
        48.4004         45.4004
 -21627032.51947 -16835040.52548  20165805.728    20165805.8084   20165810.4904
        50.8004         48.0004
  -7601513.08845  -5897252.82046  22829415.511    22829416.5364   22829422.1014
        43.6004         40.9004
  -3967818.83544  -3071990.73246  23517010.034    23517010.1434   23517014.3244
        40.6004         38.1004
 -12363797.74747  -9615157.54647  20639921.315    20639921.9264   20639927.0234
        50.0004         47.2004
 16  6 11  1 24  0.0000000  0  9G19G17G 2G22G23G 9G 3G 7G 6
  -4488848.70743  -3476734.29546  24142138.262    24142136.8514   24142138.0034
        39.7004         37.3004
   4953049.32941   3891469.60845  24987302.286    24987300.3744   24987302.5034
        33.7004         32.6004
  -4829084.12545  -3741581.83446  23210107.026    23210106.5214   23210108.0064
        44.1004         41.4004
   4131606.39042   3500471.69045  24922083.892    24922085.0264   24922085.9104
        35.7004         34.1004
 -19354423.30246 -14531053.30847  20985163.151    20985162.7384   20985163.4254
        48.4004         45.6004
 -21636990.71547 -16842800.14847  20163910.905    20163910.8234   20163915.6774
        50.7004         47.8004
  -7516734.54845  -5831191.63946  22845548.900    22845549.6174   22845554.6634
        43.6004         40.9004
  -4071383.50944  -3152690.43746  23497302.648    23497303.2034   23497306.9104
        40.8004         38.5004
 -12367754.15247  -9618240.45647  20639168.830    20639169.3334   20639173.9234
        50.0004         47.2004
 16  6 11  1 24 30.0000000  0  9G19G17G 2G22G23G 9G 3G 7G 6
  -4395172.42743  -3403739.82046  24159963.768    24159962.1434   24159964.8324
        39.7004         37.3004
   5051888.41941   3968487.02345  25006112.689    25006110.1434   25006119.3084
        33.7004         32.7004
  -4913188.09445  -3807117.36246  23194103.218    23194102.5234   23194103.1534
        44.2004         41.4004
   4226446.76442   3574373.26945  24940134.835    24940132.6914   24940133.2264
        36.1004         34.3004
 -19313066.29846 -14498827.06847  20993032.953    20993032.5214   20993033.2994
        48.4004         45.6004
 -21646477.80147 -16850192.67448  20162105.373    20162105.6864   20162110.1934
        50.7004         48.0004
  -7431764.39045  -5764981.14746  22861718.335    22861718.4224   22861723.8214
        43.6004         40.7004
  -4174798.77344  -3233273.71846  23477623.121    23477624.0104   23477626.9484
        40.9004         38.3004
 -12371116.66147  -9620860.59347  20638529.084    20638529.1994   20638534.4144
        50.0004         47.2004
 16  6 11  1 25  0.0000000  0  9G19G17G 2G22G23G 9G 3G 7G 6
  -4301287.74543  -3330582.96446  24177830.210    24177829.0554   24177831.6654
        39.9004         37.4004
   5150729.29841   4045505.80345  25024917.901    25024918.5204   25024922.9634
        32.8004         31.7004
  -4997000.18245  -3872425.45646  23178154.198    23178152.6184   23178154.3864
        44.2004         41.4004
   4321363.19942   3648334.11145  24958197.827    24958194.8304   24958196.5494
        36.1004         34.3004
 -19271346.22846 -14466317.91947  21000972.272    21000971.6274   21000972.6464
        48.4004         45.6004
 -21655494.21847 -16857218.44248  20160389.791    20160389.8894   20160394.5444
        50.8004         48.0004
  -7346603.43145  -5698621.95246  22877923.316    22877924.1854   22877929.3094
        43.6004         40.9004
  -4278061.71244  -3313738.31446  23457973.059    23457973.4194   23457977.4534
        41.1004         38.5004
 -12373884.73247  -9623017.52647  20638001.912    20638002.2924   20638007.7484
        50.0004         47.2004
 16  6 11  1 25 30.0000000  0  9G19G17G 2G22G23G 9G 3G 7G 6
  -4207197.82143  -3257266.21246  24195733.679    24195732.7894   24195735.0254
        39.6004         37.1004
   5249568.80941   4122523.52145  25043729.453    25043730.3164   25043732.7474
        32.6004         31.9004
  -5080517.70645  -3937504.00746  23162261.225    23162260.9464   23162261.7274
        44.6004         41.9004
   4416354.84542   3722353.53745  24976270.157    24976270.4924   24976272.5094
        36.3004         34.3004
 -19229264.46746 -14433526.93547  21008981.273    21008980.6704   21008980.0564
        48.6004         45.8004
 -21664040.43747 -16863877.82348  20158763.381    20158763.5734   20158768.2484
        50.8004         48.0004
  -7261252.38244  -5632114.65846  22894165.484    22894165.8394   22894171.1114
        43.4004         40.6004
  -4381169.98644  -3394082.37146  23438352.087    23438352.1814   23438355.8764
        41.1004         38.6004
 -12376057.86547  -9624710.87647  20637588.485    20637589.1844   20637593.8974
        50.0004         47.0004
 16  6 11  1 26  0.0000000  0  9G19G17G 2G22G23G 9G 3G 7G 6
  -4112905.99143  -3183792.09146  24213677.532    24213676.6664   24213678.4514
        39.6004         37.1004
   5348404.33541   4199538.08645  25062536.316    25062538.1924   25062542.4674
        33.5004         32.7004
  -5163738.34745  -4002351.23047  23146425.009    23146424.4584   23146425.5584
        44.8004         42.1004
   4511421.07542   3796431.13445  24994358.036    24994359.5774   24994365.1814
        36.1004         34.3004
 -19186822.66346 -14400455.39247  21017056.990    21017056.4084   21017056.8494
        48.6004         45.8004
 -21672116.92447 -16870171.17748  20157226.421    20157226.5384   20157231.4424
        50.8004         48.0004
  -7175712.03044  -5565459.84346  22910442.431    22910442.6794   22910448.2204
        43.4004         40.6004
  -4484120.91144  -3474303.82046  23418760.558    23418762.0924   23418764.7564
        41.1004         38.3004
 -12377635.58447  -9625940.26447  20637287.680    20637288.3134   20637293.9084
        49.8004         47.0004
 16  6 11  1 26 30.0000000  0  9G19G17G 2G22G23G 9G 3G 7G 6
  -4018415.41543  -3110163.12846  24231658.127    24231656.4964   24231659.0044
        39.2004         36.7004
   5447232.68241   4276547.08845  25081343.772    25081345.3984   25081345.5314
        33.7004         32.7004
  -5246659.76445  -4066965.28446  23130645.224    23130644.5174   23130645.1844
        44.6004         41.8004
   4606561.33842   3870566.37145  25012464.608    25012464.4264   25012466.8454
        35.7004         34.1004
 -19144022.18846 -14367104.36547  21025200.802    21025200.6764   21025201.7044
        48.4004         45.6004
 -21679724.16747 -16876098.88748  20155778.921    20155778.9244   20155783.6074
        50.8004         48.0004
  -7089983.14944  -5498658.13346  22926757.054    22926756.7534   22926763.4264
        43.2004         40.6004
  -4586912.43444  -3554401.06946  23399199.831    23399200.3584   23399203.6064
        40.9004         38.1004
 -12378617.43247  -9626705.34047  20637100.665    20637101.3274   20637106.7314
        49.6004         46.8004
 16  6 11  1 27  0.0000000  0  9G19G17G 2G22G23G 9G 3G 7G 6
  -3923729.11743  -3036381.64546  24249675.938    24249675.0714   24249678.2194
        38.9004         36.7004
   5546050.92341   4353548.23745  25100150.848    25100147.7034   25100149.2404
        33.8004         32.7004
  -5329279.94345  -4131344.60046  23114923.253    23114922.7634   23114923.6044
        44.4004         41.6004
   4701774.64742   3944758.51545  25030584.115    25030582.0184   25030585.5344
        35.7004         34.0004
 -19100864.07646 -14333474.65947  21033414.279    21033413.8844   21033414.6584
        48.4004         45.8004
 -21686862.64447 -16881661.32848  20154420.333    20154420.3884   20154425.1874
        50.8004         48.0004
  -7004066.50644  -5431710.09946  22943105.487    22943106.0364   22943112.2544
        43.2004         40.4004
  -4689541.27144  -3634371.53146  23379670.238    23379670.5424   23379674.6374
        40.8004         38.1004
 -12379002.95547  -9627005.75447  20637027.819    20637028.4174   20637033.4734
        49.6004         47.0004
 16  6 11  1 27 30.0000000  0  8G19G 2G22G23G 9G 3G 7G 6
  -3828850.51943  -2962450.33746  24267730.888    24267729.1884   24267732.4904
        38.7004         36.4004
  -5411596.09745  -4195487.02746  23099258.787    23099257.1644   23099259.2944
        44.1004         41.1004
   4797060.52042   4019007.25045  25048716.740    25048714.2324   25048717.6194
        35.6004         34.1004
 -19057350.09246 -14299567.64147  21041693.970    21041693.6214   21041694.7804
        48.4004         45.4004
 -21693532.89447 -16886858.91347  20153151.082    20153151.1314   20153155.7334
        50.7004         47.8004
  -6917962.85344  -5364616.35946  22959491.970    22959492.1524   22959497.2204
        43.2004         40.7004
  -4792004.28944  -3714212.79246  23360172.749    23360173.0234   23360176.0264
        40.8004         38.1004
 -12378791.77147  -9626841.20447  20637068.284    20637068.7204   20637073.7794
        49.8004         47.0004
 16  6 11  1 28  0.0000000  0  8G19G 2G22G23G 9G 3G 7G 6
  -3733782.79543  -2888371.61446  24285821.457    24285820.4104   24285824.8524
        38.7004         36.4004
  -5493605.90645  -4259390.73946  23083653.568    23083652.7194   23083652.8814
        43.7004         40.9004
   4892417.95042   4093311.77245  25066860.371    25066859.6684   25066859.4314
        35.0004         33.6004
 -19013481.62746 -14265384.41347  21050042.234    21050041.7044   21050042.7764
        48.4004         45.6004
 -21699735.37347 -16891691.99547  20151970.730    20151970.8154   20151975.5064
        50.7004         47.8004
  -6831672.98444  -5297377.50446  22975911.202    22975911.9914   22975917.7664
        43.2004         40.6004
  -4894299.29144  -3793923.14946  23340705.765    23340706.3484   23340708.2624
        40.6004         37.9004
 -12377983.45747  -9626211.35247  20637221.861    20637222.2214   20637228.0124
        49.8004         47.2004
 16  6 11  1 28 30.0000000  0  8G19G 2G22G23G 9G 3G 7G 6
  -3638529.03343  -2814147.95546  24303948.001    24303946.8354   24303950.3614
        38.5004         36.4004
  -5575306.96744  -4323053.87446  23068106.132    23068105.0824   23068106.1594
        43.4004         40.4004
   4987846.32542   4167671.55745  25085022.331    25085019.6444   25085022.7824
        35.4004         34.0004
 -18969259.81546 -14230925.85147  21058457.680    21058457.3684   21058457.7474
        48.4004         45.6004
 -21705470.66947 -16896161.04947  20150879.309    20150879.4854   20150883.9714
        50.7004         47.8004
  -6745197.69644  -5229994.16746  22992367.799    22992367.8044   22992373.2124
        43.2004         40.4004
  -4996423.55044  -3873500.45346  23321271.725    23321273.1664   23321275.6614
        40.6004         38.3004
 -12376577.69147  -9625115.94947  20637489.230    20637489.7484   20637495.6914
        50.0004         47.2004
 16  6 11  1 29  0.0000000  0  7G19G 2G23G 9G 3G 7G 6
  -3543092.49943  -2739781.90045  24322110.077    24322110.1114   24322110.3934
        38.3004         35.9004
  -5656697.25744  -4386474.84546  23052616.692    23052616.2714   23052617.5734
        43.0004         39.9004
 -18924686.11746 -14196193.09647  21066939.989    21066939.3954   21066939.2404
        48.4004         45.4004
 -21710739.29647 -16900266.46448  20149877.021    20149877.1514   20149881.6024
        50.8004         48.0004
  -6658537.72844  -5162466.92346  23008858.644    23008859.8784   23008863.6334
        43.0004         40.4004
  -5098374.84444  -3952942.99746  23301871.917    23301871.7724   23301875.2644
        40.8004         38.1004
 -12374574.09847  -9623554.70947  20637870.452    20637870.9254   20637876.3154
        49.8004         47.0004
 16  6 11  1 29 30.0000000  0  7G19G 2G23G 9G 3G 7G 6
  -3447476.32243  -2665275.81545  24340303.877    24340303.4434   24340304.7084
        37.6004         35.2004
  -5737774.26144  -4449651.69646  23037189.298    23037187.7304   23037189.1814
        42.7004         40.0004
 -18879761.75546 -14161187.10347  21075488.171    21075487.8594   21075488.0394
        48.2004         45.2004
 -21715541.80947 -16904008.66748  20148963.392    20148963.3364   20148967.6684
        50.8004         48.2004
  -6571693.85744  -5094796.39046  23025385.126    23025385.0554   23025390.1164
        42.9004         40.0004
  -5200150.08244  -4032248.34446  23282505.369    23282505.8174   23282508.5214
        40.8004         38.3004
 -12371972.36147  -9621527.38747  20638365.805    20638366.3244   20638371.4904
        49.8004         47.2004
 16  6 11  1 30  0.0000000  0  7G19G 2G23G 9G 3G 7G 6
  -3351683.85042  -2590632.38445  24358533.307    24358531.7244   24358534.7774
        37.5004         35.3004
  -5818535.53444  -4512582.50946  23021819.574    23021819.0034   23021820.2834
        42.7004         40.0004
 -18834488.33446 -14125909.10947  21084102.969    21084103.0744   21084103.4494
        48.1004         45.2004
 -21719878.76147 -16907388.09848  20148137.656    20148137.8844   20148142.3064
        51.0004         48.2004
  -6484666.90544  -5026983.17946  23041946.156    23041945.3514   23041950.4214
        42.5004         39.7004
  -5301746.79844  -4111414.58046  23263173.642    23263172.3374   23263174.4484
        40.8004         38.3004
 -12368772.18047  -9619033.73847  20638974.813    20638975.2084   20638980.8654
        50.0004         47.2004
 16  6 11  1 30 30.0000000  0  7G19G 2G23G 9G 3G 7G 6
  -3255717.92343  -2515853.78645  24376796.850    24376796.0334   24376795.5684
        38.0004         35.9004
  -5898978.76844  -4575265.53446  23006511.617    23006511.9034   23006512.8704
        42.7004         40.0004
 -18788867.35146 -14090360.29147  21092784.610    21092784.8394   21092784.7714
        48.1004         45.2004
 -21723750.74347 -16910405.22048  20147400.780    20147400.8054   20147405.3554
        51.0004         48.0004
  -6397457.63144  -4959027.88846  23058539.090    23058540.1284   23058545.4744
        42.3004         39.7004
  -5403162.65044  -4190439.87146  23243874.765    23243872.6294   23243875.7994
        40.8004         38.5004
 -12364973.29747  -9616073.56447  20639697.285    20639698.0044   20639703.9294
        50.0004         47.2004
 16  6 11  1 31  0.0000000  0  7G19G 2G23G 9G 3G 7G 6
  -3159582.02843  -2440942.74945  24395089.520    24395087.8464   24395089.7344
        38.0004         35.9004
  -5979101.47744  -4637698.79346  22991266.164    22991264.5454   22991265.7194
        42.7004         40.0004
 -18742900.07046 -14054541.63447  21101531.939    21101531.8944   21101532.2844
        48.2004         45.2004
 -21727158.31347 -16913060.46748  20146752.553    20146752.4994   20146756.8544
        50.8004         48.0004
  -6310066.80844  -4890931.15246  23075168.859    23075170.0864   23075175.8554
        42.0004         39.2004
  -5504394.20844  -4269321.60746  23224609.301    23224609.7454   23224611.0884
        40.8004         38.3004
 -12360575.45147  -9612646.66747  20640534.409    20640534.8874   20640540.5714
        50.0004         47.0004
 16  6 11  1 31 30.0000000  0  7G19G 2G23G 9G 3G 7G 6
  -3063279.16743  -2365901.61045  24413414.094    24413413.8414   24413416.2424
        37.8004         35.7004
  -6058901.53544  -4699880.62546  22976080.311    22976078.7484   22976080.5654
        42.9004         40.4004
 -18696587.75046 -14018454.11347  21110345.015    21110344.7344   21110344.8084
        48.2004         45.2004
 -21730102.09647 -16915354.31548  20146192.471    20146192.1484   20146196.8074
        50.8004         48.2004
  -6222495.20744  -4822693.54446  23091833.596    23091835.0864   23091840.4284
        41.8004         39.2004
  -5605439.58844  -4348058.22046  23205382.677    23205381.7624   23205383.4344
        40.9004         38.6004
 -12355578.38447  -9608752.85547  20641485.114    20641485.9224   20641490.8584
        49.8004         46.8004
 16  6 11  1 32  0.0000000  0  7G19G 2G23G 9G 3G 7G 6
  -2966812.91143  -2290733.13046  24431771.688    24431770.8054   24431772.9344
        38.2004         36.4004
  -6138376.38244  -4761809.05946  22960957.306    22960956.1424   22960956.8124
        43.2004         40.7004
 -18649931.80746 -13982098.83247  21119223.531    21119223.0914   21119223.8524
        48.2004         45.4004
 -21732582.67747 -16917287.22748  20145720.049    20145720.0174   20145724.9544
        51.0004         48.2004
  -6134743.66944  -4754315.72946  23108532.065    23108532.8194   23108538.0544
        41.8004         39.2004
  -5706296.03444  -4426647.63446  23186188.920    23186188.9414   23186190.7024
        41.3004         38.6004
 -12349981.93347  -9604391.98047  20642550.092    20642550.5204   20642556.2064
        49.6004         46.8004
 16  6 11  1 32 30.0000000  0  7G19G 2G23G 9G 3G 7G 6
  -2870185.54543  -2215439.12846  24450159.115    24450158.9044   24450161.4664
        38.5004         36.2004
  -6217523.62344  -4823482.20546  22945895.525    22945894.6644   22945895.2434
        43.2004         40.6004
 -18602933.84646 -13945477.04847  21128167.299    21128166.8554   21128166.9464
        48.2004         45.4004
 -21734600.69547 -16918859.70148  20145336.074    20145336.1474   20145340.8244
        51.0004         48.2004
  -6046812.94044  -4685798.29246  23125265.157    23125265.7624   23125270.5934
        41.8004         39.2004
  -5806960.54944  -4505087.46946  23167032.900    23167032.6894   23167036.2374
        41.5004         39.2004
 -12343785.90747  -9599563.90447  20643729.290    20643729.7264   20643735.1144
        49.6004         46.8004
 16  6 11  1 33  0.0000000  0  7G19G 2G23G 9G 3G 7G 6
  -2773400.77943  -2140022.46545  24468576.377    24468576.3404   24468577.3234
        38.0004         35.7004
  -6296340.99344  -4884898.31346  22930896.873    22930895.9144   22930897.2274
        43.4004         40.7004
 -18555595.28146 -13908589.86047  21137174.957    21137174.9474   21137175.2574
        48.2004         45.4004
 -21736156.73447 -16920072.19148  20145040.270    20145040.1274   20145044.6574
        51.0004         48.2004
  -5958703.83444  -4617141.83646  23142031.984    23142032.7384   23142037.3694
        41.8004         39.0004
  -5907430.70044  -4583375.87046  23147914.358    23147914.3424   23147917.5154
        41.8004         39.3004
 -12336990.12547  -9594268.49347  20645022.741    20645023.2454   20645028.2764
        49.6004         46.8004
 16  6 11  1 33 30.0000000  0  7G19G 2G23G 9G 3G 7G 6
  -2676461.89943  -2064485.74145  24487024.601    24487022.8244   24487023.9644
        37.8004         35.7004
  -6374826.54244  -4946055.86046  22915961.203    22915960.8984   22915962.0134
        43.4004         40.6004
 -18507917.03346 -13871437.97847  21146247.612    21146247.7624   21146247.8294
        48.2004         45.2004
 -21737251.45047 -16920925.20948  20144832.496    20144832.1154   20144836.2984
        51.0004         48.2004
  -5870417.11344  -4548346.97846  23158832.219    23158832.4034   23158837.6284
        41.8004         39.0004
  -6007703.88544  -4661510.77946  23128833.822    23128833.4634   23128836.1614
        42.2004         39.7004
 -12329594.49346  -9588505.65747  20646429.810    20646430.1814   20646435.6014
        49.5004         46.6004
 16  6 11  1 34  0.0000000  0  7G19G 2G23G 9G 3G 7G 6
  -2579371.88543  -1988831.24545  24505500.182    24505499.4194   24505500.9134
        38.0004         35.7004
  -6452977.29644  -5006952.52346  22901089.326    22901089.8594   22901090.0134
        43.2004         40.4004
 -18459901.17446 -13834023.02147  21155385.286    21155384.6314   21155385.2334
        48.2004         45.2004
 -21737885.51447 -16921419.28048  20144711.012    20144711.2534   20144715.7464
        51.0004         48.2004
  -5781953.59944  -4479414.36246  23175667.039    23175666.3884   23175673.1074
        41.8004         39.2004
  -6107777.50844  -4739490.18246  23109789.647    23109789.9304   23109792.4854
        42.2004         39.7004
 -12321598.84646  -9582275.29047  20647951.535    20647951.8214   20647957.1594
        49.5004         46.8004
 16  6 11  1 34 30.0000000  0  7G19G 2G23G 9G 3G 7G 6
  -2482134.10643  -1913061.58945  24524002.282    24524001.3784   24524005.4424
        37.8004         35.7004
  -6530791.36944  -5067586.85046  22886282.156    22886280.6494   22886281.8534
        43.2004         40.4004
 -18411548.87846 -13796345.90547  21164585.908    21164585.5754   21164586.3994
        48.1004         45.2004
 -21738059.55947 -16921554.89548  20144677.964    20144677.9684   20144682.6844
        51.0004         48.2004
  -5693314.05844  -4410344.58346  23192534.776    23192535.3634   23192538.6104
        41.6004         39.0004
  -6207649.02844  -4817312.10046  23090784.279    23090784.8704   23090787.7734
        42.3004         39.7004
 -12313003.13747  -9575577.33547  20649587.097    20649587.6394   20649593.2374
        49.6004         46.8004
 16  6 11  1 35  0.0000000  0  7G19G 2G23G 9G 3G 7G 6
  -2384751.68442  -1837179.20845  24542532.314    24542533.3714   24542536.1104
        37.5004         35.3004
  -6608266.15244  -5127956.78846  22871539.766    22871539.0314   22871539.6714
        43.4004         40.7004
 -18362861.42746 -13758407.63147  21173850.736    21173850.4004   21173850.8514
        48.1004         45.2004
 -21737774.26947 -16921332.59148  20144731.935    20144732.1464   20144736.7374
        51.0004         48.0004
  -5604499.33144  -4341138.28746  23209434.425    23209435.9224   23209439.6314
        41.6004         39.0004
  -6307315.73544  -4894974.41746  23071818.637    23071818.2644   23071822.3694
        42.5004         40.0004
 -12303807.27947  -9568411.74247  20651337.388    20651337.7404   20651342.8494
        49.6004         46.8004
 16  6 11  1 35 30.0000000  0  7G19G 2G23G 9G 3G 7G 6
  -2287227.76543  -1761186.57545  24561091.339    24561089.3624   24561094.9944
        37.8004         35.7004
  -6685399.29245  -5188060.50946  22856861.436    22856861.0404   22856861.1224
        43.6004         40.9004
 -18313840.27946 -13720209.34147  21183179.416    21183179.2664   21183179.5254
        48.1004         45.2004
 -21737030.33247 -16920752.89448  20144874.143    20144874.0214   20144878.4614
        51.0004         48.2004
  -5515510.16644  -4271796.08646  23226369.257    23226369.4644   23226374.7734
        41.3004         38.6004
  -6406774.94944  -4972475.06146  23052892.190    23052891.3264   23052895.6944
        42.5004         39.7004
 -12294011.24847  -9560778.47647  20653200.927    20653201.5074   20653207.2504
        49.6004         46.8004
 16  6 11  1 36  0.0000000  0  7G19G 2G23G 9G 3G 7G 6
  -2189565.63243  -1685086.28945  24579678.359    24579676.6194   24579678.2974
        37.8004         35.7004
  -6762188.69945  -5247896.38546  22842249.166    22842248.6344   22842249.6244
        43.9004         41.2004
 -18264486.99646 -13681752.23947  21192571.815    21192571.5244   21192571.2474
        48.1004         45.4004
 -21735828.42147 -16919816.33148  20145102.617    20145102.4164   20145107.1524
        51.0004         48.2004
  -5426347.41344  -4202318.58346  23243334.569    23243335.2494   23243342.4914
        41.1004         38.5004
  -6506024.06944  -5049811.98446  23034004.653    23034004.6434   23034007.9094
        42.5004         39.9004
 -12283614.99847  -9552677.50947  20655179.073    20655179.7904   20655185.4974
        49.6004         46.8004
 16  6 11  1 36 30.0000000  0  7G19G 2G23G 9G 3G 7G 6
  -2091768.32043  -1608880.62345  24598286.676    24598286.4214   24598289.4054
        37.8004         35.7004
  -6838631.85445  -5307462.44946  22827701.954    22827701.1934   22827702.4774
        43.9004         41.2004
 -18214802.84146 -13643037.31247  21202026.185    21202025.5964   21202025.9464
        48.2004         45.2004
 -21734169.25047 -16918523.46748  20145418.149    20145418.2964   20145422.9644
        51.0004         48.2004
  -5337011.76844  -4132706.41346  23260336.479    23260336.0814   23260343.2334
        41.1004         38.6004
  -6605060.54344  -5126983.21946  23015159.422    23015158.6724   23015162.5304
        42.5004         39.7004
 -12272618.58347  -9544108.87347  20657271.414    20657272.2664   20657278.1374
        49.6004         46.8004
 16  6 11  1 37  0.0000000  0  7G19G 2G23G 9G 3G 7G 6
  -1993838.29443  -1532571.53845  24616923.045    24616922.1584   24616924.7434
        37.8004         35.7004
  -6914726.44345  -5366756.91246  22813222.104    22813220.9844   22813222.1384
        43.9004         40.9004
 -18164789.11846 -13604065.57647  21211542.838    21211542.5044   21211543.3984
        48.1004         45.2004
 -21732053.48247 -16916874.81148  20145820.680    20145820.8024   20145825.7534
        51.0004         48.2004
  -5247504.18244  -4062960.22346  23277366.210    23277368.4574   23277376.1124
        41.3004         38.8004
  -6703881.55144  -5203986.56046  22996354.712    22996354.6194   22996357.7214
        42.5004         40.0004
 -12261021.97347  -9535072.56347  20659479.136    20659479.4244   20659484.9374
        49.6004         47.0004
 16  6 11  1 37 30.0000000  0  7G19G 2G23G 9G 3G 7G 6
  -1895779.39343  -1456162.04345  24635583.869    24635582.4104   24635586.3384
        38.0004         35.9004
  -6990470.06945  -5425777.88146  22798807.375    22798807.1314   22798809.1914
        43.7004         40.9004
 -18114447.32546 -13564838.21247  21221122.420    21221122.4374   21221122.6434
        48.1004         45.1004
 -21729481.89147 -16914870.96648  20146310.334    20146310.1624   20146315.1004
        51.0004         48.2004
  -5157825.36344  -3993080.61046  23294434.165    23294434.2784   23294440.8264
        41.3004         38.8004
  -6802484.47244  -5280819.96346  22977591.280    22977591.5254   22977593.6414
        42.5004         39.9004
 -12248825.26347  -9525568.63347  20661799.933    20661800.4674   20661805.4614
        49.8004         47.0004
 16  6 11  1 38  0.0000000  0  7G19G 2G23G 9G 3G 7G 6
  -1797594.87243  -1379654.65746  24654267.598    24654266.2504   24654269.7864
        38.2004         36.0004
  -7065860.53945  -5484523.65446  22784462.153    22784461.0994   22784462.4484
        43.7004         41.1004
 -18063778.78446 -13525356.23247  21230764.281    21230763.7674   21230764.8884
        48.1004         45.1004
 -21726455.20547 -16912512.50148  20146886.373    20146886.4124   20146890.8314
        51.0004         48.2004
  -5067976.13144  -3923068.20846  23311531.388    23311532.5814   23311537.7334
        41.5004         39.0004
  -6900866.88044  -5357481.52346  22958870.131    22958870.1194   22958872.0384
        42.7004         40.0004
 -12236028.51947  -9515597.15047  20664235.400    20664235.8724   20664240.9164
        49.8004         47.2004
 16  6 11  1 38 30.0000000  0  7G19G 2G23G 9G 3G 7G 6
  -1699287.76843  -1303051.77546  24672974.217    24672974.2614   24672977.0144
        38.2004         36.0004
  -7140895.55745  -5542992.47146  22770182.722    22770182.4954   22770183.8194
        43.9004         41.1004
 -18012785.34446 -13485621.07947  21240467.934    21240467.7574   21240468.7854
        47.9004         45.1004
 -21722974.15847 -16909799.98948  20147548.458    20147548.5504   20147553.3824
        51.0004         48.4004
  -4977957.44244  -3852923.77746  23328661.609    23328662.8564   23328667.0084
        41.6004         39.0004
  -6999026.39044  -5433969.41246  22940190.124    22940190.4404   22940193.1194
        42.7004         40.0004
 -12222631.84447  -9505158.17747  20666784.187    20666784.7184   20666790.1864
        49.8004         47.0004
 16  6 11  1 39  0.0000000  0  7G19G 2G23G 9G 3G 7G 6
  -1600861.13843  -1226355.71946  24691704.643    24691703.5314   24691706.8864
        38.3004         36.2004
  -7215572.78945  -5601182.49346  22755973.420    22755972.3494   22755972.9924
        43.9004         41.1004
 -17961468.14546 -13445633.65547  21250233.957    21250233.0274   21250233.8294
        47.9004         44.9004
 -21719039.48147 -16906734.00448  20148297.374    20148297.2394   20148302.0674
        51.0004         48.2004
  -4887769.80344  -3782647.68346  23345823.626    23345824.6124   23345829.9514
        41.6004         39.0004
  -7096960.14244  -5510281.39946  22921554.993    22921554.3034   22921556.9194
        42.9004         40.2004
 -12208635.35247  -9494251.82747  20669447.910    20669448.5854   20669453.8754
        49.8004         47.0004
 16  6 11  1 39 30.0000000  0  7G19G 2G23G 9G 3G 7G 6
  -1502318.22643  -1149569.07346  24710455.782    24710454.9624   24710458.5864
        38.3004         36.0004
  -7289890.00045  -5659091.98046  22741829.650    22741829.9354   22741831.0504
        43.7004         40.9004
 -17909828.46546 -13405394.94847  21260059.602    21260059.6144   21260060.4994
        47.7004         44.9004
 -21714651.95747 -16903315.15148  20149132.410    20149132.4514   20149137.1174
        51.0004         48.2004
  -4797414.20244  -3712240.70146  23363017.775    23363018.7074   23363025.0954
        41.6004         39.0004
  -7194665.49544  -5586415.39246  22902961.738    22902961.3914   22902963.4504
        42.9004         40.2004
 -12194039.17847  -9482878.19147  20672225.268    20672225.9364   20672231.3294
        49.8004         47.0004
 16  6 11  1 40  0.0000000  0  7G19G 2G23G 9G 3G 7G 6
  -1403661.80643  -1072693.98546  24729230.976    24729230.3354   24729232.8024
        38.3004         36.0004
  -7363844.78045  -5716719.05746  22727757.364    22727756.7104   22727757.8684
        43.7004         41.1004
 -17857867.93046 -13364906.21747  21269948.462    21269948.0234   21269948.3264
        47.7004         44.9004
 -21709812.35447 -16899544.02448  20150053.298    20150053.4444   20150058.0024
        51.0004         48.4004
  -4706891.46944  -3641703.48946  23380242.901    23380244.3084   23380250.2344
        41.5004         38.8004
  -7292139.73344  -5662369.30646  22884412.311    22884412.5104   22884414.9354
        43.0004         40.4004
 -12178843.51447  -9471037.41947  20675117.275    20675117.6154   20675122.7994
        49.6004         46.8004
 16  6 11  1 40 30.0000000  0  7G19G 2G23G 9G 3G 7G 6
  -1304895.67743   -995733.40646  24748024.504    24748023.7654   24748026.2604
        38.5004         36.2004
  -7437434.70045  -5774061.83846  22713753.751    22713753.1154   22713753.3284
        43.6004         40.7004
 -17805587.80846 -13324168.46147  21279897.339    21279897.1224   21279896.6564
        47.7004         44.9004
 -21704521.45447 -16895421.23848  20151060.298    20151060.2464   20151065.0084
        51.2004         48.4004
  -4616202.35244  -3571036.66346  23397502.952    23397502.6064   23397507.2784
        41.3004         38.6004
  -7389380.70144  -5738141.45346  22865908.072    22865908.4784   22865910.2524
        43.0004         40.2004
 -12163048.56547  -9458729.66247  20678122.362    20678123.1144   20678128.6584
        49.6004         46.8004
 16  6 11  1 41  0.0000000  0  7G19G 2G23G 9G 3G 7G 6
  -1206022.52543   -918689.41846  24766840.734    24766838.4124   24766841.9674
        38.3004         36.0004
  -7510657.52945  -5831118.56646  22699819.675    22699818.6984   22699819.6474
        43.6004         40.9004
 -17752989.64346 -13283182.88147  21289905.581    21289905.6724   21289905.6474
        47.7004         44.9004
 -21698780.04147 -16890947.40448  20152152.679    20152152.6414   20152157.3914
        51.2004         48.4004
  -4525347.72344  -3500240.84446  23414790.620    23414791.3544   23414795.9284
        41.3004         38.6004
  -7486385.59444  -5813729.65746  22847448.758    22847449.7564   22847450.9604
        43.2004         40.6004
 -12146654.50546  -9445955.07647  20681241.450    20681242.1804   20681248.0754
        49.5004         46.5004
 16  6 11  1 41 30.0000000  0  7G19G 2G23G 9G 3G 7G 6
  -1107045.41143   -841564.43245  24785674.485    24785674.2864   24785676.6154
        38.0004         35.9004
  -7583511.03145  -5887887.49746  22685956.526    22685955.6354   22685956.5144
        43.7004         41.2004
 -17700074.93546 -13241950.64347  21299975.400    21299975.0854   21299974.9184
        47.7004         44.9004
 -21692588.90947 -16886123.13748  20153330.371    20153330.4234   20153335.4694
        51.2004         48.4004
  -4434328.37044  -3429316.66246  23432112.281    23432112.5394   23432116.8614
        41.1004         38.5004
  -7583151.48144  -5889131.60146  22829035.428    22829034.8164   22829037.3464
        43.2004         40.6004
 -12129661.61046  -9432713.87147  20684475.990    20684475.9684   20684481.8464
        49.3004         46.5004
 16  6 11  1 42  0.0000000  0  7G19G 2G23G 9G 3G 7G 6
  -1007967.74343   -764361.08745  24804528.513    24804527.4894   24804529.1724
        37.6004         35.5004
  -7655992.92245  -5944366.87646  22672163.272    22672162.1924   22672163.5864
        44.1004         41.4004
 -17646844.79146 -13200472.60647  21310104.895    21310104.3894   21310104.8044
        47.7004         44.9004
 -21685948.85447 -16880949.06348  20154593.685    20154594.0214   20154598.9424
        51.0004         48.4004
  -4343145.12644  -3358264.81746  23449463.373    23449463.3794   23449467.8594
        41.1004         38.3004
  -7679676.17144  -5964345.61546  22810666.872    22810667.6024   22810669.2134
        43.4004         40.9004
 -12112070.13346  -9419006.23747  20687823.303    20687823.5934   20687829.1734
        49.3004         46.5004
 16  6 11  1 42 30.0000000  0  7G19G 2G23G 9G 3G 7G 6
   -908792.38142   -687081.60145  24823400.953    24823399.1644   24823403.6774
        37.1004         35.2004
  -7728100.74945  -6000554.78046  22658440.910    22658440.4914   22658442.0974
        44.1004         41.2004
 -17593300.95346 -13158750.13347  21320293.172    21320293.2074   21320293.6824
        47.7004         45.1004
 -21678860.71947 -16875425.83448  20155942.802    20155942.7984   20155947.4084
        51.0004         48.2004
  -4251798.81744  -3287085.87546  23466844.433    23466844.9664   23466851.3634
        40.9004         38.3004
  -7775957.02645  -6039369.63746  22792345.738    22792346.0554   22792347.0994
        43.6004         40.9004
 -12093880.37846  -9404832.40947  20691284.280    20691285.0294   20691290.7194
        49.3004         46.5004
 16  6 11  1 43  0.0000000  0  7G19G 2G23G 9G 3G 7G 6
   -809522.41642   -609728.41545  24842292.555    24842290.6824   24842294.9154
        37.3004         35.3004
  -7799832.65245  -6056449.75946  22644791.069    22644790.1734   22644791.8884
        43.9004         41.1004
 -17539444.76046 -13116784.27547  21330542.135    21330541.4564   21330542.3464
        47.7004         44.9004
 -21671325.33447 -16869554.10448  20157377.261    20157377.0984   20157381.6404
        51.0004         48.4004
  -4160290.11144  -3215780.39946  23484259.427    23484258.5484   23484264.3594
        40.8004         38.1004
  -7871991.22145  -6114201.45046  22774070.700    22774070.6404   22774072.9504
        43.7004         41.1004
 -12075092.66446  -9390192.63947  20694859.855    20694860.2434   20694865.9704
        49.3004         46.5004
 16  6 11  1 43 30.0000000  0  7G19G 2G23G 9G 3G 7G 6
   -710161.26042   -532304.19245  24861198.122    24861197.3014   24861201.0224
        37.5004         35.5004
  -7871186.19745  -6112049.90346  22631212.599    22631212.6374   22631214.0664
        43.9004         41.1004
 -17485277.59146 -13074576.08647  21340849.621    21340849.1744   21340850.2374
        47.7004         44.9004
 -21663343.51447 -16863334.49848  20158895.872    20158895.9604   20158900.6484
        51.0004         48.4004
  -4068620.09844  -3144349.23146  23501702.820    23501703.0424   23501708.6204
        40.6004         37.9004
  -7967776.41145  -6188839.23846  22755843.992    22755842.8074   22755846.0554
        43.9004         41.1004
 -12055707.28146  -9375087.15847  20698549.519    20698549.8484   20698554.4864
        49.5004         46.6004
 16  6 11  1 44  0.0000000  0  7G19G 2G23G 9G 3G 7G 6
   -610711.74343   -454811.10445  24880125.427    24880123.7814   24880126.7654
        37.6004         35.7004
  -7942159.03545  -6167353.38546  22617707.120    22617706.7484   22617708.3164
        44.1004         41.4004
 -17430800.87446 -13032126.69947  21351215.846    21351215.8334   21351217.4184
        47.7004         44.7004
 -21654916.10247 -16856767.67848  20160499.401    20160499.6414   20160504.4234
        51.2004         48.4004
  -3976789.52043  -3072792.93346  23519176.667    23519176.9774   23519184.7664
        40.4004         38.1004
  -8063309.76945  -6263280.77846  22737663.371    22737662.7404   22737667.3064
        43.7004         40.7004
 -12035724.63546  -9359516.26647  20702351.530    20702351.9894   20702357.6124
        49.5004         46.6004
 16  6 11  1 44 30.0000000  0  7G19G 2G23G 9G 3G 7G 6
   -511176.71443   -377251.40145  24899064.631    24899064.0214   24899067.8864
        37.8004         35.7004
  -8012748.78345  -6222358.36246  22604274.828    22604274.0014   22604275.3284
        44.2004         41.8004
 -17376016.18846 -12989437.33847  21361641.533    21361640.9704   21361642.0304
        47.7004         44.9004
 -21646043.97447 -16849854.32448  20162187.643    20162187.7224   20162192.5224
        51.2004         48.4004
  -3884799.14843  -3001112.12646  23536682.755    23536682.9314   23536689.1314
        40.4004         37.8004
  -8158589.25945  -6337524.50146  22719531.497    22719532.2214   22719535.3284
        43.6004         40.7004
 -12015145.11246  -9343480.27047  20706267.757    20706268.5344   20706273.4644
        49.5004         46.6004
 16  6 11  1 45  0.0000000  0  7G19G 2G23G 9G 3G 7G 6
   -411559.54543   -299627.69145  24918021.963    24918021.1254   24918025.0444
        37.6004         35.5004
  -8082953.18445  -6277063.07046  22590915.391    22590914.9184   22590916.0134
        44.6004         41.8004
 -17320924.75546 -12946508.94847  21372125.043    21372124.7654   21372125.6604
        47.5004         44.7004
 -21636727.95347 -16842595.07948  20163960.761    20163960.9384   20163965.2214
        51.2004         48.4004
  -3792649.82543  -2929307.46146  23554216.274    23554217.6094   23554224.1014
        40.3004         37.9004
  -8253612.03445  -6411568.18046  22701449.479    22701449.5084   22701452.5684
        43.6004         40.7004
 -11993969.08346  -9326979.47747  20710297.857    20710298.2514   20710302.9524
        49.5004         46.6004
 16  6 11  1 45 30.0000000  0  7G19G 2G23G 9G 3G 7G 6
   -311863.50142   -221942.53845  24936994.855    24936992.9574   24936996.0184
        37.3004         35.0004
  -8152770.14945  -6331465.87546  22577629.148    22577628.7684   22577630.1934
        44.6004         41.8004
 -17265528.05346 -12903342.69647  21382667.077    21382666.3304   21382667.1994
        47.5004         44.7004
 -21626968.93647 -16834990.64148  20165817.938    20165817.7234   20165822.1354
        51.2004         48.4004
  -3700342.38943  -2857379.61146  23571785.759    23571784.5374   23571790.3994
        40.4004         37.9004
  -8348375.33945  -6485409.69146  22683417.627    22683417.3504   22683419.7014
        43.6004         41.1004
 -11972197.01446  -9310014.23147  20714440.391    20714440.8014   20714446.3124
        49.5004         46.6004
 16  6 11  1 46  0.0000000  0  7G19G 2G23G 9G 3G 7G 6
   -212091.63542   -144198.27445  24955976.462    24955976.1994   24955980.6404
        36.4004         34.5004
  -8222197.23145  -6385564.88046  22564417.966    22564417.6784   22564417.8344
        44.6004         41.8004
 -17209827.57746 -12859939.72647  21393266.124    21393265.8194   21393266.1294
        47.5004         44.5004
 -21616767.82847 -16827041.72048  20167758.906    20167758.8914   20167763.3164
        51.0004         48.2004
  -3607877.69243  -2785329.23146  23589380.156    23589380.2724   23589386.2014
        40.4004         37.9004
  -8442876.80545  -6559047.19746  22665433.799    22665433.6644   22665437.1644
        43.9004         41.2004
 -11949829.33546  -9292584.87147  20718697.059    20718697.5274   20718702.8544
        49.5004         46.8004
 16  6 11  1 46 30.0000000  0  7G19G 2G23G 9G 3G 7G 6
   -112246.76342    -66397.12745  24974978.988    24974977.8174   24974981.1984
        36.3004         34.5004
  -8291232.31345  -6439358.43046  22551281.094    22551280.5824   22551280.7874
        44.6004         41.9004
 -17153824.75046 -12816301.15947  21403922.282    21403922.3754   21403923.8424
        47.4004         44.5004
 -21606125.47947 -16818748.96648  20169783.912    20169783.9184   20169788.5424
        51.0004         48.2004
  -3515256.58644  -2713156.92346  23607003.685    23607005.9414   23607011.3784
        40.6004         38.3004
  -8537113.74745  -6632478.55546  22647500.421    22647501.9584   22647504.1344
        44.1004         41.4004
 -11926866.53247  -9274691.78547  20723066.865    20723067.4314   20723072.2964
        49.6004         46.8004
 16  6 11  1 47  0.0000000  0  7G19G 2G23G 9G 3G 7G 6
    -12332.37242     11458.17145  24993992.029    24993992.4454   24993993.5914
        36.1004         34.1004
  -8359873.25445  -6492844.85247  22538219.005    22538218.5444   22538219.3714
        44.8004         42.1004
 -17097520.91246 -12772428.03647  21414636.804    21414636.2894   21414637.7414
        47.4004         44.4004
 -21595042.79947 -16810113.10648  20171892.456    20171892.7504   20171897.5374
        51.0004         48.2004
  -3422479.83544  -2640863.38246  23624663.280    23624660.3964   23624664.7244
        40.6004         37.9004
  -8631083.59245  -6705701.79146  22629618.174    22629619.1604   22629622.2164
        44.1004         41.2004
 -11903309.11047  -9256335.36247  20727549.263    20727549.7774   20727555.4374
        49.6004         46.8004
 16  6 11  1 47 30.0000000  0  7G19G 2G23G 9G 3G 7G 6
     87648.66042     89365.45845  25013017.487    25013018.2554   25013018.0494
        35.9004         34.1004
  -8428118.19245  -6546022.69947  22525232.235    22525231.5554   22525232.6984
        44.9004         42.1004
 -17040917.52746 -12728321.50847  21425408.394    21425407.8904   21425409.1124
        47.4004         44.5004
 -21583520.68947 -16801134.83048  20174085.774    20174085.7364   20174089.9494
        51.0004         48.2004
  -3329548.38843  -2568449.23646  23642340.555    23642342.9384   23642350.2204
        40.3004         37.8004
  -8724783.88745  -6778714.99146  22611787.255    22611788.3484   22611790.9524
        44.2004         41.2004
 -11879157.59846  -9237516.00847  20732145.215    20732145.5964   20732150.9734
        49.5004         46.6004
 16  6 11  1 48  0.0000000  0  7G19G 2G23G 9G 3G 7G 6
    187693.34942    167322.30345  25032055.805    25032055.9144   25032058.8634
        35.4004         33.4004
  -8495964.35545  -6598889.82446  22512322.034    22512321.0924   22512321.9344
        44.8004         41.9004
 -16984016.00346 -12683982.65947  21436236.368    21436236.1834   21436236.7504
        47.4004         44.5004
 -21571560.07247 -16791814.86948  20176361.788    20176361.7444   20176366.2164
        51.0004         48.2004
  -3236462.96443  -2495915.16446  23660058.339    23660057.9434   23660063.9464
        40.4004         37.8004
  -8818212.41345  -6851516.40946  22594009.580    22594010.4924   22594013.0954
        44.1004         41.4004
 -11854412.53546  -9218234.14447  20736854.246    20736854.9094   20736860.2674
        49.5004         46.6004
 16  6 11  1 48 30.0000000  0  7G19G 2G23G 9G 3G 7G 6
    287798.52842    245326.30245  25051104.656    25051103.8714   25051103.9044
        35.0004         33.4004
  -8563409.34345  -6651444.34046  22499487.335    22499486.6984   22499487.4334
        44.6004         41.9004
 -16926817.67146 -12639412.52947  21447120.680    21447120.9034   21447121.2374
        47.4004         44.4004
 -21559161.86447 -16782153.92048  20178720.825    20178720.9624   20178725.7854
        50.8004         48.2004
  -3143224.50643  -2423261.83746  23677799.632    23677800.4044   23677807.0194
        40.3004         37.8004
  -8911366.30245  -6924103.81046  22576282.325    22576283.1794   22576286.1374
        44.1004         41.4004
 -11829074.48046  -9198490.21947  20741675.757    20741676.2924   20741681.1694
        49.3004         46.5004
 16  6 11  1 49  0.0000000  0  7G19G 2G23G 9G 3G 7G 6
    387961.29442    323375.20345  25070165.983    25070164.3484   25070167.2814
        35.4004         34.0004
  -8630451.29545  -6703684.80946  22486730.001    22486728.7734   22486730.5904
        44.6004         41.8004
 -16869324.00446 -12594612.27047  21458061.792    21458061.4774   21458061.8644
        47.4004         44.5004
 -21546326.99047 -16772152.71748  20181163.173    20181163.0494   20181168.1834
        51.0004         48.2004
  -3049833.82243  -2350489.90546  23695571.136    23695571.9934   23695577.0704
        39.9004         37.4004
  -9004242.93345  -6996475.17646  22558607.000    22558608.4334   22558612.3504
        43.9004         41.1004
 -11803144.05446  -9178284.70347  20746610.124    20746610.6454   20746616.0524
        49.3004         46.5004
 16  6 11  1 49 30.0000000  0  7G19G 2G23G 9G 3G 7G 6
    488178.54242    401466.53745  25089235.180    25089234.4514   25089239.6564
        35.6004         34.0004
  -8697087.83245  -6755609.36646  22474050.206    22474048.8254   22474049.0734
        44.6004         41.8004
 -16811536.49746 -12549583.05147  21469058.748    21469058.4394   21469059.0914
        47.4004         44.7004
 -21533056.36547 -16761811.96448  20183688.464    20183688.5604   20183693.3024
        51.0004         48.2004
  -2956291.75543  -2277599.96746  23713372.002    23713372.3394   23713378.2214
        39.7004         37.3004
  -9096839.90645  -7068628.63446  22540986.296    22540987.7834   22540992.1934
        43.9004         41.2004
 -11776621.88546  -9157618.08647  20751657.574    20751657.7794   20751663.1134
        49.3004         46.5004
 16  6 11  1 50  0.0000000  0  7G19G 2G23G 9G 3G 7G 6
    588447.31442    479598.01345  25108315.477    25108312.5234   25108317.6574
        35.7004         34.1004
  -8763316.78745  -6807216.33646  22461446.158    22461445.6404   22461446.2874
        44.4004         41.6004
 -16753456.59946 -12504325.99847  21480110.890    21480110.7564   21480111.2554
        47.4004         44.5004
 -21519350.99047 -16751132.44748  20186296.188    20186296.3894   20186301.4464
        51.0004         48.2004
  -2862599.13943  -2204592.77446  23731203.170    23731200.7934   23731208.0624
        39.6004         37.1004
  -9189154.85645  -7140562.32246  22523421.381    22523420.6574   22523424.7854
        43.9004         41.2004
 -11749508.59846  -9136490.85747  20756816.934    20756817.5804   20756822.3434
        49.3004         46.5004
 16  6 11  1 50 30.0000000  0  8G26G19G 2G23G 9G 3G 7G 6
    -68426.87652    -46608.10855  25004098.888    25004094.9884   25004100.6674
        34.9004         34.0004
    688764.29942    557767.06245  25127404.534    25127404.3224   25127406.3464
        35.9004         34.1004
  -8829136.22845  -6858504.19146  22448920.877    22448920.3844   22448921.2274
        44.4004         41.6004
 -16695085.74846 -12458842.22347  21491219.041    21491218.0904   21491218.1584
        47.4004         44.4004
 -21505211.77847 -16740114.87848  20188986.888    20188987.0844   20188991.9004
        51.0004         48.2004
  -2768756.85843  -2131468.91346  23749056.706    23749059.0364   23749065.6584
        39.6004         37.3004
  -9281185.00045  -7212274.10446  22505908.024    22505908.5794   22505911.9494
        44.1004         41.4004
 -11721804.84546  -9114903.52247  20762088.697    20762089.3794   20762094.1054
        49.3004         46.5004
 16  6 11  1 51  0.0000000  0  8G26G19G 2G23G 9G 3G 7G 6
    -83455.65342    -58318.86045  25001234.498    25001236.7334   25001242.6184
        35.7004         34.3004
    789126.61442    635971.40645  25146504.670    25146503.9724   25146508.2014
        36.1004         34.3004
  -8894543.78245  -6909471.11046  22436475.454    22436474.8264   22436474.7704
        44.4004         41.8004
 -16636425.37446 -12413132.85147  21502381.593    21502381.0634   21502381.5974
        47.4004         44.5004
 -21490639.72147 -16728760.02048  20191760.182    20191760.1104   20191764.8144
        51.0004         48.2004
  -2674765.72043  -2058229.09446  23766944.381    23766945.1574   23766950.6234
        39.4004         37.1004
  -9372927.75345  -7283761.93646  22488451.198    22488451.5254   22488454.4614
        44.2004         41.6004
 -11693511.34846  -9092856.64847  20767472.940    20767473.1994   20767478.1714
        49.5004         46.5004
 16  6 11  1 51 30.0000000  0  8G26G19G 2G23G 9G 3G 7G 6
    -97950.79752    -69613.75555  24998476.808    24998475.7054   24998482.8114
        35.7004         34.1004
    889531.49642    714208.95045  25165609.744    25165609.3254   25165614.0644
        36.3004         34.5004
  -8959537.49845  -6960115.54746  22424106.676    22424106.2904   22424106.7774
        44.6004         41.8004
 -16577476.96146 -12367199.02547  21513598.421    21513598.1564   21513598.9564
        47.2004         44.4004
 -21475635.75647 -16717068.61548  20194615.507    20194615.6644   20194620.1404
        51.0004         48.4004
  -2580626.60743  -1984873.96146  23784860.218    23784860.8144   23784864.3474
        39.4004         37.1004
  -9464381.06745  -7355024.23446  22471046.664    22471048.3824   22471051.6564
        44.4004         41.8004
 -11664628.80746  -9070350.77247  20772968.657    20772969.4154   20772974.7564
        49.5004         46.6004
 16  6 11  1 52  0.0000000  0  8G26G19G 2G23G 9G 3G 7G 6
   -111911.33342    -80492.07745  24995818.927    24995820.3784   24995829.0284
        35.7004         34.1004
    989975.85842    792477.26245  25184725.812    25184724.7374   25184726.1144
        36.4004         34.6004
  -9024115.10645  -7010435.74346  22411818.241    22411817.3574   22411818.8414
        44.6004         41.9004
 -16518241.66546 -12321041.65847  21524870.641    21524870.2934   21524870.5854
        47.2004         44.4004
 -21460200.86747 -16705041.41948  20197553.103    20197552.7384   20197557.3064
        51.2004         48.4004
  -2486340.41243  -1911404.22446  23802801.122    23802801.8884   23802805.7354
        39.4004         37.1004
  -9555542.15245  -7426058.82546  22453699.469    22453700.6584   22453703.4814
        44.4004         41.6004
 -11635157.93646  -9047386.46747  20778577.151    20778577.7824   20778582.8984
        49.5004         46.6004
 16  6 11  1 52 30.0000000  0  8G26G19G 2G23G 9G 3G 7G 6
   -125336.31742    -90953.10445  24993263.808    24993265.0484   24993273.5734
        35.7004         34.1004
   1090456.04342    870773.46845  25203846.225    25203844.7084   25203847.2384
        37.0004         35.2004
  -9088274.12845  -7060429.76646  22399608.208    22399608.2484   22399608.8074
        44.6004         41.8004
 -16458720.98346 -12274661.91447  21536196.920    21536196.9654   21536197.1264
        47.2004         44.4004
 -21444336.05447 -16692679.22348  20200571.143    20200571.3794   20200576.2144
        51.0004         48.4004
  -2391907.99643  -1837820.54346  23820771.368    23820771.9024   23820777.3994
        39.6004         37.1004
  -9646408.43145  -7496863.69846  22436409.085    22436409.6934   22436411.8804
        44.4004         41.8004
 -11605099.50846  -9023964.32147  20784297.531    20784297.5554   20784302.9754
        49.5004         46.6004
 16  6 11  1 53  0.0000000  0  8G26G19G 2G23G 9G 3G 7G 6
   -138224.77242   -100996.07145  24990814.095    24990812.4344   24990820.2214
        36.1004         34.1004
   1190969.66742    949095.73845  25222974.277    25222971.8254   25222975.0784
        37.1004         35.3004
  -9152012.61445  -7110096.10846  22387478.894    22387479.0344   22387480.3704
        44.4004         41.8004
 -16398916.28446 -12228060.85947  21547577.935    21547577.2714   21547577.4744
        47.2004         44.4004
 -21428042.29447 -16679982.77948  20203671.755    20203671.9124   20203676.8654
        51.0004         48.4004
  -2297330.19043  -1764123.58446  23838768.818    23838769.5744   23838774.4304
        39.2004         36.9004
  -9736977.39345  -7567436.88846  22419174.833    22419175.0574   22419178.1504
        44.4004         41.6004
 -11574454.33246  -9000084.96747  20790128.074    20790128.8274   20790134.3264
        49.3004         46.5004
 16  6 11  1 53 30.0000000  0  8G26G19G 2G23G 9G 3G 7G 6
   -150575.95242   -110620.34745  24988464.100    24988461.6414   24988468.2724
        35.7004         34.0004
   1291513.45942   1027441.52145  25242106.941    25242105.6104   25242108.0934
        37.5004         35.5004
  -9215328.45545  -7159433.11846  22375430.714    22375429.6124   22375431.5524
        44.4004         41.8004
 -16338829.32446 -12181239.86147  21559012.216    21559011.1554   21559011.7124
        47.4004         44.5004
 -21411320.58447 -16666952.86948  20206853.957    20206853.8534   20206858.9554
        51.0004         48.4004
  -2202607.82043  -1690313.99546  23856795.494    23856794.1104   23856799.6364
        39.0004         36.6004
  -9827247.07645  -7637776.87146  22401997.740    22401997.3354   22401999.6184
        44.2004         41.6004
 -11543223.15446  -8975748.99147  20796071.969    20796072.2534   20796077.0344
        49.3004         46.5004
 16  6 11  1 54  0.0000000  0  8G26G19G 2G23G 9G 3G 7G 6
   -162388.77642   -119825.12945  24986213.475    24986214.0314   24986222.2504
        35.6004         33.8004
   1392084.47643   1105808.47445  25261243.800    25261242.1004   25261246.8854
        37.6004         35.5004
  -9278219.48045  -7208439.10346  22363463.028    22363462.4894   22363464.1454
        44.6004         41.9004
 -16278461.24546 -12134199.81047  21570499.722    21570499.7374   21570499.3034
        47.2004         44.5004
 -21394171.92647 -16653590.27648  20210117.179    20210117.1264   20210122.3874
        51.0004         48.4004
  -2107741.80043  -1616392.44746  23874841.553    23874844.8304   23874852.1044
        38.7004         36.2004
  -9917214.38045  -7707881.23146  22384876.747    22384876.3824   22384879.8714
        44.1004         41.2004
 -11511406.86646  -8950957.08247  20802126.166    20802126.7014   20802131.5324
        49.3004         46.3004
 16  6 11  1 54 30.0000000  0  8G26G19G 2G23G 9G 3G 7G 6
   -173662.54642   -128609.87745  24984071.238    24984066.8124   24984074.7264
        35.2004         33.8004
   1492679.75743   1184194.36146  25280386.134    25280385.4144   25280389.1884
        38.2004         36.0004
  -9340683.66945  -7257112.47846  22351576.750    22351575.9824   22351577.0684
        44.6004         41.9004
 -16217813.53746 -12086941.86147  21582041.057    21582040.4604   21582040.1054
        47.2004         44.4004
 -21376597.35647 -16639895.79548  20213461.301    20213461.3914   20213466.7564
        51.0004         48.4004
  -2012732.99143  -1542359.57846  23892923.751    23892923.5704   23892933.5734
        38.7004         36.4004
 -10006877.29445  -7777748.41546  22367814.245    22367814.1694   22367817.5664
        43.9004         41.2004
 -11479006.26746  -8925709.86647  20808291.245    20808291.8144   20808297.1564
        49.1004         46.3004
 16  6 11  1 55  0.0000000  0  8G26G19G 2G23G 9G 3G 7G 6
   -184396.27642   -136973.78945  24982027.294    24982029.0734   24982033.5884
        35.2004         33.6004
   1593296.24843   1262596.74646  25299532.846    25299531.8074   25299535.8814
        38.2004         36.0004
  -9402718.79845  -7305451.51647  22339771.638    22339770.9554   22339772.3424
        44.8004         42.1004
 -16156887.54246 -12039467.06147  21593633.950    21593633.5554   21593634.1414
        47.2004         44.2004
 -21358597.87547 -16625870.22248  20216886.806    20216886.9464   20216891.8604
        51.0004         48.4004
  -1917582.22143  -1468216.14646  23911032.946    23911032.0124   23911039.5314
        38.9004         36.7004
 -10096233.10745  -7847376.27646  22350809.872    22350810.0654   22350813.4954
        43.9004         41.2004
 -11446022.26846  -8900008.05447  20814568.321    20814568.8464   20814574.1494
        49.1004         46.5004
 16  6 11  1 55 30.0000000  0  8G26G19G 2G23G 9G 3G 7G 6
   -194589.23242   -144916.43145  24980087.108    24980084.4424   24980095.2724
        35.0004         33.4004
   1693931.19943   1341013.51046  25318683.116    25318681.8904   25318686.1764
        38.3004         36.2004
  -9464322.97445  -7353454.76347  22328048.594    22328048.2474   22328049.9914
        44.9004         42.3004
 -16095684.63546 -11991776.49847  21605281.164    21605280.2404   21605281.0864
        47.2004         44.4004
 -21340174.53147 -16611514.36948  20220392.778    20220392.8784   20220397.3114
        51.0004         48.2004
  -1822290.39543  -1393962.79946  23929168.549    23929167.7414   23929173.5674
        39.4004         37.1004
 -10185279.14845  -7916762.78246  22333866.327    22333865.8184   22333868.2724
        43.9004         41.2004
 -11412455.75346  -8873852.33047  20820955.811    20820956.3464   20820961.8884
        49.3004         46.6004
 16  6 11  1 56  0.0000000  0  8G26G19G 2G23G 9G 3G 7G 6
   -204240.65342   -152437.08245  24978253.027    24978249.4734   24978258.6594
        35.6004         34.0004
   1794581.27543   1419442.07546  25337836.643    25337835.4944   25337838.5844
        38.2004         36.0004
  -9525493.83945  -7401120.35047  22316408.719    22316408.2594   22316409.2904
        45.1004         42.5004
 -16034206.21246 -11943871.23847  21616979.603    21616979.1554   21616979.9004
        47.0004         44.0004
 -21321328.33447 -16596829.01648  20223978.659    20223979.0864   20223983.6244
        51.0004         48.2004
  -1726858.48043  -1319600.28046  23947325.125    23947326.9864   23947332.0384
        39.7004         37.4004
 -10274013.18245  -7985906.15546  22316980.237    22316979.2744   22316983.1514
        43.9004         41.2004
 -11378307.65146  -8847243.42747  20827454.130    20827454.5574   20827460.2414
        49.5004         46.6004
 16  6 11  1 56 30.0000000  0  8G26G19G 2G23G 9G 3G 7G 6
   -213349.74642   -159535.01845  24976514.169    24976516.6754   24976523.8784
        35.7004         33.8004
   1895243.86143   1497880.38046  25356992.757    25356991.3264   25356995.2874
        38.2004         36.0004
  -9586229.44445  -7448446.77647  22304851.046    22304850.2624   22304851.1004
        45.3004         42.5004
 -15972453.92746 -11895752.58147  21628730.202    21628730.0324   21628730.9364
        46.9004         44.0004
 -21302060.34847 -16581814.99648  20227645.353    20227645.6544   20227650.1364
        51.0004         48.2004
  -1631287.24943  -1245129.18146  23965514.373    23965513.3014   23965520.5994
        39.7004         37.3004
 -10362432.87745  -8054804.58846  22300154.711    22300154.4424   22300157.7794
        44.1004         41.6004
 -11343578.87146  -8820182.05247  20834063.357    20834063.5514   20834068.4324
        49.5004         46.6004
 16  6 11  1 57  0.0000000  0  9G26G19G 2G23G 9G 3G 7G 6G30
   -221915.78942   -166209.87145  24974888.343    24974889.5074   24974895.2704
        35.7004         33.8004
   1995915.53743   1576325.77745  25376150.703    25376149.5804   25376152.0094
        37.8004         35.5004
  -9646527.51445  -7495432.26547  22293376.775    22293376.1324   22293376.5134
        45.3004         42.5004
 -15910429.17346 -11847421.60547  21640533.048    21640532.9594   21640533.3634
        46.9004         44.0004
 -21282371.57947 -16566473.09948  20231392.439    20231392.4084   20231396.8034
        51.0004         48.2004
  -1535577.55343  -1170550.21946  23983728.096    23983727.0694   23983731.4424
        39.7004         37.3004
 -10450535.58245  -8123456.01446  22283389.794    22283389.3544   22283392.3284
        44.2004         41.6004
 -11308270.41146  -8792668.97247  20840781.586    20840782.0524   20840787.5334
        49.3004         46.5004
                   -112672.67755  24220973.093
                        34.5004
 16  6 11  1 57 30.0000000  0  9G26G19G 2G23G 9G 3G 7G 6G30
   -229938.05642   -172460.99245  24973358.205    24973359.1714   24973369.5814
        36.1004         34.3004
   2096593.50042   1654776.09345  25395308.061    25395307.0824   25395310.4704
        37.0004         34.8004
  -9706386.21945  -7542075.39647  22281985.874    22281985.1394   22281986.2554
        45.1004         42.5004
 -15848133.15346 -11798879.25747  21652388.583    21652388.2474   21652389.0154
        47.0004         44.2004
 -21262263.12947 -16550804.17148  20235218.778    20235218.7394   20235223.1214
        51.0004         48.2004
  -1439730.34243  -1095864.12246  24001963.910    24001966.2084   24001969.7204
        39.4004         36.9004
 -10538319.54045  -8191859.07846  22266683.802    22266683.9104   22266687.2064
        44.4004         41.6004
 -11272383.24546  -8764704.95047  20847610.840    20847611.6074   20847616.6974
        49.3004         46.6004
                   -200926.59245  24199419.980
                        35.0004
 16  6 11  1 58  0.0000000  0  9G26G19G 2G23G 9G 3G 7G 6G30
   -237415.82142   -178287.81545  24971938.009    24971936.9484   24971944.4114
        35.9004         34.3004
   2197274.98642   1733229.12145  25414467.770    25414465.8394   25414467.9614
        36.1004         34.1004
  -9765803.33845  -7588374.42747  22270679.180    22270678.6944   22270679.6254
        45.3004         42.6004
 -15785567.18046 -11750126.56247  21664294.967    21664294.1064   21664294.3464
        47.0004         44.2004
 -21241736.00347 -16534809.00348  20239124.850    20239124.9504   20239129.4474
        51.0004         48.2004
  -1343746.46443  -1021071.47146  24020226.416    24020230.2834   24020234.7804
        39.2004         36.7004
 -10625781.09145  -8260010.92246  22250040.395    22250041.2724   22250044.0604
        44.4004         41.8004
 -11235918.38046  -8736290.77847  20854550.069    20854550.3464   20854555.4804
        49.3004         46.5004
                   -289128.53345  24177881.575                    24177882.5024
                        35.2004
 16  6 11  1 58 30.0000000  0  9G26G19G 2G23G 9G 3G 7G 6G30
   -244348.46942   -183689.86245  24970616.968    24970617.1864   24970624.5764
        35.9004         34.3004
   2297957.11042   1811682.65845  25433625.485    25433623.0504   25433627.0454
        35.2004         33.4004
  -9824776.94845  -7634327.85547  22259456.786    22259456.7394   22259457.5574
        45.3004         42.6004
 -15722732.87546 -11701164.77847  21676250.905    21676250.7794   21676251.5644
        47.0004         44.0004
 -21220791.32347 -16518488.47148  20243110.258    20243110.5604   20243115.0484
        51.0004         48.2004
  -1247626.78343   -946173.02046  24038523.177    24038520.6404   24038526.6184
        39.0004         36.6004
 -10712918.44745  -8327910.12246  22233459.701    22233458.3404   22233462.8554
        44.4004         41.8004
 -11198876.88146  -8707427.28047  20861598.236    20861598.6244   20861604.4734
        49.3004         46.3004
   -518356.01842   -377276.54345  24156352.774    24156352.4004   24156356.3714
        37.0004         35.2004
 16  6 11  1 59  0.0000000  0  9G26G19G 2G23G 9G 3G 7G 6G30
   -250735.31742   -188666.61345  24969403.143    24969403.6564   24969413.2854
        36.4004         35.0004
   2398636.82742   1890134.29745  25452785.123    25452784.2164   25452786.9874
        34.7004         33.4004
  -9883305.00245  -7679934.10247  22248319.189    22248318.5134   22248319.8834
        45.5004         42.6004
 -15659631.34446 -11651994.76347  21688259.975    21688259.3554   21688259.3964
        47.0004         44.2004
 -21199430.15047 -16501843.39448  20247175.471    20247175.5944   20247179.8994
        51.0004         48.2004
  -1151372.21543   -871169.47646  24056837.956    24056838.1314   24056842.8564
        39.0004         36.6004
 -10799729.30645  -8395554.93346  22216938.412    22216938.6824   22216942.6724
        44.6004         41.8004
 -11161259.73546  -8678115.22747  20868756.501    20868757.1524   20868762.8034
        49.1004         46.3004
   -631407.64552   -465368.64755  24134840.016    24134838.9004   24134843.7914
        37.1004         35.2004
 16  6 11  1 59 30.0000000  0  9G26G19G 2G23G 9G 3G 7G 6G30
   -256575.76642   -193217.65645  24968291.726    24968292.0184   24968300.4364
        36.6004         34.5004
   2499311.15941   1968581.70145  25471943.401    25471943.1734   25471942.4684
        33.8004         32.4004
  -9941385.38345  -7725191.51347  22237267.177    22237267.1314   22237267.1524
        45.5004         42.6004
 -15596264.49546 -11602617.99547  21700317.245    21700316.9004   21700317.3384
        46.9004         44.0004
 -21177653.55247 -16484874.60548  20251319.225    20251319.2374   20251324.0294
        51.0004         48.2004
  -1054983.70743   -796061.53646  24075178.066    24075180.0034   24075186.4184
        38.9004         36.6004
 -10886211.23345  -8462943.41546  22200482.791    22200482.7774   22200485.0224
        44.6004         41.8004
 -11123068.10546  -8648355.52547  20876024.440    20876024.9724   20876030.5594
        49.1004         46.3004
   -744384.95042   -553402.86745  24113338.749    24113338.3904   24113346.0654
        37.5004         35.3004
 16  6 11  2  0  0.0000000  0  9G26G19G 2G23G 9G 3G 7G 6G30
   -261869.16042   -197342.35145  24967285.084    24967283.4194   24967290.4094
        35.7004         34.0004
   2599977.37041   2047022.79045  25491098.715    25491097.5204   25491097.0344
        33.1004         31.9004
  -9999016.17245  -7770098.60647  22226300.325    22226299.5224   22226299.8744
        45.5004         42.6004
 -15532633.55146 -11553035.44747  21712425.802    21712425.6074   21712426.3474
        46.9004         43.9004
 -21155462.61247 -16467582.95948  20255542.406    20255542.2194   20255546.9964
        51.0004         48.2004
   -958462.03143   -720849.86446  24093546.106    24093546.8734   24093553.4714
        38.9004         36.6004
 -10972361.87845  -8530073.76746  22184088.508    22184088.2924   22184091.1744
        44.6004         41.9004
 -11084303.02146  -8618148.97447  20883401.105    20883401.6644   20883406.9984
        48.9004         46.1004
   -857285.33943   -641377.13545  24091852.500    24091852.8964   24091862.8204
        37.6004         35.5004
 16  6 11  2  0 30.0000000  0  9G26G19G 2G23G 9G 3G 7G 6G30
   -266614.93042   -201040.33345  24966381.477    24966382.3664   24966390.0614
        35.9004         34.3004
   2700632.31151   2125455.10655  25510254.661    25510253.1894
        32.6004         32.0004
 -10056195.21145  -7814653.69347  22215419.562    22215419.0184   22215419.4914
        45.6004         43.0004
 -15468739.78846 -11503248.10847  21724584.309    21724583.5064   21724585.1974
        46.9004         44.0004
 -21132858.41547 -16449969.29848  20259843.976    20259843.8924   20259848.4744
        51.0004         48.2004
   -861808.14543   -645535.16246  24111942.719    24111940.9414   24111947.6044
        39.0004         36.7004
 -11058178.84145  -8596944.12746  22167756.978    22167758.1944   22167760.9474
        44.6004         41.9004
 -11044965.62646  -8587496.47147  20890887.240    20890887.6784   20890893.0964
        48.9004         46.3004
   -970106.26843   -729289.48145  24070385.691    24070385.8494   24070392.6304
        37.8004         35.9004
 16  6 11  2  1  0.0000000  0  9G26G19G 2G23G 9G 3G 7G 6G30
   -270812.61942   -204311.27445  24965584.723    24965583.9834   24965589.4734
        36.4004         34.6004
   2801273.13351   2203876.39755  25529403.736    25529398.3234
        31.9004         31.3004
 -10112920.65745  -7858855.30647  22204625.056    22204624.5054   22204625.9474
        45.8004         43.2004
 -15404584.64246 -11453257.09147  21736793.015    21736792.5874   21736793.1184
        46.9004         43.9004
 -21109842.06847 -16432034.47748  20264223.867    20264223.7874   20264228.2624
        51.0004         48.2004
   -765022.94243   -570118.14346  24130355.671    24130357.6634   24130363.3764
        39.2004         36.9004
 -11143659.59345  -8663552.49546  22151491.691    22151492.2184   22151494.1244
        44.8004         41.9004
 -11005057.07946  -8556398.90947  20898481.370    20898481.5524   20898487.2184
        48.9004         45.9004
  -1082845.13343   -817137.89846  24048935.116    24048932.8554   24048938.2234
        38.0004         36.0004
 16  6 11  2  1 30.0000000  0  8G26G 2G23G 9G 3G 7G 6G30
   -274461.61542   -207154.66645  24964887.404    24964888.4584   24964895.4154
        36.4004         34.8004
 -10169190.34345  -7902701.79747  22193917.643    22193916.7904   22193917.3614
        46.0004         43.2004
 -15340169.32446 -11403063.33347  21749050.169    21749049.4954   21749050.8824
        46.7004         43.9004
 -21086414.68947 -16413779.37548  20268681.702    20268681.6454   20268686.4274
        51.0004         48.2004
   -668107.30243   -494599.46346  24148801.617    24148800.8544   24148806.4044
        39.2004         36.9004
 -11228801.64745  -8729896.94147  22135288.914    22135290.3344   22135292.1494
        44.8004         42.1004
 -10964578.52946  -8524857.19047  20906183.731    20906184.3264   20906190.0004
        48.8004         45.9004
  -1195499.42243   -904920.41246  24027497.366    24027496.8774   24027501.2354
        38.3004         36.0004
 16  6 11  2  2  0.0000000  0  8G26G 2G23G 9G 3G 7G 6G30
   -277561.41842   -209570.12245  24964298.958    24964299.9614   24964306.7924
        37.0004         35.0004
 -10225002.45545  -7946191.73347  22183296.444    22183295.8464   22183296.9874
        46.0004         43.2004
 -15275495.42146 -11352668.09047  21761356.743    21761356.6344   21761358.4104
        46.7004         43.7004
 -21062577.38147 -16395204.84048  20273217.785    20273217.6874   20273222.2704
        51.0004         48.2004
   -571062.19343   -418979.91346  24167267.001    24167267.1564   24167272.9284
        39.2004         36.9004
 -11313602.97045  -8795975.86947  22119151.582    22119152.6654   22119154.4354
        44.9004         42.1004
 -10923531.16346  -8492872.23447  20913995.551    20913995.9294   20914000.5244
        48.8004         45.8004
  -1308066.47243   -992634.93846  24006075.317    24006074.4194   24006079.4454
        38.5004         36.2004
 16  6 11  2  2 30.0000000  0  8G26G 2G23G 9G 3G 7G 6G30
   -280111.50642   -211557.23345  24963811.114    24963810.7044   24963822.7164
        36.6004         34.6004
 -10280354.86145  -7989323.47247  22172763.137    22172762.4934   22172763.2234
        46.0004         43.0004
 -15210564.27546 -11302072.39847  21773713.106    21773712.6914   21773714.2284
        46.5004         43.7004
 -21038331.24847 -16376311.75148  20277832.038    20277831.7554   20277835.9214
        51.0004         48.2004
   -473888.44743   -343260.13546  24185759.560    24185759.6674   24185765.3024
        39.2004         36.9004
 -11398061.32645  -8861787.55047  22103080.372    22103080.1414   22103083.0224
        44.9004         42.3004
 -10881916.19146  -8460444.98247  20921914.338    20921914.5464   20921919.9904
        48.8004         45.9004
  -1420543.82343  -1080279.54846  23984667.492    23984667.9944   23984675.4814
        38.3004         36.0004
 16  6 11  2  3  0.0000000  0  8G26G 2G23G 9G 3G 7G 6G30
   -282111.40942   -213115.62445  24963431.785    24963435.8724   24963440.1994
        36.3004         34.3004
 -10335245.80145  -8032095.62147  22162317.726    22162317.2864   22162317.5504
        45.8004         43.0004
 -15145377.25346 -11251277.32747  21786117.733    21786117.8284   21786118.6574
        46.5004         43.7004
 -21013677.42747 -16357100.97748  20282523.259    20282523.2734   20282527.7624
        51.0004         48.2004
   -376587.02643   -267440.87046  24204274.926    24204274.0754   24204280.0074
        39.2004         36.7004
 -11482174.05345  -8927329.91547  22087073.213    22087074.4004   22087077.0394
        45.1004         42.3004
 -10839734.83746  -8427576.40047  20929940.818    20929941.4164   20929946.8474
        48.6004         45.8004
  -1532928.76943  -1167852.17346  23963282.934    23963283.4704   23963289.4744
        38.3004         36.2004
 16  6 11  2  3 30.0000000  0  8G26G 2G23G 9G 3G 7G 6G30
   -283560.76442   -214245.02845  24963157.411    24963157.2304   24963163.5284
        36.1004         34.3004
 -10389673.03145  -8074506.43447  22151960.342    22151959.9534   22151961.2174
        45.8004         43.2004
 -15079935.94446 -11200284.09447  21798571.321    21798570.8004   21798571.7344
        46.5004         43.7004
 -20988617.00547 -16337573.37348  20287291.648    20287291.8444   20287296.2364
        51.0004         48.2004
   -279158.71843   -191522.74246  24222816.527    24222814.9494   24222820.6244
        38.9004         36.6004
 -11565938.51345  -8992600.88547  22071134.264    22071134.4554   22071137.0254
        45.1004         42.5004
 -10796988.38446  -8394267.49247  20938075.292    20938075.7564   20938081.6784
        48.6004         45.8004
  -1645218.77643  -1255350.79446  23941915.321    23941916.1784   23941922.0174
        38.3004         36.0004
 16  6 11  2  4  0.0000000  0  8G26G 2G23G 9G 3G 7G 6G30
   -284459.01942   -214944.96445  24962984.958    24962984.8954   24962994.4704
        36.3004         34.5004
 -10443634.88745  -8116554.62147  22141692.685    22141691.5644   22141692.3564
        46.0004         43.0004
 -15014241.56546 -11149093.68147  21811072.280    21811072.5294   21811072.9664
        46.5004         43.5004
 -20963151.14647 -16317729.84948  20292137.486    20292137.8604   20292142.2954
        50.8004         48.2004
   -181604.58243   -115506.56646  24241373.212    24241376.6864   24241382.8864
        38.5004         36.2004
 -11649352.84345  -9057599.05447  22055260.833    22055260.8574   22055263.3504
        45.3004         42.5004
 -10753678.08646  -8360519.21747  20946316.281    20946317.0364   20946323.8154
        48.6004         45.8004
  -1757411.27943  -1342773.47846  23920566.678    23920566.3294   23920570.8524
        38.3004         36.2004
 16  6 11  2  4 30.0000000  0  8G26G 2G23G 9G 3G 7G 6G30
   -284805.91842   -215215.26045  24962921.149    24962922.1014   24962927.1134
        36.8004         35.2004
 -10497129.30445  -8158238.57347  22131512.267    22131511.3234   22131512.8944
        45.8004         43.2004
 -14948295.38345 -11097707.05747  21823621.306    21823621.1914   21823622.0284
        46.3004         43.5004
 -20937280.96347 -16297571.26148  20297060.664    20297060.7444   20297065.4144
        50.8004         48.2004
    -83925.42343    -39392.93246  24259967.862    24259964.8714   24259972.5764
        38.3004         36.2004
 -11732415.00645  -9122322.78847  22039454.107    22039454.9724   22039457.4254
        45.3004         42.5004
 -10709805.22246  -8326332.58047  20954665.827    20954666.0294   20954671.9684
        48.6004         45.9004
  -1869503.66943  -1430118.14246  23899237.180    23899237.0624   23899241.7614
        38.5004         36.2004
 16  6 11  2  5  0.0000000  0  8G26G 2G23G 9G 3G 7G 6G30
   -284600.98942   -215055.54145  24962959.605    24962958.6594   24962966.4974
        37.1004         35.2004
 -10550154.62545  -8199556.98747  22121421.413    22121421.0514   22121421.7634
        45.8004         43.2004
 -14882098.91445 -11046125.40447  21836218.275    21836218.3114   21836218.5004
        46.3004         43.3004
 -20911007.62647 -16277098.52748  20302060.723    20302060.5504   20302065.0384
        51.0004         48.2004
     13877.84043     36817.33746  24278580.577    24278577.6544   24278582.8244
        38.3004         36.0004
 -11815122.05545  -9186769.80147  22023715.993    22023715.8224   22023719.1514
        45.5004         42.6004
 -10665371.13746  -8291708.63547  20963121.393    20963121.8874   20963127.1914
        48.6004         45.9004
  -1981493.34343  -1517382.74746  23877925.367    23877924.1804   23877929.9914
        38.5004         36.2004
 16  6 11  2  5 30.0000000  0  9G26G 2G23G 9G 3G 7G 6G30G16
   -283843.95542   -214465.66445  24963102.913    24963104.5874   24963109.7914
        36.6004         34.5004
 -10602708.68145  -8240508.18947  22111421.333    22111420.8644   22111421.3604
        45.8004         43.2004
 -14815653.38645 -10994349.67247  21848862.775    21848862.8144   21848862.7094
        46.3004         43.5004
 -20884332.26647 -16256312.52948  20307136.654    20307136.7514   20307141.1324
        51.0004         48.2004
    111804.22743    113123.60546  24297205.984    24297211.8264   24297217.7364
        38.3004         36.0004
 -11897471.55545  -9250938.21747  22008045.044    22008045.9434   22008048.4004
        45.5004         42.8004
 -10620377.14946  -8256648.39147  20971683.398    20971683.9304   20971689.7434
        48.8004         46.1004
  -2093377.74343  -1604565.35246  23856633.362    23856633.1774   23856638.2294
        38.5004         36.2004
   -195168.70952   -136853.94355  24510248.045    24510248.2554   24510253.9414
        35.2004         34.0004
 16  6 11  2  6  0.0000000  0  9G26G 2G23G 9G 3G 7G 6G30G16
   -282534.50042   -213445.29445  24963353.217    24963351.7334   24963358.9064
        35.7004         34.0004
 -10654789.80745  -8281090.87847  22101509.991    22101509.4454   22101510.6024
        45.8004         43.2004
 -14748960.16345 -10942380.93947  21861554.077    21861553.5564   21861553.9284
        46.3004         43.5004
 -20857256.03547 -16235214.16448  20312288.661    20312289.0804   20312293.5534
        51.0004         48.4004
    209852.91643    189525.17445  24315867.074    24315868.8944   24315876.3254
        38.0004         35.9004
 -11979461.50145  -9314826.46447  21992443.297    21992443.8294   21992446.2314
        45.6004         43.0004
 -10574824.64046  -8221152.94147  20980351.914    20980352.3554   20980357.7684
        48.9004         46.1004
  -2205154.28343  -1691663.87546  23835362.911    23835361.5354   23835368.5384
        38.5004         36.4004
   -244628.16752   -175393.78455  24500839.376    24500837.5754   24500840.3564
        35.6004         34.0004
 16  6 11  2  6 30.0000000  0  9G26G 2G23G 9G 3G 7G 6G30G16
   -280672.26542   -211994.14445  24963705.746    24963705.3224   24963713.4594
        35.9004         34.3004
 -10706395.97345  -8321303.46347  22091690.118    22091689.6984   22091690.7714
        46.0004         43.2004
 -14682020.88745 -10890220.46947  21874291.776    21874291.2604   21874292.3614
        46.3004         43.5004
 -20829780.09247 -16213804.33348  20317517.482    20317517.7584   20317522.4834
        51.2004         48.4004
    308022.87343    266021.21945  24334554.736    24334551.6744   24334556.6474
        38.2004         35.9004
 -12061089.82445  -9378432.92347  21976910.043    21976909.6094   21976913.3124
        45.8004         43.0004
 -10528714.96146  -8185223.33847  20989126.379    20989126.9664   20989131.8624
        48.9004         45.9004
  -2316820.32443  -1778676.32946  23814115.247    23814114.5544   23814120.7984
        38.9004         36.7004
   -293604.28742   -213556.95245  24491519.940    24491517.7444   24491518.6704
        35.7004         34.0004
 16  6 11  2  7  0.0000000  0  9G26G 2G23G 9G 3G 7G 6G30G16
   -278257.07442   -210112.21745  24964165.818    24964164.9364   24964173.4374
        35.9004         34.1004
 -10757525.31145  -8361144.50347  22081960.473    22081959.8434   22081960.9714
        46.0004         43.0004
 -14614836.79645 -10837869.23747  21887076.928    21887076.4204   21887076.8214
        46.2004         43.2004
 -20801905.59447 -16192083.94248  20322822.389    20322822.1324   20322826.7634
        51.2004         48.4004
    406313.27643    342611.08445  24353260.126    24353254.3804   24353260.5964
        37.6004         35.3004
 -12142354.15845  -9441755.75547  21961444.940    21961445.3754   21961449.1174
        45.8004         43.2004
 -10482049.54346  -8148860.68547  20998006.383    20998006.9674   20998012.1844
        48.9004         46.1004
  -2428373.34443  -1865600.70346  23792886.460    23792885.8334   23792892.8734
        39.0004         36.7004
   -342095.19042   -251342.01545  24482293.274    24482290.8004   24482294.7634
        36.1004         34.3004
 16  6 11  2  7 30.0000000  0  9G26G 2G23G 9G 3G 7G 6G30G16
   -275288.67942   -207799.20845  24964731.513    24964731.1794   24964736.7234
        35.6004         34.0004
 -10808176.14745  -8400612.68047  22072321.677    22072320.9734   22072322.3044
        45.8004         43.0004
 -14547409.03345 -10785328.13547  21899907.126    21899907.0004   21899908.2374
        46.0004         43.2004
 -20773633.70447 -16170053.89648  20328202.243    20328202.3044   20328206.6084
        51.2004         48.4004
    504723.14742    419294.05945  24371980.483    24371981.6484   24371986.1514
        37.3004         35.2004
 -12223251.98445  -9504792.99347  21946052.202    21946051.3274   21946054.8364
        46.0004         43.3004
 -10434829.77546  -8112066.06147  21006992.314    21006992.5234   21006998.0104
        48.9004         45.9004
  -2539810.67243  -1952434.91646  23771682.228    23771680.1844   23771686.6344
        39.2004         36.9004
   -390098.27242   -288747.03045  24473156.547    24473155.2674   24473159.9484
        36.3004         34.5004
 16  6 11  2  8  0.0000000  0  9G26G 2G23G 9G 3G 7G 6G30G16
   -271766.74542   -205054.83745  24965400.184    24965397.5224   24965402.4564
        35.0004         33.4004
 -10858346.44345  -8439706.40347  22062774.228    22062774.2404   22062774.7994
        45.6004         43.0004
 -14479739.27545 -10732598.45647  21912785.499    21912784.5194   21912785.2444
        46.2004         43.2004
 -20744965.59347 -16147715.10548  20333657.288    20333657.3154   20333661.5274
        51.0004         48.2004
    603251.47652    496069.40655  24390724.774    24390729.1864   24390737.4594
        37.3004         35.2004
 -12303781.31145  -9567543.08247  21930727.401    21930727.1014   21930730.5224
        46.2004         43.3004
 -10387057.10646  -8074840.61647  21016083.379    21016083.5104   21016089.1314
        48.8004         45.9004
  -2651129.79043  -2039177.01246  23750495.794    23750496.0384   23750503.7264
        39.4004         37.1004
   -437610.70142   -325769.70045  24464118.234    24464114.7324   24464118.2534
        36.8004         34.8004
 16  6 11  2  8 30.0000000  0  9G26G 2G23G 9G 3G 7G 6G30G16
   -267691.21842   -201879.08945  24966176.586    24966176.1494   24966181.3104
        34.7004         33.4004
 -10908034.31645  -8478424.22547  22053319.917    22053319.2374   22053320.0574
        45.6004         42.6004
 -14411828.66545 -10679681.09947  21925708.407    21925708.0054   21925707.8944
        46.0004         43.3004
 -20715902.45347 -16125068.50148  20339188.128    20339187.9904   20339192.2794
        51.0004         48.2004
    701897.52943    572936.37745  24409500.091    24409502.1954   24409510.4964
        37.6004         35.7004
 -12383939.75045  -9630004.18247  21915472.910    21915473.1204   21915477.3014
        46.2004         43.3004
 -10338733.01446  -8037185.49147  21025278.376    21025278.9644   21025284.9554
        48.6004         45.8004
  -2762328.03443  -2125824.91946  23729334.771    23729334.9884   23729342.4414
        39.4004         37.1004
   -484630.42842   -362408.44145  24455164.924    24455167.8214   24455171.4004
        36.8004         34.8004
 16  6 11  2  9  0.0000000  0  9G26G 2G23G 9G 3G 7G 6G30G16
   -263061.76442   -198271.70945  24967054.917    24967055.7554   24967063.7364
        34.7004         33.1004
 -10957238.17145  -8516764.88247  22043957.053    22043956.3574   22043956.9894
        45.5004         42.6004
 -14343678.80445 -10626577.31847  21938676.848    21938676.0204   21938677.1594
        46.2004         43.5004
 -20686445.45147 -16102114.99248  20344793.347    20344793.3524   20344797.7134
        51.0004         48.0004
    800660.23643    649894.32745  24428296.983    24428295.6564   24428303.0014
        37.6004         35.5004
 -12463724.90645  -9692174.40347  21900290.561    21900291.5504   21900294.2194
        46.2004         43.5004
 -10289858.95546  -7999101.81947  21034578.989    21034579.6624   21034585.4304
        48.6004         45.8004
  -2873402.80643  -2212376.62646  23708198.368    23708198.8714   23708205.4214
        39.6004         37.3004
   -531155.24542   -398661.55645  24446317.514    24446315.3454   24446319.1854
        36.8004         35.0004
 16  6 11  2  9 30.0000000  0  9G26G 2G23G 9G 3G 7G 6G30G16
   -257878.32742   -194232.69345  24968042.174    24968042.2044   24968047.8134
        34.5004         33.3004
 -11005956.23245  -8554726.99747  22034685.536    22034685.0384   22034685.9074
        45.3004         42.6004
 -14275290.79645 -10573287.97647  21951690.354    21951689.8424   21951690.3134
        46.2004         43.3004
 -20656595.77547 -16078855.50048  20350473.222    20350473.1524   20350477.8054
        50.8004         48.0004
    899538.76443    726942.45345  24447119.894    24447114.5424   24447119.4724
        37.8004         35.7004
 -12543134.61445  -9754052.06947  21885180.058    21885179.5024   21885182.8784
        46.0004         43.2004
 -10240436.47146  -7960590.80347  21043983.858    21043984.3224   21043989.5474
        48.6004         45.8004
  -2984351.54943  -2298830.12146  23687086.867    23687086.6164   23687093.1214
        39.6004         37.3004
   -577182.80242   -434527.11345  24437558.424    24437554.6254   24437557.5624
        37.0004         35.0004
 16  6 11  2 10  0.0000000  0  9G26G 2G23G 9G 3G 7G 6G30G16
   -252140.73542   -189761.83245  24969133.801    24969135.7934   24969142.8084
        34.7004         33.3004
 -11054186.53945  -8592309.04247  22025507.264    22025507.0914   22025507.9914
        45.1004         42.3004
 -14206666.25145 -10519814.30447  21964749.278    21964748.6854   21964748.6544
        46.2004         43.2004
 -20626354.60347 -16055290.95448  20356227.507    20356227.7084   20356232.6274
        50.8004         48.0004
    998532.10143    804080.07845  24465952.536    24465951.9834   24465957.3094
        38.0004         35.9004
 -12622166.82345  -9815635.58447  21870139.733    21870140.2644   21870143.8264
        46.0004         43.2004
 -10190467.04246  -7921653.60047  21053492.633    21053493.0864   21053498.4784
        48.4004         45.6004
  -3095171.68243  -2385183.40446  23665997.689    23665997.9004   23666003.9814
        39.6004         37.3004
   -622710.65042   -470003.32745  24428888.689    24428890.1394   24428894.8334
        36.3004         34.3004
 16  6 11  2 10 30.0000000  0  9G26G 2G23G 9G 3G 7G 6G30G16
   -245848.86441   -184859.10045  24970329.553    24970331.4754   24970340.3554
        34.3004         33.1004
 -11101927.23245  -8629509.57746  22016422.533    22016422.1094   22016422.4924
        44.9004         41.9004
 -14137806.22445 -10466157.15147  21977852.836    21977852.1184   21977853.0924
        46.0004         43.2004
 -20595723.12347 -16031422.26248  20362056.855    20362056.9424   20362061.5994
        50.8004         48.0004
   1097639.23343    881306.43145  24484807.033    24484810.0254   24484815.5854
        38.0004         35.7004
 -12700819.39645  -9876923.28147  21855173.261    21855174.0554   21855176.0694
        46.0004         43.2004
 -10139952.27046  -7882291.44947  21063105.642    21063106.1384   21063111.2674
        48.4004         45.8004
  -3205860.58043  -2471434.43646  23644934.040    23644934.4484   23644940.0544
        39.6004         37.1004
   -667736.20042   -505088.16145  24420323.598    24420321.7774   24420326.5464
        35.7004         34.1004
 16  6 11  2 11  0.0000000  0  9G26G 2G23G 9G 3G 7G 6G30G16
   -239002.65242   -179524.39545  24971634.297    24971635.4074   24971642.8714
        34.5004         33.1004
 -11149177.04245  -8666327.60247  22007431.788    22007430.8874   22007431.8954
        44.9004         42.3004
 -14068712.13945 -10412317.60247  21991000.413    21990999.8344   21991000.7104
        46.0004         43.0004
 -20564702.54847 -16007250.38648  20367959.953    20367960.0184   20367964.9434
        50.8004         48.0004
   1196859.42943    958620.83345  24503687.942    24503691.4564   24503697.7374
        37.8004         35.7004
 -12779089.98145  -9937913.32247  21840279.507    21840279.5524   21840282.0034
        46.0004         43.3004
 -10088893.67646  -7842505.53847  21072821.439    21072822.0434   21072827.5154
        48.4004         45.6004
  -3316415.62243  -2557581.15246  23623897.680    23623897.4794   23623902.3274
        39.7004         37.4004
   -712257.45442   -539780.05445  24411851.085    24411850.0334   24411854.4834
        35.6004         34.0004
 16  6 11  2 11 30.0000000  0  9G26G 2G23G 9G 3G 7G 6G30G16
   -231602.09342   -173757.74345  24973043.787    24973045.0134   24973049.5274
        34.9004         33.4004
 -11195933.74245  -8702761.38647  21998533.838    21998533.5134   21998534.5744
        45.1004         42.6004
 -13999385.43045 -10358296.79947  22004192.897    22004192.6604   22004192.9454
        45.8004         42.8004
 -20533294.08647 -15982776.25948  20373936.479    20373936.6894   20373941.6404
        50.8004         48.0004
   1296191.58043   1036022.47545  24522595.455    24522592.1094   24522599.7794
        38.0004         35.9004
 -12856976.46545  -9998604.07147  21825458.182    21825457.9344   21825460.1054
        46.0004         43.3004
 -10037292.85346  -7802297.12547  21082640.909    21082641.2264   21082646.6524
        48.4004         45.4004
  -3426834.25543  -2643621.59746  23602885.282    23602884.6704   23602891.5634
        39.6004         37.3004
   -756272.01842   -574077.11845  24403476.173    24403477.0624   24403478.4154
        35.6004         34.1004
 16  6 11  2 12  0.0000000  0  9G26G 2G23G 9G 3G 7G 6G30G16
   -223646.94042   -167558.93745  24974555.078    24974555.5374   24974565.1984
        35.2004         33.8004
 -11242195.62945  -8738809.60047  21989730.510    21989730.2524   21989731.0934
        45.3004         42.6004
 -13929827.39445 -10304095.73847  22017429.669    22017429.5424   22017429.8094
        45.6004         42.8004
 -20501498.92247 -15958000.80847  20379987.034    20379987.1584   20379991.8004
        50.7004         47.8004
   1395634.84843   1113510.66845  24541522.526    24541517.6624   24541523.1094
        37.6004         35.3004
 -12934476.38245 -10058993.60347  21810710.350    21810710.1014   21810712.9314
        46.2004         43.3004
  -9985151.38446  -7761667.43247  21092562.967    21092563.2584   21092568.7884
        48.4004         45.4004
  -3537113.81543  -2729553.67846  23581898.281    23581898.6334   23581906.6524
        39.7004         37.4004
   -799778.01642   -607977.90645  24395198.240    24395197.5344   24395199.4594
        35.7004         34.3004
 16  6 11  2 12 30.0000000  0  9G26G 2G23G 9G 3G 7G 6G30G16
   -215137.46242   -160928.14045  24976176.516    24976174.1824   24976183.0904
        35.6004         34.0004
 -11287961.15245  -8774471.04647  21981022.327    21981021.1714   21981022.2184
        45.5004         42.8004
 -13860039.38645 -10249715.48747  22030709.142    22030709.6804   22030710.1424
        45.6004         43.0004
 -20469318.28347 -15932924.99247  20386110.947    20386110.7474   20386115.8054
        50.7004         47.8004
   1495188.13143   1191084.62045  24560455.398    24560462.1874   24560466.6144
        37.6004         35.7004
 -13011587.91845 -10119080.49647  21796034.848    21796036.4094   21796039.4704
        46.0004         43.2004
  -9932470.93846  -7720617.74647  21102587.488    21102587.9664   21102594.1784
        48.2004         45.4004
  -3647251.77043  -2815375.41546  23560940.219    23560940.2584   23560947.7454
        39.9004         37.6004
   -842772.89842   -641480.40045  24387020.522    24387016.7844   24387017.7614
        35.7004         34.0004
 16  6 11  2 13  0.0000000  0  9G26G 2G23G 9G 3G 7G 6G30G16
   -206073.48542   -153865.28645  24977899.874    24977900.8364   24977908.5304
        35.6004         34.0004
 -11333228.77645  -8809744.51347  21972408.654    21972407.3854   21972407.5174
        45.6004         43.0004
 -13790022.83645 -10195157.14547  22044034.578    22044033.2964   22044034.2994
        45.6004         42.8004
 -20436753.36347 -15907549.73147  20392307.526    20392307.7154   20392312.6454
        50.7004         47.8004
   1594850.64542   1268743.73845  24579422.818    24579425.0434   24579434.8074
        37.5004         35.2004
 -13088308.28845 -10178862.57947  21781435.499    21781436.3174   21781439.7064
        46.0004         43.2004
  -9879253.12246  -7679149.31947  21112714.714    21112715.0614   21112721.3504
        48.4004         45.6004
  -3757245.43643  -2901084.69146  23540009.401    23540009.4224   23540016.2794
        40.1004         37.8004
   -885254.42742   -674582.85445  24378933.961    24378931.1604   24378933.3354
        35.6004         34.0004
 16  6 11  2 13 30.0000000  0  9G26G 2G23G 9G 3G 7G 6G30G16
   -196455.06542   -146370.36045  24979732.805    24979732.3904   24979740.6364
        36.1004         34.5004
 -11377996.56545  -8844628.50247  21963888.365    21963887.5824   21963888.8424
        45.6004         42.8004
 -13719779.22745 -10140421.87347  22057400.497    22057400.2774   22057400.5124
        45.6004         42.6004
 -20403805.37647 -15881875.97547  20398577.560    20398577.8084   20398582.3424
        50.7004         47.8004
   1694621.45342   1346487.16645  24598411.497    24598412.8194   24598420.0474
        37.5004         35.3004
 -13164635.98645 -10238338.67547  21766911.930    21766912.1484   21766914.6004
        46.0004         43.3004
  -9825499.62046  -7637263.49147  21122943.379    21122943.8924   21122949.5274
        48.2004         45.4004
  -3867092.28643  -2986679.58346  23519107.289    23519106.4284   23519112.5034
        40.1004         37.8004
   -927220.39142   -707283.57945  24370942.760    24370943.7534   24370952.1574
        35.7004         34.0004
 16  6 11  2 14  0.0000000  0  9G26G 2G23G 9G 3G 7G 6G30G16
   -186282.30842   -138443.52545  24981666.438    24981667.9414   24981674.8564
        36.8004         35.0004
 -11422263.01945  -8879121.83347  21955464.968    21955464.3254   21955464.7724
        45.5004         42.8004
 -13649309.48045 -10085510.38047  22070811.883    22070810.3454   22070810.1634
        45.6004         42.8004
 -20370475.55247 -15855904.69047  20404920.134    20404920.1514   20404924.5774
        50.7004         47.8004
   1794499.49542   1424314.16345  24617420.633    24617418.9554   24617424.1764
        37.5004         35.5004
 -13240568.53345 -10297506.85947  21752463.453    21752462.2274   21752465.2974
        46.2004         43.3004
  -9771212.09446  -7594961.54047  21133273.744    21133274.2344   21133279.6854
        48.1004         45.1004
  -3976789.67943  -3072158.00646  23498230.906    23498231.2134   23498236.6224
        40.1004         37.8004
   -968668.81742   -739581.04945  24363053.589    24363056.7894   24363060.5204
        35.9004         34.1004
 16  6 11  2 14 30.0000000  0  9G26G 2G23G 9G 3G 7G 6G30G16
   -175555.26142   -130084.78645  24983709.425    24983708.1994   24983715.7244
        36.4004         34.5004
 -11466026.38045  -8913223.16047  21947137.302    21947136.6334   21947137.1254
        45.6004         42.8004
 -13578614.88145 -10030423.69347  22084262.966    22084263.3424   22084263.9304
        45.6004         42.8004
 -20336765.11447 -15829636.81847  20411335.271    20411335.3244   20411339.7534
        50.7004         47.8004
   1894483.88542   1502224.03945  24636448.534    24636446.5994   24636451.0214
        37.5004         35.3004
 -13316104.17645 -10356365.78147  21738088.657    21738088.9674   21738091.7394
        46.2004         43.5004
  -9716392.24346  -7552244.79647  21143706.450    21143706.8994   21143712.1094
        48.1004         45.2004
  -4086334.97643  -3157517.92546  23477385.438    23477385.5734   23477390.8914
        40.1004         37.8004
  -1009597.39942   -771473.42845  24355267.542    24355267.1594   24355271.1144
        35.4004         33.8004
 16  6 11  2 15  0.0000000  0  9G26G 2G23G 9G 3G 7G 6G30G16
   -164274.03542   -121294.22645  24985855.691    24985857.1654   24985863.6414
        36.8004         35.0004
 -11509284.94545  -8946931.13147  21938905.071    21938904.3754   21938905.5674
        45.6004         42.8004
 -13507696.77645  -9975162.82647  22097759.509    22097758.8634   22097759.1784
        45.6004         42.8004
 -20302675.30847 -15803073.33447  20417822.162    20417822.0124   20417826.8344
        50.7004         47.8004
   1994573.61042   1580215.99145  24655489.943    24655492.8864   24655495.8304
        37.5004         35.3004
 -13391240.37945 -10414913.45047  21723791.449    21723790.8224   21723793.1024
        46.3004         43.5004
  -9661041.81746  -7509114.60047  21154238.783    21154239.4814   21154245.0654
        48.1004         45.2004
  -4195725.66443  -3242757.37246  23456567.621    23456568.5364   23456574.7754
        40.1004         37.6004
  -1050004.19042   -802959.20945  24347580.972    24347579.9314   24347583.4164
        35.4004         33.8004
 16  6 11  2 15 30.0000000  0  9G26G 2G23G 9G 3G 7G 6G30G16
   -152438.84242   -112071.94745  24988109.873    24988109.4554   24988116.8414
        37.0004         35.0004
 -11552037.10245  -8980244.50547  21930769.884    21930769.3724   21930770.5954
        45.6004         42.8004
 -13436556.89945  -9919729.17647  22111296.329    22111295.7664   22111296.4644
        45.5004         42.6004
 -20268207.31747 -15776215.16547  20424381.061    20424381.1804   20424385.7254
        50.7004         47.8004
   2094767.68143   1658289.29245  24674555.204    24674557.4704   24674564.8954
        37.6004         35.7004
 -13465975.16245 -10473148.33747  21709569.130    21709569.6674   21709571.2584
        46.3004         43.5004
  -9605162.54346  -7465572.32747  21164872.413    21164872.9924   21164877.7894
        48.1004         45.2004
  -4304959.10643  -3327874.25246  23435782.077    23435781.1284   23435788.1914
        40.3004         37.8004
  -1089886.74842   -834036.52445  24339993.177    24339988.7944   24339992.1024
        35.4004         33.8004
 16  6 11  2 16  0.0000000  0  9G26G 2G23G 9G 3G 7G 6G30G16
   -140049.64942   -102418.01445  24990464.625    24990465.1634   24990474.5764
        37.0004         35.2004
 -11594281.24745  -9013162.02147  21922730.814    21922730.2484   21922731.4184
        45.6004         42.8004
 -13365196.34745  -9864123.54947  22124875.867    22124875.0734   22124875.9944
        45.5004         42.6004
 -20233362.40247 -15749063.28647  20431012.161    20431012.1074   20431016.7054
        50.7004         47.8004
   2195065.28843   1736443.20545  24693644.891    24693643.5384   24693650.0834
        37.6004         35.5004
 -13540306.41945 -10531068.78047  21695424.154    21695424.3444   21695426.3594
        46.3004         43.5004
  -9548756.17146  -7421619.31547  21175606.198    21175606.8524   21175612.5414
        48.1004         45.4004
  -4414032.67043  -3412866.60246  23415026.337    23415025.8384   23415031.3454
        40.3004         37.8004
  -1129243.03642   -864703.76945  24332501.064    24332500.7364   24332502.5264
        35.7004         34.1004
 16  6 11  2 16 30.0000000  0  9G26G 2G23G 9G 3G 7G 6G30G16
   -127106.84442    -92332.79145  24992930.965    24992929.4154   24992936.6154
        37.3004         35.5004
 -11636016.07545  -9045682.66247  21914788.360    21914787.2254   21914789.5534
        45.5004         42.6004
 -13293616.14045  -9808346.76447  22138495.994    22138496.0164   22138497.4994
        45.5004         42.6004
 -20198141.81147 -15721618.66748  20437714.255    20437714.3514   20437719.1324
        50.7004         48.0004
   2295465.25643   1814676.90345  24712749.911    24712750.7254   24712754.9364
        37.6004         35.5004
 -13614232.15745 -10588673.26047  21681355.851    21681356.4214   21681359.0114
        46.3004         43.5004
  -9491824.47746  -7377256.96947  21186440.522    21186441.2174   21186446.4874
        48.2004         45.4004
  -4522943.77743  -3497732.34046  23394301.365    23394300.8274   23394304.4544
        40.3004         37.8004
  -1168071.39942   -894959.62445  24325113.792    24325114.8784   24325115.8874
        36.3004         34.6004
 16  6 11  2 17  0.0000000  0  9G26G 2G23G 9G 3G 7G 6G30G16
   -113610.47942    -81816.12545  24995495.221    24995496.7954   24995505.3284
        37.3004         35.2004
 -11677239.54745  -9077804.83347  21906944.061    21906943.6654   21906945.4344
        45.6004         43.0004
 -13221818.02645  -9752400.19247  22152158.932    22152158.5344   22152160.5984
        45.3004         42.6004
 -20162546.74747 -15693882.25948  20444487.828    20444487.9684   20444492.4434
        50.8004         48.0004
   2395966.78042   1892989.76445  24731875.907    24731875.1334   24731881.7644
        37.5004         35.5004
 -13687750.19245 -10645960.01547  21667366.443    21667366.4484   21667368.9324
        46.3004         43.7004
  -9434369.23746  -7332486.66847  21197373.595    21197374.2444   21197379.3784
        48.2004         45.4004
  -4631689.79843  -3582469.46446  23373607.284    23373606.9514   23373611.3174
        40.4004         37.8004
  -1206369.41842   -924802.18745  24317827.887    24317825.4774   24317827.0624
        36.4004         34.5004
 16  6 11  2 17 30.0000000  0  9G26G 2G23G 9G 3G 7G 6G30G16
    -99560.88142    -70868.39745  24998171.478    24998171.5504   24998177.8534
        37.3004         35.0004
 -11717950.24345  -9109527.46347  21899197.639    21899196.9024   21899197.4654
        45.8004         43.0004
 -13149803.13445  -9696284.69147  22165862.779    22165862.7504   22165864.5514
        45.3004         42.6004
 -20126578.49247 -15665855.05548  20451332.496    20451332.7964   20451337.0444
        50.8004         48.0004
   2496568.85642   1971380.90845  24751020.133    24751018.4664   24751024.4794
        37.5004         35.5004
 -13760858.37145 -10702927.40047  21653454.021    21653454.1084   21653457.1674
        46.3004         43.7004
  -9376392.28846  -7287309.83247  21208406.210    21208406.7594   21208412.0354
        48.2004         45.4004
  -4740268.15544  -3667075.93346  23352945.694    23352946.1404   23352951.2144
        40.6004         37.9004
  -1244135.06842   -954229.94745  24310639.143    24310637.9234   24310641.7204
        36.3004         34.3004
 16  6 11  2 18  0.0000000  0  9G26G 2G23G 9G 3G 7G 6G30G16
    -84958.14542    -59489.65445  25000947.733    25000950.0644   25000955.9064
        36.8004         34.6004
 -11758146.92945  -9140849.54647  21891547.780    21891547.5964   21891548.3764
        45.8004         43.0004
 -13077572.78245  -9640001.31147  22179608.658    22179607.8904   22179608.9244
        45.5004         42.6004
 -20090238.27047 -15637537.99648  20458247.786    20458247.9944   20458252.4694
        50.8004         48.0004
   2597270.47842   2049849.68145  24770177.916    24770179.9314   24770188.0554
        37.1004         35.2004
 -13833554.78145 -10759573.92147  21639620.635    21639619.9324   21639623.4214
        46.3004         43.7004
  -9317895.46246  -7241727.91047  21219537.603    21219538.2354   21219543.6384
        48.2004         45.4004
  -4848676.27544  -3751549.72646  23332317.040    23332316.0874   23332321.3394
        40.8004         38.3004
  -1281366.40142   -983241.39245  24303554.112    24303553.7804   24303557.2884
        36.3004         34.3004
 16  6 11  2 18 30.0000000  0  9G26G 2G23G 9G 3G 7G 6G30G16
    -69802.71342    -47680.29345  25003834.346    25003833.8434   25003841.8954
        37.1004         35.3004
 -11797827.91445  -9171769.79247  21883997.424    21883996.7394   21883997.2744
        46.0004         43.2004
 -13005128.34245  -9583551.10647  22193393.903    22193393.6894   22193394.6064
        45.5004         42.6004
 -20053527.32547 -15608932.07348  20465234.008    20465234.0894   20465238.4894
        50.8004         48.0004
   2698070.70042   2128395.26345  24789359.444    24789363.3494   24789369.9054
        37.3004         35.5004
 -13905837.54346 -10815898.12847  21625866.260    21625865.8204   21625868.9564
        46.5004         43.7004
  -9258880.60646  -7195742.31547  21230767.313    21230767.8804   21230774.0314
        48.1004         45.2004
  -4956911.51944  -3835888.82846  23311718.895    23311719.3454   23311725.4224
        40.8004         38.3004
  -1318061.68042  -1011835.08645  24296569.203    24296570.0524   24296571.6394
        36.1004         34.3004
 16  6 11  2 19  0.0000000  0  9G26G 2G23G 9G 3G 7G 6G30G16
    -54094.85042    -35440.42345  25006822.590    25006822.2754   25006830.4964
        37.5004         35.5004
 -11836991.64645  -9202286.98947  21876544.664    21876543.8544   21876544.5794
        46.0004         43.3004
 -12932470.91345  -9526934.94547  22207220.600    22207220.0114   22207220.6974
        45.3004         42.3004
 -20016446.91047 -15580038.24848  20472290.211    20472290.1014   20472294.5854
        50.8004         48.0004
   2798968.57242   2207016.95345  24808561.803    24808562.6574   24808569.4124
        37.3004         35.3004
 -13977704.40146 -10871898.24747  21612189.359    21612189.4494   21612192.8334
        46.5004         43.7004
  -9199349.56646  -7149354.51647  21242096.501    21242096.9324   21242102.4154
        48.1004         45.2004
  -5064971.27144  -3920091.17946  23291154.496    23291155.5814   23291162.0654
        41.1004         38.6004
  -1354218.68742  -1040009.33745  24289691.576    24289689.9544   24289693.3654
        36.6004         35.2004
 16  6 11  2 19 30.0000000  0  9G26G 2G23G 9G 3G 7G 6G30G16
    -37834.74142    -22770.21945  25009917.910    25009917.7534   25009923.5294
        37.5004         35.3004
 -11875636.73345  -9232400.04147  21869191.184    21869190.5694   21869190.5914
        46.2004         43.2004
 -12859601.64345  -9470153.69747  22221086.574    22221086.3694   22221087.8204
        45.1004         42.5004
 -19978998.28447 -15550857.50248  20479416.514    20479416.5674   20479421.0664
        50.8004         48.2004
   2899963.14542   2285713.98145  24827788.250    24827782.8324   24827788.4774
        37.3004         35.3004
 -14049153.38346 -10927572.75347  21598593.515    21598593.8484   21598596.3324
        46.7004         43.9004
  -9139304.24946  -7102565.96247  21253522.963    21253523.3144   21253528.3864
        48.1004         45.2004
  -5172852.99344  -4004154.79846  23270627.169    23270627.3314   23270633.8174
        41.5004         39.0004
  -1389835.53742  -1067762.72045  24282914.240    24282913.0184   24282915.4184
        37.0004         35.2004
 16  6 11  2 20  0.0000000  0  9G26G 2G23G 9G 3G 7G 6G30G16
    -21022.73342     -9669.91245  25013115.700    25013116.1024   25013122.9334
        36.4004         34.3004
 -11913761.55245  -9262107.68547  21861935.824    21861935.3334   21861935.7924
        46.0004         43.2004
 -12786522.31945  -9413208.77947  22234993.851    22234992.8194   22234994.2474
        45.1004         42.3004
 -19941182.71447 -15521390.82447  20486612.327    20486612.1954   20486616.9954
        50.8004         47.8004
   3001053.35843   2364485.53245  24847022.611    24847020.3284   24847027.1564
        37.8004         35.9004
 -14120182.39846 -10982920.00547  21585077.905    21585077.4884   21585079.7224
        46.7004         44.0004
  -9078746.55646  -7055378.16647  21265046.977    21265047.0784   21265052.2314
        48.1004         45.2004
  -5280554.02844  -4088077.62646  23250134.686    23250132.9294   23250139.1414
        41.8004         39.3004
  -1424910.20342  -1095093.67345  24276238.501    24276238.5394   24276240.6734
        37.3004         35.3004
 16  6 11  2 20 30.0000000  0  9G26G 2G23G 9G 3G 7G 6G30G16
     -3659.27542      3860.04745  25016421.417    25016422.0014   25016428.2824
        37.1004         35.5004
 -11951364.47945  -9291408.66247  21854780.441    21854779.6014   21854780.9564
        46.0004         43.2004
 -12713234.03745  -9356101.03047  22248939.749    22248939.6534   22248940.2924
        45.1004         42.1004
 -19903001.42647 -15491639.18147  20493877.544    20493877.7674   20493882.5524
        50.7004         47.8004
   3102238.25143   2443330.84945  24866273.128    24866271.9864   24866279.7194
        37.6004         35.5004
 -14190789.27346 -11037938.32947  21571641.338    21571641.0004   21571643.6824
        46.9004         44.0004
  -9017678.41746  -7007792.62047  21276666.757    21276667.5364   21276673.5554
        47.9004         44.9004
  -5388071.77744  -4171857.65046  23229675.054    23229673.6024   23229679.1374
        42.2004         39.7004
  -1459440.65842  -1122000.49745  24269667.098    24269667.6164   24269668.9884
        37.3004         35.3004
 16  6 11  2 21  0.0000000  0  9G26G 2G23G 9G 3G 7G 6G30G16
     14255.18442     17819.33345  25019829.458    25019831.0224   25019837.2534
        37.1004         35.2004
 -11988444.29045  -9320302.02447  21847724.649    21847723.7924   21847724.2474
        46.0004         43.2004
 -12639737.92345  -9298831.35147  22262926.548    22262925.4574   22262925.9334
        45.1004         42.1004
 -19864455.68847 -15461603.53547  20501212.790    20501212.6784   20501217.4734
        50.7004         47.8004
   3203516.85043   2522249.20346  24885547.237    24885547.1094   24885553.3224
        38.2004         36.2004
 -14260972.71346 -11092626.70347  21558285.739    21558285.6774   21558288.6604
        46.9004         44.2004
  -8956101.73846  -6959810.80547  21288384.549    21288384.9144   21288391.4414
        47.7004         45.1004
  -5495403.67144  -4255492.84746  23209248.520    23209248.4344   23209253.7964
        42.2004         39.7004
  -1493425.61442  -1148482.27645  24263200.292    24263201.1944   24263203.2814
        37.5004         35.5004
 16  6 11  2 21 30.0000000  0  9G26G 2G23G 9G 3G 7G 6G30G16
     32720.33742     32207.76045  25023344.280    25023343.9254   25023349.8044
        37.3004         35.3004
 -12024999.55145  -9348786.63747  21840767.831    21840767.0494   21840767.9744
        45.8004         42.8004
 -12566035.39945  -9241400.81547  22276950.910    22276950.9094   22276951.3144
        45.1004         42.1004
 -19825546.79447 -15431284.92147  20508616.153    20508616.3404   20508621.3914
        50.5004         47.5004
   3304888.10243   2601239.78145  24904836.532    24904836.3364   24904843.5384
        38.2004         35.9004
 -14330730.36246 -11146983.30347  21545011.338    21545011.3124   21545013.7104
        47.0004         44.2004
  -8894018.51946  -6911434.27947  21300198.593    21300199.1994   21300204.7284
        47.9004         45.1004
  -5602547.14944  -4338981.23446  23188859.367    23188859.5494   23188865.1004
        42.2004         39.5004
  -1526862.92842  -1174537.31545  24256837.921    24256836.9334   24256838.4384
        37.3004         35.2004
 16  6 11  2 22  0.0000000  0  9G26G 2G23G 9G 3G 7G 6G30G16
     51735.79342     47024.93145  25026961.144    25026963.6234   25026967.1994
        37.5004         35.3004
 -12061028.87645  -9376861.43047  21833911.352    21833910.9304   21833912.0414
        45.6004         43.0004
 -12492127.73645  -9183810.44947  22291015.204    22291014.3144   22291015.0454
        44.9004         42.3004
 -19786275.96047 -15400684.27647  20516089.027    20516089.3914   20516094.2714
        50.3004         47.5004
   3406351.12743   2680301.84745  24924138.296    24924142.8004   24924149.5414
        37.8004         35.5004
 -14400060.07746 -11201006.46347  21531818.727    21531818.2324   21531821.1024
        47.0004         44.2004
  -8831430.71446  -6862664.56747  21312108.884    21312109.8184   21312114.9394
        47.9004         45.2004
  -5709499.58444  -4422320.75246  23168507.335    23168507.0204   23168512.0224
        42.2004         39.3004
  -1559750.54642  -1200163.96745  24250579.052    24250576.6284   24250581.4604
        37.0004         35.0004
 16  6 11  2 22 30.0000000  0  9G26G 2G23G 9G 3G 7G 6G30G16
     71301.02643     62270.56745  25030686.481    25030686.6094   25030692.7664
        37.6004         35.5004
 -12096530.68345  -9404525.18747  21827156.685    21827155.7924   21827156.2214
        45.8004         43.2004
 -12418016.01845  -9126061.07246  22305118.593    22305117.3184   22305118.3164
        44.9004         41.9004
 -19746644.47947 -15369802.60247  20523630.438    20523630.8334   20523636.0764
        50.3004         47.5004
   3507904.92542   2759434.68045  24943466.854    24943467.3704   24943475.6404
        37.3004         35.0004
 -14468960.00846 -11254694.69447  21518706.974    21518706.7744   21518709.8654
        47.0004         44.2004
  -8768340.29446  -6813503.21647  21324114.833    21324115.2494   21324120.3184
        47.9004         45.1004
  -5816258.35444  -4505509.36146  23148192.709    23148191.9544   23148197.1234
        42.2004         39.5004
  -1592086.73242  -1225360.97245  24244424.768    24244423.5504   24244427.9774
        36.8004         34.8004
 16  6 11  2 23  0.0000000  0  9G26G 2G23G 9G 3G 7G 6G30G16
     91415.54943     77944.24645  25034512.706    25034513.7464   25034520.2144
        38.0004         35.9004
 -12131503.77145  -9431776.95547  21820501.457    21820500.3904   21820501.6224
        46.0004         43.3004
 -12343701.67845  -9068153.79546  22319259.187    22319259.0684   22319259.9634
        44.8004         41.9004
 -19706653.64447 -15338640.92247  20531241.238    20531241.4054   20531246.2284
        50.3004         47.5004
   3609548.52842   2838637.45345  24962815.746    24962812.9664   24962816.3374
        36.4004         34.6004
 -14537428.17846 -11308046.50647  21505677.449    21505678.2684   21505680.8644
        47.0004         44.2004
  -8704749.29546  -6763951.80247  21336215.881    21336216.1674   21336221.3424
        47.9004         44.9004
  -5922820.86844  -4588545.04646  23127914.594    23127913.6634   23127919.5594
        42.3004         39.7004
  -1623869.85442  -1250127.04645  24238376.374    24238375.4844   24238380.4004
        36.4004         34.6004
 16  6 11  2 23 30.0000000  0  9G26G 2G23G 9G 3G 7G 6G30G16
    112078.91043     94045.56345  25038446.144    25038446.3394   25038451.6754
        38.0004         35.9004
 -12165946.56745  -9458615.50047  21813947.193    21813946.5654   21813946.9214
        46.2004         43.5004
 -12269186.00845  -9010089.64646  22333439.940    22333439.1434   22333439.8424
        44.6004         41.8004
 -19666304.70647 -15307200.19747  20538919.438    20538919.5534   20538924.5464
        50.3004         47.7004
   3711280.87042   2917909.36945  24982175.560    24982172.6244   24982175.2784
        36.1004         34.3004
 -14605462.72546 -11361060.41447  21492731.607    21492731.4594   21492734.3744
        47.0004         44.2004
  -8640659.70646  -6714011.88347  21348412.396    21348412.5924   21348417.5674
        47.9004         45.1004
  -6029184.60244  -4671425.83646  23107672.523    23107673.1994   23107679.3924
        42.3004         39.9004
  -1655098.16442  -1274460.76445  24232435.792    24232432.2784   24232437.2214
        36.6004         34.8004
 16  6 11  2 24  0.0000000  0  9G26G 2G23G 9G 3G 7G 6G30G16
    133290.56343    110574.07845  25042481.739    25042481.6284   25042488.6714
        37.6004         35.7004
 -12199858.03145  -9485040.02147  21807494.245    21807493.1144   21807494.3394
        46.3004         43.5004
 -12194470.08145  -8951869.43946  22347657.247    22347657.1014   22347657.1244
        44.4004         41.6004
 -19625598.92447 -15275481.40947  20546665.828    20546665.9214   20546670.6684
        50.5004         47.7004
   3813100.92842   2997249.64945  25001545.143    25001546.8794   25001552.2254
        36.6004         34.6004
 -14673061.60346 -11413734.84547  21479867.764    21479867.4014   21479870.7354
        47.0004         44.2004
  -8576073.60746  -6663685.06047  21360701.894    21360702.0554   21360707.9854
        47.7004         44.9004
  -6135346.87044  -4754149.64246  23087471.994    23087471.2704   23087477.0264
        42.5004         39.7004
  -1685769.53142  -1298360.53945  24226597.773    24226598.3224   24226601.2114
        36.6004         34.6004
 16  6 11  2 24 30.0000000  0  9G26G 2G23G 9G 3G 7G 6G30G16
    155049.95442    127529.39645  25046622.830    25046622.8734   25046628.8674
        37.5004         35.7004
 -12233236.77145  -9511049.44047  21801142.083    21801141.5184   21801142.4224
        46.3004         43.5004
 -12119555.17445  -8893494.20846  22361913.340    22361913.3114   22361913.6544
        44.4004         41.8004
 -19584537.59947 -15243485.57947  20554480.059    20554479.6294   20554484.3574
        50.5004         47.7004
   3915007.68042   3076657.54845  25020934.622    25020937.7294   25020944.9754
        37.1004         35.2004
 -14740223.37246 -11466068.66847  21467086.568    21467087.2124   21467090.3194
        47.0004         44.2004
  -8510993.01546  -6612972.93247  21373086.082    21373086.6564   21373091.5544
        47.7004         44.7004
  -6241305.18044  -4836714.51146  23067309.367    23067307.7794   23067313.2464
        42.5004         39.9004
  -1715882.58042  -1321825.23245  24220868.542    24220869.3664   24220870.6484
        36.1004         34.1004
 16  6 11  2 25  0.0000000  0  9G26G 2G23G 9G 3G 7G 6G30G16
    177356.57843    144911.18045  25050867.885    25050867.8934   25050874.0234
        37.8004         35.9004
 -12266081.58645  -9536642.80947  21794891.912    21794891.2954   21794892.0084
        46.3004         43.5004
 -12044442.80045  -8834965.08346  22376206.048    22376205.0794   22376206.7734
        44.4004         41.4004
 -19543122.00947 -15211213.69247  20562360.805    20562360.6204   20562365.5784
        50.5004         47.7004
   4017000.34542   3156132.32045  25040345.443    25040345.7564   25040354.4164
        37.0004         34.6004
 -14806945.76646 -11518060.11947  21454390.659    21454390.5044   21454392.9974
        47.0004         44.2004
  -8445420.01146  -6561877.10547  21385563.953    21385565.0694   21385570.1744
        47.5004         44.7004
  -6347056.89244  -4919118.40946  23047183.448    23047183.4364   23047190.0974
        42.3004         39.7004
  -1745435.58342  -1344853.51645  24215243.817    24215245.0074   24215247.6934
        36.1004         34.3004
