     2.10           OBSERVATION DATA    G (GPS)             RINEX VERSION / TYPE
teqc  2006Dec12     IGN-RGP             20160611 11:10:02UTCPGM / RUN BY / DATE
Linux 2.4.20-8|Pentium IV|gcc|Linux|486/DX+                 COMMENT
     2.11           OBSERVATION DATA    G (GPS)             COMMENT
teqc  2013Mar15     Observatoire de Pari20160611 00:52:18UTCCOMMENT
Linux 2.4.21-27.ELsmp|Opteron|gcc|Linux x86_64|=+           COMMENT
BIT 2 OF LLI FLAGS DATA COLLECTED UNDER A/S CONDITION       COMMENT
OPMT                                                        MARKER NAME
10001S006                                                   MARKER NUMBER
Automatic           BNM-SYRTE                               OBSERVER / AGENCY
02942               ASHTECH Z-XII3T     1L01-1D04           REC # / TYPE / VERS
00019               3S-02-TSADM     NONE                    ANT # / TYPE
  4202777.6220   171367.7610  4778659.9840                  APPROX POSITION XYZ
        0.0000        0.0000        0.0000                  ANTENNA: DELTA H/E/N
     1     1                                                WAVELENGTH FACT L1/2
     7    L1    L2    C1    P1    P2    S1    S2            # / TYPES OF OBSERV
 SNR is mapped to RINEX snr flag value [0-9]                COMMENT
  L1 & L2: min(max(int(snr_dBHz/6), 0), 9)                  COMMENT
pseudorange smoothing corrections not applied               COMMENT
  2016     6    10     0     0    0.0000000     GPS         TIME OF FIRST OBS
                                                            END OF HEADER
 16  6 10  0  0  0.0000000  0 10G19G 6G31G 1G22G17G23G 3G11G 9
 -14865532.02345 -11550028.79047  22143438.692    22143438.1954   22143439.0084
        45.5004         42.6004
  -4122414.60145  -3199110.13746  22284356.563    22284357.0964   22284363.3284
        44.8004         41.9004
  -5754575.55544  -4473361.58646  23687657.812    23687657.8804   23687661.0724
        41.3004         38.6004
  -5363897.70944  -4160932.55246  22931869.440    22931869.5914   22931874.3084
        42.2004         39.5004
 -10713061.94745  -8333223.02547  22093060.772    22093059.8564   22093060.4784
        45.3004         42.3004
  -9342967.06745  -7266658.70147  22209790.357    22209790.1934   22209793.1394
        45.3004         42.5004
 -21212801.69846 -16245937.65247  20864848.966    20864848.7184   20864848.9094
        48.9004         46.1004
 -19975758.15847 -15541339.10747  20692226.191    20692226.2404   20692230.7974
        50.0004         47.2004
                    213724.15245  25085926.334
                        30.5004
 -13210765.70945 -10270356.92747  21861376.702    21861377.3334   21861382.4834
        45.8004         43.0004
 16  6 10  0  0 30.0000000  0 10G19G 6G31G 1G22G17G23G 3G11G 9
 -14852285.57145 -11539706.87347  22145959.382    22145958.7894   22145960.3604
        45.6004         43.0004
  -4207048.71545  -3265058.76746  22268251.005    22268251.8814   22268257.5924
        44.8004         41.9004
  -5717956.09744  -4444826.96146  23694625.980    23694625.9104   23694628.3514
        41.3004         38.6004
  -5265026.27444  -4083889.87146  22950683.760    22950684.3894   22950689.9134
        42.2004         39.5004
 -10642194.93345  -8278001.99347  22106545.412    22106544.4884   22106546.3684
        45.1004         42.1004
  -9290874.49245  -7226067.09947  22219702.874    22219703.1704   22219705.6914
        44.9004         42.3004
 -21249840.79746 -16274799.27447  20857800.586    20857800.2604   20857800.6044
        48.8004         45.9004
 -19935667.79047 -15510099.86647  20699854.664    20699854.9934   20699859.6154
        50.0004         47.0004
                     19454.82753  25108755.644
                        23.4004
 -13298210.05445 -10338495.36547  21844737.192    21844737.9254   21844742.5704
        45.8004         43.3004
 16  6 10  0  1  0.0000000  0  9G19G 6G31G 1G22G17G23G 3G 9
 -14838410.71645 -11528895.30247  22148599.991    22148598.5334   22148601.1924
        45.8004         42.8004
  -4291404.41245  -3330790.45147  22252200.022    22252200.1314   22252205.5254
        44.9004         42.5004
  -5680774.34844  -4415854.16546  23701701.753    23701702.1164   23701703.7354
        41.1004         38.6004
  -5165925.19144  -4006668.23446  22969541.469    22969542.4034   22969548.5374
        42.0004         39.3004
 -10571131.68345  -8222628.04946  22120069.038    22120067.8244   22120068.7774
        44.9004         41.9004
  -9238279.65245  -7185084.11347  22229711.548    22229711.6804   22229714.8124
        44.9004         42.1004
 -21286410.50246 -16303295.13747  20850841.467    20850841.1944   20850841.4484
        48.8004         45.9004
 -19895261.26847 -15478614.25947  20707543.446    20707544.0014   20707548.8844
        49.8004         47.0004
 -13385307.56245 -10406363.56047  21828163.824    21828164.3194   21828168.4304
        46.0004         43.3004
 16  6 10  0  1 30.0000000  0  9G19G 6G31G 1G22G17G23G 3G 9
 -14823908.14745 -11517594.60247  22151358.995    22151358.0764   22151359.9374
        45.5004         42.6004
  -4375479.38845  -3396303.39347  22236200.498    22236201.6124   22236206.6364
        45.3004         42.6004
  -5643031.42344  -4386444.07546  23708883.368    23708883.3814   23708887.0574
        40.9004         38.3004
  -5066596.11144  -3929268.91246  22988443.744    22988444.0464   22988449.4864
        42.0004         39.2004
 -10499872.58245  -8167101.50047  22133628.109    22133627.8964   22133629.6444
        44.8004         42.1004
  -9185184.92045  -7143711.60947  22239816.235    22239816.0824   22239817.3544
        45.1004         42.5004
 -21322510.36646 -16331424.89547  20843971.968    20843971.8094   20843971.9714
        48.8004         45.9004
 -19854539.26947 -15446882.82947  20715293.061    20715293.6814   20715298.2684
        50.0004         47.0004
 -13472056.53545 -10473960.15047  21811656.008    21811655.7954   21811660.5244
        46.2004         43.5004
 16  6 10  0  2  0.0000000  0  9G19G 6G31G 1G22G17G23G 3G 9
 -14808778.67445 -11505805.40347  22154238.312    22154237.1734   22154238.8904
        45.3004         42.3004
  -4459271.39245  -3461595.84247  22220255.769    22220256.1414   22220260.9194
        45.5004         42.8004
  -5604728.64244  -4356597.76446  23716170.680    23716170.8554   23716175.3954
        40.6004         37.9004
  -4967040.61544  -3851693.17846  23007387.996    23007388.6064   23007394.6494
        41.8004         39.0004
 -10428418.59445  -8111423.07246  22147225.914    22147224.4674   22147226.9744
        44.8004         41.9004
  -9131592.52745  -7101951.30747  22250014.117    22250014.1024   22250015.6544
        45.1004         42.3004
 -21358139.96146 -16359188.20747  20837191.861    20837191.8724   20837192.0934
        48.8004         46.1004
 -19813502.51747 -15414906.14647  20723102.002    20723102.4844   20723107.0244
        49.8004         47.0004
 -13558455.21045 -10541283.79247  21795214.664    21795214.4364   21795219.6164
        46.2004         43.5004
 16  6 10  0  2 30.0000000  0  9G19G 6G31G 1G22G17G23G 3G 9
 -14793022.85245 -11493528.14247  22157236.510    22157235.2384   22157237.6834
        45.1004         42.3004
  -4542778.13545  -3526665.99447  22204364.695    22204365.3454   22204370.4754
        45.5004         42.8004
  -5565867.26343  -4326316.18246  23723566.146    23723567.0334   23723569.6454
        40.1004         37.6004
  -4867260.40544  -3773942.34146  23026374.820    23026375.8724   23026382.6454
        41.6004         39.0004
 -10356770.68445  -8055593.53446  22160860.538    22160859.2394   22160860.4114
        44.8004         41.9004
  -9077504.25145  -7059804.58847  22260306.538    22260306.4244   22260308.8084
        45.1004         42.3004
 -21393298.65446 -16386584.59647  20830501.296    20830501.2814   20830501.4034
        48.8004         45.9004
 -19772151.65447 -15382684.70147  20730971.103    20730971.1944   20730975.8194
        49.8004         47.0004
 -13644501.85345 -10608333.11147  21778840.807    21778840.7814   21778846.1104
        46.3004         43.7004
 16  6 10  0  3  0.0000000  0  9G19G 6G31G 1G22G17G23G 3G 9
 -14776641.68845 -11480763.60047  22160354.612    22160353.4544   22160354.8544
        45.3004         42.6004
  -4625997.32945  -3591512.11247  22188529.132    22188529.5714   22188533.9114
        45.6004         42.6004
  -5526448.63243  -4295600.37946  23731069.147    23731068.1714   23731070.9334
        40.1004         37.6004
  -4767257.01144  -3696017.62946  23045405.847    23045405.5884   23045411.7834
        41.5004         38.6004
 -10284929.31245  -7999613.27346  22174531.752    22174530.1854   22174531.3694
        44.6004         41.8004
  -9022922.41245  -7017273.28347  22270693.247    22270693.0174   22270695.3694
        45.1004         42.3004
 -21427985.99146 -16413613.68147  20823900.704    20823900.2604   20823900.5614
        48.8004         45.9004
 -19730487.38847 -15350219.04247  20738899.455    20738899.9094   20738904.1004
        49.8004         47.0004
 -13730194.79745 -10675106.82947  21762534.084    21762534.1274   21762538.6534
        46.3004         43.5004
 16  6 10  0  3 30.0000000  0  9G19G 6G31G 1G22G17G23G 3G 9
 -14759635.78445 -11467512.25847  22163591.239    22163589.8044   22163590.8864
        45.6004         42.8004
  -4708926.66345  -3656132.35447  22172747.277    22172748.0044   22172753.0244
        45.6004         42.8004
  -5486473.80743  -4264451.17446  23738675.501    23738676.2704   23738677.6104
        39.9004         37.6004
  -4667032.10344  -3617920.28546  23064477.123    23064477.1374   23064483.3014
        41.1004         38.6004
 -10212895.35545  -7943482.93146  22188239.572    22188238.7854   22188239.1924
        44.6004         41.6004
  -8967848.74145  -6974358.75847  22281173.694    22281172.7324   22281175.5004
        45.1004         42.3004
 -21462201.75746 -16440275.31647  20817389.570    20817389.3994   20817389.3274
        48.8004         45.9004
 -19688510.38447 -15317509.69347  20746886.901    20746887.3654   20746892.4254
        49.8004         46.8004
 -13815532.30645 -10741603.57447  21746294.712    21746294.8844   21746299.6824
        46.3004         43.5004
 16  6 10  0  4  0.0000000  0  9G19G 6G31G 1G22G17G23G 3G 9
 -14742006.11345 -11453774.84847  22166945.580    22166944.6854   22166945.4494
        45.6004         43.0004
  -4791563.86845  -3720524.95847  22157021.880    22157023.0924   22157027.8714
        45.6004         42.8004
  -5445944.19943  -4232869.65546  23746390.419    23746390.2064   23746392.0164
        40.4004         38.1004
  -4566587.27344  -3539651.60846  23083591.340    23083591.4434   23083597.3924
        41.1004         38.6004
 -10140669.60945  -7887203.13946  22201983.536    22201982.6004   22201983.2904
        44.6004         41.8004
  -8912285.45245  -6931062.68847  22291745.857    22291746.7584   22291749.5404
        45.1004         42.3004
 -21495945.36346 -16466569.02347  20810968.847    20810968.1344   20810968.4894
        48.8004         45.9004
 -19646221.36947 -15284557.21647  20754934.740    20754935.1154   20754939.5164
        49.8004         47.0004
 -13900512.65145 -10807822.01147  21730123.405    21730123.3254   21730128.7884
        46.3004         43.7004
 16  6 10  0  4 30.0000000  0  9G19G 6G31G 1G22G17G23G 3G 9
 -14723753.70845 -11439552.19947  22170418.543    22170417.8234   22170419.4544
        45.8004         43.2004
  -4873906.64845  -3784688.13747  22141352.850    22141353.1234   22141358.5834
        45.3004         42.5004
  -5404861.06043  -4200856.83346  23754206.553    23754205.8484   23754208.1654
        40.1004         37.6004
  -4465924.16044  -3461212.83146  23102748.035    23102747.9524   23102753.6524
        41.3004         38.8004
 -10068252.67145  -7830774.36846  22215763.702    22215762.4104   22215763.9494
        44.4004         41.6004
  -8856234.93145  -6887386.97047  22302411.860    22302412.7954   22302415.4764
        45.1004         42.5004
 -21529216.47846 -16492494.55647  20804637.132    20804636.8724   20804637.2924
        48.8004         45.9004
 -19603621.00347 -15251362.13047  20763041.277    20763041.7084   20763045.8764
        49.8004         46.8004
 -13985134.20445 -10873760.88247  21714019.850    21714020.3474   21714025.5694
        46.3004         43.5004
 16  6 10  0  5  0.0000000  0  9G19G 6G31G 1G22G17G23G 3G 9
 -14704879.59345 -11424845.09547  22174010.300    22174008.7514   22174011.3194
        45.8004         43.0004
  -4955952.69945  -3848620.11347  22125740.730    22125740.2584   22125745.2424
        45.3004         42.5004
  -5363225.79643  -4168413.77546  23762128.347    23762129.3914   23762130.5324
        39.7004         37.6004
  -4365044.27444  -3382605.13446  23121944.912    23121945.2124   23121950.0834
        41.3004         38.6004
  -9995645.13145  -7774197.08746  22229581.493    22229580.1344   22229581.0464
        44.6004         41.8004
  -8799699.02845  -6843333.03347  22313171.266    22313171.9104   22313173.7584
        45.3004         42.5004
 -21562014.65446 -16518051.56547  20798396.060    20798395.5404   20798396.0434
        48.9004         46.1004
 -19560710.00047 -15217924.98847  20771206.950    20771207.5634   20771211.8514
        49.8004         46.8004
 -14069395.25045 -10939418.82647  21697986.557    21697986.7004   21697990.7284
        46.3004         43.7004
 16  6 10  0  5 30.0000000  0  9G19G 6G31G 1G22G17G23G 3G 9
 -14685384.37545 -11409654.02747  22177719.446    22177718.7424   22177720.6764
        45.6004         42.5004
  -5037699.70145  -3912319.06947  22110184.200    22110184.8654   22110189.3334
        45.3004         42.8004
  -5321039.77043  -4135541.55146  23770157.896    23770158.1184   23770159.0034
        40.1004         37.8004
  -4263949.37444  -3303829.90146  23141182.362    23141182.5584   23141188.1744
        41.3004         38.5004
  -9922848.18045  -7717472.20346  22243433.391    22243432.9264   22243433.3874
        44.6004         41.8004
  -8742680.17545  -6798902.76047  22324020.828    22324021.0314   22324024.0144
        45.3004         42.3004
 -21594339.40746 -16543239.67447  20792244.565    20792244.2834   20792244.4974
        48.9004         46.1004
 -19517489.01647 -15184246.30347  20779431.756    20779431.9814   20779436.2724
        49.8004         46.8004
 -14153294.12146 -11004794.56147  21682020.615    21682020.8264   21682026.0844
        46.5004         43.7004
 16  6 10  0  6  0.0000000  0  9G19G 6G31G 1G22G17G23G 3G 9
 -14665269.15545 -11393979.85447  22181547.403    22181546.2664   22181547.8024
        45.1004         42.3004
  -5119145.37245  -3975783.20147  22094685.454    22094685.7434   22094691.1884
        45.5004         43.0004
  -5278304.51543  -4102241.33446  23778288.652    23778289.2384   23778291.7664
        40.4004         37.9004
  -4162641.03444  -3224888.33346  23160459.346    23160459.9944   23160466.9424
        41.1004         38.5004
  -9849862.13745  -7660599.98246  22257324.431    22257322.6334   22257322.3014
        44.6004         41.9004
  -8685181.08345  -6754098.28047  22334962.536    22334962.7754   22334965.7874
        45.3004         42.5004
 -21626190.31646 -16568058.55647  20786183.548    20786183.1434   20786183.5624
        48.9004         46.1004
 -19473958.77147 -15150326.63347  20787715.232    20787715.5274   20787719.8384
        49.6004         46.8004
 -14236829.16446 -11069886.79747  21666124.837    21666124.7334   21666128.9144
        46.5004         43.5004
 16  6 10  0  6 30.0000000  0  9G19G 6G31G 1G22G17G23G 3G 9
 -14644534.91045 -11377823.30447  22185492.579    22185491.6984   22185494.2494
        45.1004         42.5004
  -5200287.44245  -4039010.76147  22079244.204    22079244.9754   22079249.5824
        45.6004         42.8004
  -5235021.04643  -4068513.97446  23786524.693    23786525.0004   23786527.2834
        40.3004         37.8004
  -4061120.92044  -3145781.76046  23179778.605    23179777.8544   23179785.4254
        40.9004         38.1004
  -9776687.95045  -7603581.15846  22271247.017    22271246.0804   22271247.4494
        44.6004         41.6004
  -8627203.49545  -6708920.94347  22345995.660    22345995.3214   22345998.4124
        45.3004         42.3004
 -21657567.20746 -16592508.06847  20780212.713    20780212.7104   20780212.5504
        48.9004         46.1004
 -19430119.96747 -15116166.54147  20796057.146    20796057.4314   20796062.0744
        49.6004         46.6004
 -14319998.73646 -11134694.23747  21650298.637    21650298.2444   21650302.2664
        46.5004         43.7004
 16  6 10  0  7  0.0000000  0  9G19G 6G31G 1G22G17G23G 3G 9
 -14623182.81345 -11361185.30947  22189555.838    22189555.2064   22189557.8324
        45.3004         42.6004
  -5281123.53945  -4101999.92147  22063861.865    22063862.5164   22063866.8944
        45.6004         42.8004
  -5191191.28343  -4034360.93446  23794864.857    23794866.1764   23794866.7624
        40.3004         37.8004
  -3959390.64944  -3066511.42946  23199138.631    23199137.0044   23199143.7624
        40.8004         38.1004
  -9703326.17445  -7546416.14646  22285207.752    22285206.9144   22285206.4394
        44.4004         41.6004
  -8568749.34145  -6663372.26047  22357119.313    22357119.6594   22357121.8024
        44.9004         42.1004
 -21688469.62346 -16616587.85547  20774332.621    20774332.1924   20774332.3254
        49.1004         46.3004
 -19385973.26347 -15081766.51347  20804458.071    20804458.5754   20804462.8184
        49.6004         46.8004
 -14402801.19846 -11199215.62447  21634540.835    21634541.2584   21634545.2194
        46.5004         43.7004
 16  6 10  0  7 30.0000000  0  9G19G 6G31G 1G22G17G23G 3G 9
 -14601213.93745 -11344066.69447  22193737.137    22193736.0764   22193738.3914
        45.6004         43.2004
  -5361651.40645  -4164748.89747  22048538.182    22048538.1374   22048543.2054
        45.8004         43.2004
  -5146816.32843  -3999783.04046  23803310.985    23803311.9294   23803312.5134
        40.4004         37.9004
  -3857451.89543  -2987078.66146  23218534.970    23218535.9194   23218541.8034
        40.4004         37.9004
  -9629777.47545  -7489105.48546  22299203.124    22299202.4844   22299202.7964
        44.2004         41.6004
  -8509820.76745  -6617453.92447  22368333.912    22368333.6174   22368336.1384
        45.1004         42.3004
 -21718897.29746 -16640297.71647  20768541.964    20768541.9164   20768542.2924
        49.1004         46.5004
 -19341519.38147 -15047127.12647  20812917.234    20812917.7334   20812922.1554
        49.6004         46.8004
 -14485234.90745 -11263449.66347  21618854.408    21618853.9954   21618858.7844
        46.3004         43.5004
 16  6 10  0  8  0.0000000  0  9G19G 6G31G 1G22G17G23G 3G 9
 -14578628.94345 -11326467.99847  22198034.474    22198033.8564   22198035.3764
        45.8004         43.0004
  -5441868.70445  -4227255.86447  22033273.232    22033273.8184   22033279.0184
        46.0004         43.3004
  -5101897.78644  -3964781.60046  23811857.771    23811857.8554   23811861.8974
        40.8004         38.3004
  -3755306.31443  -2907484.71446  23237972.678    23237973.5764   23237980.0894
        40.4004         37.8004
  -9556042.73245  -7431649.84846  22313234.117    22313232.9774   22313234.6114
        44.2004         41.6004
  -8450420.79645  -6571168.22147  22379635.571    22379635.5794   22379639.2144
        44.9004         42.1004
 -21748849.82046 -16663637.32747  20762841.904    20762841.6174   20762842.4884
        49.1004         46.3004
 -19296758.93947 -15012248.86147  20821435.336    20821435.8184   20821439.7744
        49.6004         46.8004
 -14567298.25045 -11327395.11547  21603238.181    21603237.5844   21603242.8224
        46.3004         43.3004
 16  6 10  0  8 30.0000000  0  9G19G 6G31G 1G22G17G23G 3G 9
 -14555429.30445 -11308390.35947  22202449.530    22202448.6294   22202450.1214
        45.6004         42.8004
  -5521773.15945  -4289519.05147  22018067.809    22018068.0334   22018073.6214
        46.2004         43.2004
  -5056437.06144  -3929357.69746  23820508.256    23820509.6334   23820511.7874
        40.8004         38.3004
  -3652955.51343  -2827730.85246  23257449.591    23257450.6154   23257456.8394
        40.3004         37.8004
  -9482122.65145  -7374049.79646  22327299.683    22327299.8604   22327301.3194
        44.2004         41.4004
  -8390551.50545  -6524516.82846  22391029.078    22391029.1694   22391031.7594
        44.8004         41.8004
 -21778326.88046 -16686606.45247  20757232.514    20757232.5584   20757233.2144
        49.1004         46.5004
 -19251692.73047 -14977132.34347  20830011.023    20830011.5164   20830015.6784
        49.6004         46.8004
 -14648989.60945 -11391050.69947  21587692.367    21587692.6924   21587697.6254
        46.3004         43.5004
 16  6 10  0  9  0.0000000  0  9G19G 6G31G 1G22G17G23G 3G 9
 -14531616.18145 -11289834.66747  22206980.566    22206979.9124   22206981.8494
        45.5004         42.5004
  -5601362.46845  -4351536.65547  22002922.066    22002923.0054   22002927.8914
        45.8004         42.6004
  -5010436.06944  -3893512.75446  23829263.192    23829262.8734   23829265.9544
        40.9004         38.5004
  -3550401.18443  -2747818.39346  23276964.628    23276966.0794   23276973.5954
        40.3004         37.6004
  -9408017.80545  -7316305.78446  22341402.793    22341401.0944   22341403.0484
        44.2004         41.4004
  -8330214.95445  -6477501.35647  22402510.985    22402510.8334   22402513.9324
        44.8004         42.1004
 -21807328.47146 -16709205.08047  20751714.263    20751714.0014   20751714.1064
        49.1004         46.5004
 -19206321.41247 -14941778.08347  20838645.135    20838645.1824   20838649.7104
        49.6004         46.8004
 -14730307.38645 -11454415.18147  21572218.626    21572218.4394   21572223.1694
        46.3004         43.7004
 16  6 10  0  9 30.0000000  0  9G19G 6G31G 1G22G17G23G 3G 9
 -14507190.35045 -11270801.55747  22211628.350    22211627.5874   22211629.8144
        45.1004         42.1004
  -5680634.29245  -4413306.89347  21987837.659    21987838.4594   21987843.1174
        45.6004         43.0004
  -4963895.73144  -3857247.57446  23838118.079    23838118.7714   23838121.0234
        40.8004         38.1004
  -3447644.95943  -2667748.59246  23296517.769    23296519.4734   23296526.1464
        40.3004         37.6004
  -9333729.08745  -7258418.48546  22355538.642    22355538.2264   22355539.8824
        44.2004         41.6004
  -8269413.41045  -6430123.51746  22414080.571    22414081.5794   22414083.9664
        44.8004         41.8004
 -21835853.95446 -16731432.71447  20746285.758    20746285.6484   20746285.8654
        49.3004         46.5004
 -19160645.67147 -14906186.61647  20847336.630    20847337.4234   20847341.5804
        49.8004         47.0004
 -14811249.95146 -11517487.28747  21556815.596    21556815.4884   21556820.6274
        46.5004         43.7004
 16  6 10  0 10  0.0000000  0  9G19G 6G31G 1G22G17G23G 3G 9
 -14482153.41545 -11251292.25147  22216393.341    22216392.5634   22216394.3244
        45.1004         42.5004
  -5759586.35845  -4474827.97147  21972813.920    21972814.1054   21972819.0274
        45.8004         43.0004
  -4916817.81344  -3820563.50346  23847077.212    23847077.6544   23847080.7634
        40.8004         38.5004
  -3344688.54743  -2587522.82146  23316112.838    23316111.6424   23316118.9064
        40.3004         37.6004
  -9259257.03345  -7200388.34246  22369711.582    22369710.0974   22369711.2954
        44.2004         41.4004
  -8208149.48545  -6382385.40946  22425738.445    22425738.3634   22425740.5254
        44.2004         41.1004
 -21863903.19646 -16753289.25547  20740948.008    20740947.6884   20740948.3584
        49.1004         46.3004
 -19114666.20347 -14870358.46047  20856086.547    20856086.7894   20856091.2304
        49.8004         46.8004
 -14891815.74746 -11580265.81447  21541485.118    21541485.0054   21541489.3974
        46.7004         44.0004
 16  6 10  0 10 30.0000000  0  9G19G 6G31G 1G22G17G23G 3G 9
 -14456506.35745 -11231307.52347  22221274.147    22221273.3944   22221274.7814
        45.5004         42.8004
  -5838216.30345  -4536098.03847  21957849.981    21957851.1664   21957856.1064
        45.8004         43.2004
  -4869203.98843  -3783461.82346  23856138.961    23856138.0734   23856141.9604
        40.4004         37.9004
  -3241533.66043  -2507142.40746  23335742.457    23335740.9484   23335747.9134
        40.1004         37.4004
  -9184602.55945  -7142216.02746  22383918.383    22383916.5554   22383917.2644
        44.4004         41.6004
  -8146425.11645  -6334288.53046  22437483.112    22437484.2424   22437487.3864
        44.1004         41.2004
 -21891476.10546 -16774774.62047  20735701.280    20735701.1144   20735701.4894
        49.1004         46.3004
 -19068383.69047 -14834294.16947  20864894.019    20864894.2194   20864898.7764
        49.8004         46.8004
 -14972003.23246 -11642749.55747  21526225.603    21526224.9614   21526229.3394
        46.7004         43.9004
 16  6 10  0 11  0.0000000  0  9G19G 6G31G 1G22G17G23G 3G 9
 -14430250.53245 -11210848.44647  22226270.482    22226269.5444   22226270.9994
        45.8004         43.3004
  -5916521.81345  -4597115.29147  21942949.700    21942949.8174   21942955.7514
        46.0004         43.3004
  -4821055.81843  -3745943.75846  23865299.055    23865300.7884   23865304.0654
        40.3004         37.6004
  -3138181.93843  -2426608.61946  23355408.551    23355408.4354   23355414.8014
        40.1004         37.6004
  -9109766.20545  -7083902.00246  22398158.240    22398157.0204   22398158.3744
        44.4004         41.6004
  -8084242.97645  -6285834.91946  22449316.871    22449316.9934   22449321.2654
        44.2004         41.6004
 -21918572.17646 -16795888.43047  20730545.249    20730544.8834   20730545.1094
        49.1004         46.5004
 -19021798.84847 -14797994.29447  20873758.516    20873759.0404   20873763.5464
        49.8004         47.0004
 -15051810.82546 -11704937.27947  21511038.920    21511038.5424   21511042.4974
        46.7004         43.9004
 16  6 10  0 11 30.0000000  0  9G19G 6G31G 1G22G17G23G 3G 9
 -14403386.83745 -11189915.69047  22231382.281    22231381.3274   22231382.3284
        46.0004         43.2004
  -5994500.61345  -4657877.97047  21928111.329    21928111.5644   21928116.2034
        46.0004         43.3004
  -4772374.83443  -3708010.49146  23874564.475    23874564.1224   23874566.0764
        40.3004         37.8004
  -3034635.08343  -2345922.78846  23375114.017    23375113.0004   23375119.9304
        39.9004         37.4004
  -9034748.77045  -7025446.87846  22412433.993    22412433.0494   22412433.1924
        44.2004         41.6004
  -8021605.75345  -6237026.69746  22461237.129    22461237.2374   22461239.6284
        44.4004         41.6004
 -21945191.38346 -16816630.65747  20725479.781    20725479.3574   20725480.0124
        49.3004         46.5004
 -18974912.34247 -14761459.35647  20882680.536    20882680.8384   20882686.2374
        49.8004         46.8004
 -15131236.94946 -11766827.74947  21495924.397    21495924.2624   21495928.5864
        46.9004         44.0004
 16  6 10  0 12  0.0000000  0  9G19G 6G31G 1G22G17G23G 3G 9
 -14375916.90445 -11168510.54047  22236610.292    22236609.1574   22236609.6804
        46.0004         43.0004
  -6072150.39445  -4718384.27147  21913334.536    21913334.6244   21913339.7184
        46.2004         43.5004
  -4723162.54444  -3669663.24946  23883930.460    23883929.9584   23883932.2204
        40.6004         38.3004
  -2930894.70843  -2265086.14346  23394852.817    23394853.9344   23394860.3914
        39.7004         37.1004
  -8959550.93045  -6966851.18546  22426742.093    22426742.0104   22426742.9194
        44.1004         41.2004
  -7958515.43845  -6187865.43946  22473243.257    22473243.1664   22473244.9274
        44.4004         41.6004
 -21971333.62946 -16837001.23447  20720504.991    20720504.7754   20720505.0614
        49.3004         46.5004
 -18927724.88447 -14724689.91647  20891660.030    20891660.3274   20891665.2074
        49.6004         46.8004
 -15210280.08446 -11828419.78047  21480882.433    21480882.2814   21480888.0244
        46.9004         44.0004
 16  6 10  0 12 30.0000000  0  9G19G 6G31G 1G22G17G23G 3G 9
 -14347841.79645 -11146633.82047  22241952.725    22241951.1384   22241952.4334
        45.6004         42.8004
  -6149468.80845  -4778632.37147  21898621.287    21898621.3884   21898626.5934
        46.2004         43.5004
  -4673420.66843  -3630903.37746  23893396.730    23893395.7054   23893397.9594
        40.3004         37.4004
  -2826962.49243  -2184100.00546  23414632.785    23414631.9184   23414637.1364
        39.6004         36.9004
  -8884173.36045  -6908115.44446  22441087.223    22441086.5134   22441086.9784
        43.9004         41.1004
  -7894974.32345  -6138352.89146  22485334.226    22485334.4024   22485338.2064
        44.6004         41.9004
 -21996998.52946 -16856999.85247  20715621.026    20715620.7814   20715620.9744
        49.3004         46.5004
 -18880237.17046 -14687686.51147  20900696.358    20900696.9434   20900701.6214
        49.5004         46.5004
 -15288938.69646 -11889712.18547  21465914.685    21465914.5554   21465919.3654
        47.0004         44.0004
 16  6 10  0 13  0.0000000  0  9G19G 6G31G 1G22G17G23G 3G 9
 -14319163.04445 -11124286.72447  22247409.585    22247408.3134   22247410.6614
        45.6004         43.0004
  -6226453.55845  -4838620.47047  21883971.468    21883971.6554   21883977.5964
        46.3004         43.5004
  -4623151.27143  -3591732.41046  23902960.792    23902961.2164   23902963.3134
        40.4004         38.1004
  -2722840.20143  -2102965.79146  23434448.537    23434446.3404   23434452.2334
        39.2004         36.7004
  -8808616.83745  -6849240.23846  22455464.699    22455463.5634   22455465.1294
        43.9004         41.1004
  -7830985.22145  -6088491.25146  22497511.052    22497511.2494   22497514.7224
        44.6004         41.9004
 -22022186.05946 -16876626.48947  20710827.681    20710827.4974   20710827.9314
        49.3004         46.5004
 -18832449.88646 -14650449.68047  20909790.697    20909790.6644   20909794.9384
        49.3004         46.5004
 -15367211.23746 -11950703.76447  21451019.742    21451019.9504   21451024.0664
        46.9004         44.0004
 16  6 10  0 13 30.0000000  0  9G19G 6G31G 1G22G17G23G 3G 9
 -14289881.83945 -11101470.20347  22252981.200    22252980.3674   22252982.3354
        45.6004         42.8004
  -6303102.34945  -4898346.77647  21869385.528    21869385.9404   21869391.1744
        46.2004         43.3004
  -4572355.61244  -3552151.42346  23912627.416    23912627.3814   23912629.8134
        40.8004         38.3004
  -2618529.52743  -2021684.77746  23454294.050    23454295.2294   23454302.3844
        38.9004         36.4004
  -8732881.80945  -6790225.98046  22469877.374    22469876.2384   22469878.0844
        43.9004         41.2004
  -7766550.36145  -6038282.29346  22509772.955    22509772.8764   22509776.4234
        44.8004         41.8004
 -22046895.86946 -16895880.87947  20706125.862    20706125.7234   20706125.9844
        49.3004         46.5004
 -18784363.75446 -14612979.97247  20918940.736    20918941.2244   20918945.5124
        49.3004         46.5004
 -15445096.24446 -12011393.36347  21436198.547    21436198.6084   21436202.8714
        46.9004         44.2004
 16  6 10  0 14  0.0000000  0  9G19G 6G31G 1G22G17G23G 3G 9
 -14259999.71445 -11078185.44447  22258668.281    22258666.8524   22258669.1854
        45.8004         43.0004
  -6379412.86445  -4957809.50347  21854864.119    21854864.1724   21854869.9604
        46.2004         43.3004
  -4521035.58144  -3512161.79546  23922394.486    23922394.4044   23922395.2954
        40.9004         38.6004
  -2514032.09943  -1940258.22846  23474180.756    23474180.2354   23474186.0654
        38.9004         36.4004
  -8656969.43045  -6731073.49046  22484321.588    22484320.5774   22484323.0084
        43.9004         41.2004
  -7701672.10645  -5987727.83946  22522118.781    22522118.0404   22522121.3964
        44.4004         41.6004
 -22071127.96946 -16914763.01847  20701515.139    20701514.3734   20701514.6394
        49.3004         46.5004
 -18735979.44446 -14575277.91847  20928147.782    20928148.2004   20928153.0734
        49.3004         46.3004
 -15522592.18046 -12071779.78547  21421452.285    21421452.0804   21421455.8444
        47.0004         44.0004
 16  6 10  0 14 30.0000000  0  9G19G 6G31G 1G22G17G23G 3G 9
 -14229517.94945 -11054433.43147  22264468.205    22264467.3554   22264469.7984
        45.8004         43.0004
  -6455382.78545  -5017006.82647  21840407.163    21840408.0794   21840413.1324
        46.2004         43.3004
  -4469192.64944  -3471764.71746  23932259.368    23932259.2124   23932260.2674
        40.8004         37.9004
  -2409349.64543  -1858687.51346  23494101.122    23494102.1734   23494106.1774
        38.9004         36.7004
  -8580880.13945  -6671783.14746  22498801.812    22498800.4134   22498802.3584
        43.7004         41.1004
  -7636353.08645  -5936829.90346  22534548.853    22534549.2874   22534551.3694
        44.4004         41.6004
 -22094882.06446 -16933272.69547  20696994.540    20696994.1754   20696994.4604
        49.3004         46.6004
 -18687297.62946 -14537344.03647  20937411.002    20937411.8854   20937416.7144
        49.1004         46.3004
 -15599697.54546 -12131861.88147  21406779.187    21406778.8044   21406782.9734
        47.0004         44.0004
 16  6 10  0 15  0.0000000  0  9G19G 6G31G 1G22G17G23G 3G 9
 -14198438.16145 -11030215.41047  22270382.308    22270382.0764   22270383.7304
        45.6004         42.8004
  -6531009.77345  -5075936.93647  21826016.096    21826016.4014   21826021.9684
        46.3004         43.9004
  -4416828.74343  -3430961.69146  23942224.555    23942224.9284   23942225.2954
        40.4004         37.8004
  -2304483.92243  -1776973.96646  23514056.409    23514056.5594   23514062.9404
        39.0004         36.7004
  -8504614.72145  -6612355.57146  22513314.343    22513313.1404   22513314.7944
        43.7004         41.1004
  -7570595.72145  -5885590.42046  22547061.735    22547062.2124   22547064.1654
        44.1004         41.1004
 -22118158.06646 -16951409.83747  20692565.024    20692564.6544   20692565.1204
        49.3004         46.5004
 -18638319.02446 -14499178.88947  20946731.933    20946732.5804   20946737.2394
        49.1004         46.3004
 -15676410.86846 -12191638.48747  21392180.306    21392180.9644   21392185.5064
        47.0004         44.2004
 16  6 10  0 15 30.0000000  0  9G19G 6G31G 1G22G17G23G 3G 9
 -14166761.46245 -11005532.26747  22276409.942    22276409.7684   22276411.6374
        45.5004         42.6004
  -6606291.55746  -5134598.06947  21811690.477    21811691.0494   21811696.4074
        46.5004         43.9004
  -4363945.62743  -3389754.06846  23952286.162    23952285.8574   23952289.2024
        40.3004         37.8004
  -2199436.56943  -1695118.91146  23534046.815    23534045.9334   23534052.8904
        39.2004         36.9004
  -8428173.79045  -6552791.22246  22527860.988    22527859.4394   22527860.5724
        43.7004         40.9004
  -7504402.41445  -5834011.24246  22559656.974    22559656.7674   22559660.7264
        43.7004         40.9004
 -22140956.12646 -16969174.54947  20688226.858    20688226.4734   20688226.6264
        49.3004         46.5004
 -18589044.35746 -14460783.05147  20956108.505    20956108.7294   20956113.5664
        49.1004         46.1004
 -15752730.70046 -12251108.47247  21377657.387    21377657.6294   21377661.9504
        47.2004         44.4004
 16  6 10  0 16  0.0000000  0  9G19G 6G31G 1G22G17G23G 3G 9
 -14134489.55345 -10980385.33447  22282551.645    22282550.3154   22282552.4184
        45.5004         42.6004
  -6681225.83746  -5192988.40447  21797430.195    21797431.0244   21797437.1164
        46.5004         43.7004
  -4310544.98943  -3348143.19246  23962447.995    23962448.6054   23962449.1474
        40.1004         37.6004
  -2094209.36943  -1613123.74746  23554071.613    23554070.6314   23554076.0044
        39.2004         36.7004
  -8351558.08045  -6493090.68346  22542439.119    22542438.1194   22542440.5284
        43.6004         40.7004
  -7437775.77845  -5782094.38846  22572336.060    22572335.9764   22572339.4624
        43.7004         41.1004
 -22163276.16946 -16986566.78547  20683979.560    20683979.2954   20683979.1874
        49.3004         46.5004
 -18539474.30846 -14422157.03947  20965541.797    20965541.6084   20965546.7884
        49.1004         46.1004
 -15828655.55446 -12310270.68747  21363209.279    21363209.4444   21363214.5354
        47.2004         44.2004
 16  6 10  0 16 30.0000000  0  9G19G 6G31G 1G22G17G23G 3G 9
 -14101623.94745 -10954775.77747  22288805.844    22288805.0924   22288806.7864
        45.6004         42.8004
  -6755810.27045  -5251106.12347  21783237.914    21783238.1204   21783243.6834
        46.3004         43.7004
  -4256628.53243  -3306130.37746  23972708.867    23972709.8194   23972709.4404
        40.3004         37.6004
  -1988803.99843  -1530989.73246  23574127.983    23574128.8374   23574135.4784
        39.2004         36.9004
  -8274768.10345  -6433254.34646  22557053.403    22557051.2614   22557053.1994
        43.6004         40.9004
  -7370718.42245  -5729841.91446  22585096.673    22585097.1394   22585099.7754
        43.7004         41.1004
 -22185117.80046 -17003586.22947  20679823.421    20679822.6994   20679822.9384
        49.3004         46.5004
 -18489609.54746 -14383301.39347  20975030.670    20975031.1524   20975035.9174
        49.1004         46.3004
 -15904183.98646 -12369123.99347  21348836.434    21348837.1944   21348842.0124
        47.2004         44.5004
 16  6 10  0 17  0.0000000  0  9G19G 6G31G 1G22G17G23G 3G 9
 -14068166.05645 -10928704.69247  22295172.208    22295171.2754   22295173.7534
        45.6004         42.6004
  -6830042.56246  -5308949.44647  21769111.732    21769112.1194   21769117.7164
        46.5004         43.7004
  -4202198.25643  -3263717.17546  23983067.512    23983066.3634   23983067.6444
        40.3004         37.8004
  -1883222.13543  -1448718.18346  23594218.208    23594219.8834   23594226.8794
        39.0004         36.6004
  -8197804.79045  -6373282.96746  22571698.844    22571697.0294   22571699.1424
        43.6004         40.9004
  -7303232.73245  -5677255.69046  22597939.394    22597940.1544   22597941.3794
        43.7004         41.1004
 -22206481.40146 -17020233.18847  20675758.461    20675757.7664   20675757.6734
        49.3004         46.6004
 -18439450.77646 -14344216.63347  20984575.954    20984576.1424   20984580.8544
        49.1004         46.3004
 -15979314.54946 -12427667.27947  21334540.248    21334540.2764   21334544.9314
        47.4004         44.5004
 16  6 10  0 17 30.0000000  0  9G19G 6G31G 1G22G17G23G 3G 9
 -14034117.53945 -10902173.37947  22301651.450    22301650.7204   22301653.2724
        45.6004         42.8004
  -6903920.37045  -5366516.55747  21755053.232    21755053.3894   21755059.5544
        46.3004         43.5004
  -4147255.73843  -3220904.85746  23993520.030    23993520.2514   23993522.8194
        40.1004         37.4004
  -1777465.50343  -1366310.44946  23614346.200    23614345.0454   23614352.3514
        38.9004         36.7004
  -8120668.89445  -6313177.08046  22586376.495    22586376.2324   22586377.3904
        43.6004         40.7004
  -7235321.34745  -5624337.75046  22610862.411    22610862.8414   22610864.5794
        44.1004         41.4004
 -22227366.64646 -17036507.39247  20671783.256    20671783.0294   20671783.4324
        49.5004         46.6004
 -18388998.73046 -14304903.36147  20994176.612    20994176.9084   20994181.3734
        49.3004         46.5004
 -16054045.84146 -12485899.43647  21320318.964    21320319.1694   21320323.9924
        47.5004         44.5004
 16  6 10  0 18  0.0000000  0  9G19G 6G31G 1G22G17G23G 3G 9
 -13999479.77345 -10875182.92047  22308243.132    22308242.1524   22308244.0514
        45.5004         42.6004
  -6977441.56946  -5423805.78347  21741062.402    21741063.4114   21741068.6204
        46.5004         43.7004
  -4091802.72343  -3177694.75546  24004072.855    24004073.9294   24004075.2044
        39.9004         37.4004
  -1671535.82443  -1283767.88046  23634503.285    23634503.1714   23634509.6464
        38.7004         36.4004
  -8043361.04345  -6252937.20946  22601087.396    22601086.6554   22601087.9804
        43.6004         40.7004
  -7166986.84745  -5571090.08646  22623865.896    22623866.4194   22623868.2634
        44.1004         41.4004
 -22247773.48646 -17052408.81947  20667899.656    20667899.6464   20667900.1254
        49.5004         46.6004
 -18338254.05546 -14265362.05147  21003832.668    21003833.3064   21003837.8814
        49.1004         46.3004
 -16128376.43046 -12543819.35747  21306174.595    21306174.7464   21306179.4444
        47.5004         44.7004
 16  6 10  0 18 30.0000000  0  9G19G 6G31G 1G22G17G23G 3G 9
 -13964254.49245 -10847734.66447  22314946.436    22314945.1874   22314947.6794
        45.3004         42.3004
  -7050603.56246  -5480815.12847  21727140.206    21727140.8604   21727146.8794
        46.7004         43.9004
  -4035841.91343  -3134088.91246  24014722.643    24014722.5704   24014723.8364
        39.9004         37.4004
  -1565434.91743  -1201091.88946  23654692.273    23654693.2384   23654698.8464
        38.5004         36.2004
  -7965881.80544  -6192563.80246  22615832.466    22615831.1054   22615832.1084
        43.4004         40.6004
  -7098231.62845  -5517514.61146  22636950.212    22636950.2934   22636952.2904
        44.1004         41.4004
 -22267701.93846 -17067937.47947  20664107.689    20664107.2644   20664107.7494
        49.5004         46.6004
 -18287217.49846 -14225593.30947  21013544.806    21013544.8304   21013549.6934
        49.1004         46.3004
 -16202304.92046 -12601425.95847  21292107.019    21292106.6744   21292111.1824
        47.7004         44.9004
 16  6 10  0 19  0.0000000  0  9G19G 6G31G 1G22G17G23G 3G 9
 -13928443.32645 -10819829.86347  22321760.720    22321759.8614   22321762.1864
        45.1004         42.5004
  -7123404.22946  -5537542.89247  21713286.044    21713286.7424   21713293.3594
        46.5004         43.7004
  -3979374.61643  -3090088.46246  24025468.654    24025468.1984   24025468.7894
        40.1004         37.4004
  -1459164.42243  -1118283.74846  23674915.916    23674915.5234   23674923.0914
        38.3004         36.2004
  -7888231.70744  -6132057.23946  22630607.935    22630607.0234   22630608.3114
        43.4004         40.7004
  -7029058.56345  -5463613.53346  22650113.874    22650113.8944   22650115.2884
        44.2004         41.6004
 -22287152.06246 -17083093.40647  20660406.779    20660405.9244   20660406.3134
        49.5004         46.6004
 -18235889.70546 -14185597.63447  21023312.002    21023312.6064   21023317.1454
        49.1004         46.3004
 -16275829.92146 -12658718.14247  21278115.026    21278114.7824   21278120.0144
        47.7004         44.9004
 16  6 10  0 19 30.0000000  0  9G19G 6G31G 1G22G17G23G 3G 9
 -13892047.72845 -10791469.66047  22328686.360    22328685.4544   22328687.4064
        45.3004         42.6004
  -7195841.36646  -5593987.40247  21699502.215    21699502.7944   21699508.6364
        46.5004         43.7004
  -3922402.51343  -3045694.61146  24036309.104    24036308.2724   24036311.9494
        39.9004         37.4004
  -1352726.08743  -1035344.81945  23695170.491    23695169.8904   23695176.3434
        38.2004         35.9004
  -7810411.75444  -6071418.33546  22645417.244    22645415.1324   22645416.6544
        43.2004         40.4004
  -6959470.04045  -5409388.71746  22663355.283    22663355.9004   22663358.0924
        44.1004         41.2004
 -22306123.78146 -17097876.56047  20656796.010    20656795.8004   20656796.5614
        49.5004         46.8004
 -18184271.41646 -14145375.59247  21033134.243    21033134.9964   21033139.6374
        49.1004         46.3004
 -16348950.03146 -12715694.83147  21264200.316    21264200.3504   21264205.6054
        47.7004         44.7004
 16  6 10  0 20  0.0000000  0  9G19G 6G31G 1G22G17G23G 3G 9
 -13855069.49545 -10762655.45947  22335724.188    22335722.9464   22335724.6824
        45.6004         43.2004
  -7267912.39646  -5650146.63847  21685787.564    21685788.6144   21685793.5674
        46.5004         43.9004
  -3864927.65543  -3000909.04546  24047245.613    24047245.5974   24047247.8794
        39.7004         37.3004
  -1246121.64643   -952276.42846  23715454.714    23715456.4754   23715462.9034
        38.3004         36.0004
  -7732422.73744  -6010647.67446  22660257.196    22660256.2374   22660258.1594
        43.2004         40.4004
  -6889468.94345  -5354842.42546  22676676.200    22676676.1424   22676677.7344
        43.9004         40.7004
 -22324617.23846 -17112287.03847  20653277.256    20653276.9104   20653277.1484
        49.5004         46.8004
 -18132363.29246 -14104927.71247  21043012.752    21043013.0464   21043017.4024
        49.1004         46.3004
 -16421663.90946 -12772354.98647  21250363.554    21250363.4034   21250368.7644
        47.7004         44.9004
 16  6 10  0 20 30.0000000  0  9G19G 6G31G 1G22G17G23G 3G 9
 -13817510.22945 -10733388.48247  22342871.518    22342869.9954   22342871.9264
        45.8004         42.8004
  -7339615.14746  -5706018.91147  21672143.165    21672144.0424   21672149.3754
        46.5004         43.9004
  -3806952.06243  -2955733.26546  24058276.252    24058278.2374   24058279.8484
        39.2004         36.6004
  -1139352.88743   -869080.00746  23735773.799    23735774.3174   23735780.5384
        38.5004         36.2004
  -7654265.00544  -5949745.58346  22675132.239    22675129.9724   22675131.4174
        43.4004         40.7004
  -6819057.73745  -5299976.57146  22690073.938    22690075.0264   22690077.1194
        43.6004         40.7004
 -22342632.51247 -17126324.90547  20649848.933    20649848.5274   20649849.0844
        49.6004         47.0004
 -18080166.06946 -14064254.55347  21052945.360    21052945.4904   21052950.4884
        49.1004         46.3004
 -16493970.16546 -12828697.50747  21236604.412    21236604.4164   21236608.6584
        47.7004         44.7004
 16  6 10  0 21  0.0000000  0  9G19G 6G31G 1G22G17G23G 3G 9
 -13779371.81845 -10703670.23747  22350128.421    22350127.3434   22350129.5324
        45.5004         42.3004
  -7410947.36646  -5761602.42447  21658569.277    21658569.6814   21658575.3944
        46.9004         44.0004
  -3748477.52143  -2910168.69246  24069405.568    24069405.8704   24069407.7644
        39.2004         36.9004
  -1032421.50343   -785756.88645  23756124.030    23756122.0994   23756128.0554
        38.3004         35.9004
  -7575939.46844  -5888712.69746  22690035.222    22690034.6654   22690035.9534
        43.4004         40.7004
  -6748238.55044  -5244792.79546  22703550.886    22703550.7884   22703554.4174
        43.4004         40.7004
 -22360169.62747 -17139990.17947  20646511.450    20646511.5114   20646511.8854
        49.6004         46.8004
 -18027680.43446 -14023356.66947  21062933.117    21062933.4954   21062937.8654
        49.1004         46.1004
 -16565867.45946 -12884721.35247  21222922.133    21222922.5104   21222926.6684
        47.5004         44.7004
 16  6 10  0 21 30.0000000  0  9G19G 6G31G 1G22G17G23G 3G 9
 -13740655.80945 -10673501.90747  22357495.022    22357494.9254   22357496.4204
        45.3004         42.6004
  -7481906.75246  -5816895.43047  21645065.881    21645066.5984   21645071.7934
        46.9004         43.9004
  -3689506.30543  -2864217.10046  24080628.262    24080627.7004   24080630.3264
        39.6004         37.4004
   -925329.24743   -702308.37745  23776502.786    23776500.5524   23776505.8134
        38.2004         35.9004
  -7497446.66244  -5827549.49846  22704973.271    22704970.8054   22704972.8114
        43.4004         40.6004
  -6677014.85445  -5189293.82646  22717105.075    22717104.9314   22717108.0764
        43.6004         40.9004
 -22377228.54447 -17153282.83447  20643265.286    20643265.0734   20643265.9054
        49.6004         46.8004
 -17974907.06146 -13982234.57347  21072975.432    21072975.8134   21072980.4664
        49.1004         46.1004
 -16637354.46646 -12940425.48947  21209318.548    21209318.7604   21209323.3064
        47.5004         44.7004
 16  6 10  0 22  0.0000000  0  9G19G 6G31G 1G22G17G23G 3G 9
 -13701364.13945 -10642885.04847  22364972.997    22364971.5664   22364973.0864
        45.1004         42.1004
  -7552490.97046  -5871896.10547  21631634.700    21631634.9324   21631640.6054
        46.9004         44.0004
  -3630040.07043  -2817879.76346  24091944.225    24091943.1934   24091946.1794
        39.2004         36.7004
   -818077.87943   -618735.88045  23796909.294    23796911.1844   23796916.7494
        38.0004         35.7004
  -7418787.42845  -5766256.59646  22719940.390    22719939.4514   22719941.0884
        43.6004         40.7004
  -6605388.86745  -5133481.39446  22730734.034    22730734.3384   22730737.2454
        43.6004         40.7004
 -22393809.51147 -17166203.06447  20640110.352    20640109.9024   20640110.2354
        49.6004         46.8004
 -17921846.65246 -13940888.80047  21083072.290    21083072.6054   21083077.3284
        48.9004         46.1004
 -16708429.84746 -12995808.88647  21195794.153    21195794.0544   21195798.6254
        47.7004         44.9004
 16  6 10  0 22 30.0000000  0  9G19G 6G31G 1G22G17G23G 3G 9
 -13661498.26345 -10611820.72746  22372558.822    22372557.8394   22372558.9504
        44.9004         41.9004
  -7622697.77246  -5926602.69147  21618274.296    21618275.0474   21618280.3134
        46.9004         44.0004
  -3570080.75643  -2771158.21546  24103353.741    24103354.0394   24103355.5594
        39.0004         36.9004
   -710669.16342   -535040.80745  23817349.676    23817349.0164   23817355.3394
        37.5004         35.2004
  -7339962.48744  -5704834.57746  22734940.944    22734938.9834   22734941.0964
        43.4004         40.6004
  -6533363.12745  -5077357.46946  22744439.938    22744440.7084   22744443.2254
        43.6004         40.7004
 -22409912.59646 -17178750.91747  20637045.544    20637045.5054   20637045.6734
        49.5004         46.6004
 -17868499.91546 -13899319.91147  21093223.753    21093224.2334   21093228.6704
        48.9004         46.1004
 -16779092.28146 -13050870.50847  21182347.589    21182347.5844   21182351.5554
        47.9004         45.1004
 16  6 10  0 23  0.0000000  0  9G19G 6G31G 1G22G17G23G 3G 9
 -13621060.25845 -10580310.58847  22380254.061    22380253.2234   22380254.3624
        44.8004         42.1004
  -7692524.86046  -5981013.39247  21604986.760    21604987.5624   21604992.5654
        46.9004         44.0004
  -3509630.76243  -2724054.35746  24114855.255    24114855.8444   24114858.8854
        39.2004         36.7004
   -603104.81242   -451224.45345  23837820.003    23837818.1554   23837824.2754
        37.3004         35.2004
  -7260972.38744  -5643283.86946  22749971.707    22749970.8884   22749973.3704
        43.2004         40.6004
  -6460940.51145  -5020924.29446  22758222.494    22758222.4724   22758225.5714
        43.7004         41.1004
 -22425537.85846 -17190926.44247  20634072.765    20634072.0794   20634072.4444
        49.5004         46.6004
 -17814867.55046 -13857528.45847  21103429.716    21103430.0614   21103434.3814
        48.9004         45.9004
 -16849340.48746 -13105609.34747  21168979.710    21168979.5484   21168984.1914
        47.9004         45.1004
 16  6 10  0 23 30.0000000  0  9G19G 6G31G 1G22G17G23G 3G 9
 -13580051.85245 -10548355.98747  22388058.128    22388057.5764   22388058.5774
        44.9004         42.3004
  -7761969.93946  -6035126.43547  21591771.602    21591772.1694   21591777.7214
        47.0004         44.2004
  -3448691.60743  -2676569.32446  24126451.447    24126453.0514   24126455.2904
        39.2004         36.7004
   -495386.59742   -367288.21045  23858316.290    23858315.4684   23858323.2384
        37.0004         35.0004
  -7181817.73644  -5581604.93446  22765035.907    22765033.8424   22765034.7954
        43.4004         40.6004
  -6388123.80645  -4964184.01846  22772078.697    22772078.6514   22772081.8714
        43.7004         41.1004
 -22440685.48946 -17202729.78447  20631189.702    20631189.8894   20631189.8864
        49.5004         46.8004
 -17760950.24546 -13815514.97547  21113690.482    21113690.6624   21113694.7114
        48.8004         45.9004
 -16919173.16946 -13160024.40647  21155690.508    21155690.7934   21155695.5284
        48.1004         45.2004
 16  6 10  0 24  0.0000000  0  9G19G 6G31G 1G22G17G23G 3G 9
 -13538474.96045 -10515958.42846  22395970.055    22395968.4624   22395969.7444
        44.9004         41.9004
  -7831030.77046  -6088940.05747  21578629.306    21578629.7474   21578636.0054
        46.9004         44.2004
  -3387265.67243  -2628704.99046  24138141.779    24138141.9924   24138143.6644
        39.0004         36.6004
   -387516.33142   -283233.47245  23878842.410    23878842.8164   23878849.3464
        37.3004         35.2004
  -7102499.22644  -5519798.30646  22780128.502    22780127.6874   22780128.4974
        43.4004         40.7004
  -6314915.84445  -4907138.87846  22786010.725    22786010.4064   22786012.4704
        43.9004         41.2004
 -22455355.38447 -17214160.86647  20628398.440    20628398.1124   20628398.2474
        49.6004         47.0004
 -17706748.70946 -13773280.01547  21124004.086    21124004.6894   21124009.1024
        48.8004         45.9004
 -16988589.02946 -13214114.67147  21142481.838    21142481.4514   21142486.1364
        48.1004         45.2004
 16  6 10  0 24 30.0000000  0  9G19G 6G31G 1G22G17G23G 3G 9
 -13496331.33945 -10483119.25446  22403988.678    22403988.1334   22403989.6294
        44.6004         41.4004
  -7899705.04046  -6142452.45847  21565561.369    21565562.0494   21565568.0924
        47.0004         44.2004
  -3325354.87043  -2580462.84446  24149922.731    24149922.8244   24149923.9854
        38.7004         36.2004
   -279495.72942   -199061.57845  23899395.533    23899398.0324   23899405.3344
        37.1004         35.2004
  -7023017.76144  -5457864.71346  22795254.588    22795253.1044   22795253.3224
        43.2004         40.6004
  -6241319.17945  -4849790.84546  22800015.080    22800015.7804   22800017.7454
        44.2004         41.6004
 -22469548.13347 -17225220.14447  20625697.394    20625697.3014   20625697.4824
        49.6004         47.0004
 -17652263.63446 -13730824.11347  21134372.059    21134372.2804   21134377.2324
        48.8004         45.8004
 -17057586.80846 -13267879.16147  21129351.139    21129351.6254   21129356.7214
        48.2004         45.4004
 16  6 10  0 25  0.0000000  0  9G19G 6G31G 1G22G17G23G 3G 9
 -13453622.74345 -10449839.81346  22412115.702    22412114.3864   22412116.5724
        44.2004         41.4004
  -7967990.46846  -6195661.87247  21552567.006    21552568.0734   21552573.6184
        47.0004         44.2004
  -3262961.18743  -2531844.40245  24161796.064    24161795.8344   24161797.2744
        38.3004         35.7004
   -171326.49942   -114773.85645  23919982.451    23919982.9954   23919989.6884
        37.0004         35.2004
  -6943373.87444  -5395804.56146  22810408.324    22810408.9514   22810409.3474
        43.0004         40.4004
  -6167336.50445  -4792142.01146  22814093.718    22814093.0694   22814096.1024
        44.2004         41.2004
 -22483263.58847 -17235907.50247  20623087.246    20623086.9764   20623087.4834
        49.6004         47.0004
 -17597495.72346 -13688147.82447  21144794.012    21144794.3524   21144799.5254
        48.6004         45.8004
 -17126165.24146 -13321316.89447  21116301.335    21116301.8024   21116306.2034
        48.2004         45.4004
 16  6 10  0 25 30.0000000  0  9G19G 6G31G 1G22G17G23G 3G 9
 -13410351.26345 -10416121.79046  22420350.382    22420349.2764   22420351.3934
        44.4004         41.9004
  -8035884.84346  -6248566.56747  21539646.991    21539647.8034   21539653.6724
        46.9004         44.0004
  -3200086.94443  -2482851.54545  24173759.352    24173760.4444   24173761.8424
        38.0004         35.9004
    -63010.50442    -30371.79945  23940595.512    23940594.7434   23940600.4464
        36.8004         34.8004
  -6863568.28044  -5333618.40346  22825596.073    22825595.1194   22825595.5224
        42.9004         40.2004
  -6092970.55545  -4734194.53646  22828245.266    22828244.9334   22828247.0804
        43.9004         41.2004
 -22496502.31847 -17246223.39047  20620568.120    20620567.9154   20620568.4994
        49.6004         47.0004
 -17542445.67046 -13645251.68647  21155270.325    21155270.6034   21155275.3014
        48.8004         45.8004
 -17194323.11146 -13374426.91047  21103332.116    21103331.9594   21103336.2994
        48.4004         45.4004
 16  6 10  0 26  0.0000000  0  9G19G 6G31G 1G22G17G23G 3G 9
 -13366518.92045 -10381966.73146  22428692.192    22428690.9184   22428692.2574
        44.8004         41.9004
  -8103385.84446  -6301164.74347  21526803.019    21526802.8924   21526808.3244
        46.9004         44.0004
  -3136734.09943  -2433485.72346  24185817.934    24185817.5774   24185815.8914
        38.2004         36.0004
     45450.53142     54143.29045  23961234.643    23961234.2744   23961238.8094
        36.6004         34.6004
  -6783601.60544  -5271306.72946  22840810.773    22840810.2274   22840812.7624
        42.7004         39.7004
  -6018224.22245  -4675950.67646  22842467.999    22842468.2424   22842470.5454
        43.7004         40.7004
 -22509264.27947 -17256167.76647  20618140.102    20618139.8124   20618139.9354
        49.8004         47.2004
 -17487114.16246 -13602136.22947  21165799.097    21165799.3304   21165804.1924
        48.6004         45.8004
 -17262059.16946 -13427208.23847  21090442.460    21090442.1954   21090446.4554
        48.4004         45.4004
 16  6 10  0 26 30.0000000  0  9G19G 6G31G 1G22G17G23G 3G 9
 -13322127.42245 -10347375.97246  22437139.208    22437137.7994   22437139.8484
        44.6004         41.8004
  -8170491.25246  -6353454.65647  21514032.918    21514033.5274   21514038.5004
        47.0004         44.2004
  -3072904.84443  -2383748.62946  24197962.399    24197962.1194   24197962.6394
        38.3004         36.2004
    154054.78742    138769.95545  23981902.051    23981901.2994   23981906.4514
        36.3004         34.3004
  -6703474.45144  -5208870.00846  22856059.176    22856058.2704   22856061.1504
        42.5004         39.9004
  -5943100.09345  -4617412.40346  22856764.045    22856763.6884   22856767.1574
        43.6004         40.7004
 -22521549.53947 -17265740.68547  20615802.453    20615801.9444   20615802.2294
        49.8004         47.2004
 -17431501.93046 -13558802.01747  21176382.064    21176382.4714   21176387.4734
        48.8004         45.9004
 -17329372.18746 -13479659.92047  21077632.560    21077632.3954   21077636.8254
        48.2004         45.4004
 16  6 10  0 27  0.0000000  0  9G19G 6G31G 1G22G17G23G 3G 9
 -13277178.79145 -10312351.06046  22445692.549    22445691.4314   22445692.5224
        44.6004         41.8004
  -8237198.76646  -6405434.51647  21501339.165    21501339.3664   21501344.6674
        47.2004         44.5004
  -3008601.08243  -2333641.82646  24210199.031    24210200.0084   24210200.6304
        38.5004         36.4004
    262800.49742    223506.87445  24002594.322    24002593.9964   24002601.5014
        36.3004         34.5004
  -6623187.56344  -5146308.81846  22871339.190    22871337.4614   22871338.7484
        42.7004         40.2004
  -5867601.25144  -4558582.15246  22871130.980    22871131.4784   22871133.6764
        43.4004         40.6004
 -22533358.46547 -17274942.43847  20613554.787    20613554.4094   20613554.7824
        49.8004         47.0004
 -17375609.62646 -13515249.58147  21187017.633    21187018.2164   21187022.8134
        48.6004         45.8004
 -17396260.98046 -13531781.03747  21064903.716    21064903.7284   21064908.4024
        48.1004         45.2004
 16  6 10  0 27 30.0000000  0  9G19G 6G31G 1G22G17G23G 3G 9
 -13231675.11945 -10276893.65847  22454351.630    22454350.8924   22454352.0934
        44.8004         42.1004
  -8303506.13946  -6457102.59747  21488721.493    21488721.8354   21488726.3914
        47.4004         44.5004
  -2943824.95843  -2283166.98646  24222526.243    24222527.3314   24222527.6724
        38.5004         36.2004
    371685.95842    308352.67345  24023312.578    24023314.1644   24023319.6974
        36.1004         34.3004
  -6542741.64244  -5083623.71646  22886648.266    22886647.1344   22886647.9554
        43.0004         40.4004
  -5791730.03944  -4499461.75546  22885568.700    22885569.2154   22885571.1924
        43.0004         40.2004
 -22544691.46447 -17283773.34347  20611398.016    20611397.9464   20611397.8904
        49.6004         46.8004
 -17319438.00246 -13471479.48747  21197707.167    21197707.4754   21197712.1264
        48.6004         45.8004
 -17462724.33146 -13583570.64447  21052255.853    21052256.1604   21052261.1344
        48.2004         45.4004
 16  6 10  0 28  0.0000000  0  9G19G 6G31G 1G22G17G23G 3G 9
 -13185618.35145 -10241005.27746  22463115.766    22463114.5094   22463116.8424
        44.9004         41.9004
  -8369411.18446  -6508457.16347  21476179.445    21476180.4054   21476185.2464
        47.4004         44.5004
  -2878578.67343  -2232325.74646  24234943.334    24234943.4184   24234943.5704
        38.2004         36.0004
    480709.35042    393306.00645  24044058.868    24044060.9804   24044067.4014
        36.3004         34.5004
  -6462137.44444  -5020815.25146  22901984.162    22901983.5204   22901985.1574
        42.9004         40.0004
  -5715489.40644  -4440053.48646  22900077.665    22900077.4294   22900079.0514
        43.0004         40.4004
 -22555548.67747 -17292233.49747  20609332.695    20609331.8604   20609332.0354
        49.8004         47.0004
 -17262987.71046 -13427492.25547  21208448.588    21208449.2464   21208454.1394
        48.4004         45.4004
 -17528761.08846 -13635027.82947  21039690.434    21039690.0874   21039694.6104
        48.4004         45.6004
 16  6 10  0 28 30.0000000  0  9G19G 6G31G 1G22G17G23G 3G 9
 -13139010.52445 -10204687.49246  22471985.039    22471984.5364   22471985.9064
        44.6004         41.8004
  -8434911.59146  -6559496.41747  21463714.997    21463715.8724   21463720.8734
        47.4004         44.5004
  -2812864.79743  -2181120.14546  24247448.016    24247447.7264   24247449.7384
        38.5004         36.2004
    589868.91842    478365.42645  24064834.359    24064833.7164   24064839.6804
        36.1004         34.3004
  -6381375.45744  -4957883.87446  22917355.851    22917353.6564   22917354.1374
        42.7004         39.9004
  -5638881.85444  -4380359.27746  22914654.749    22914654.9524   22914657.1334
        42.9004         39.9004
 -22565930.15747 -17300322.95447  20607357.257    20607356.7144   20607356.6274
        49.8004         47.2004
 -17206259.48046 -13383288.45047  21219243.915    21219244.0714   21219249.1774
        48.2004         45.2004
 -17594370.03946 -13686151.68047  21027205.227    21027205.1994   21027210.0244
        48.4004         45.6004
 16  6 10  0 29  0.0000000  0  9G19G 6G31G 1G22G17G23G 3G 9
 -13091853.76945 -10167941.97646  22480958.539    22480958.4924   22480959.4444
        44.4004         41.6004
  -8500005.11546  -6610218.63347  21451328.474    21451329.2004   21451333.8524
        47.4004         44.5004
  -2746685.02743  -2129551.56246  24260041.708    24260041.3204   24260041.2284
        38.3004         36.0004
    699162.87542    563529.53245  24085635.749    24085631.8794   24085639.5604
        35.7004         34.0004
  -6300456.37344  -4894830.06746  22932751.089    22932752.2604   22932751.7314
        42.7004         40.0004
  -5561910.56044  -4320381.66446  22929302.606    22929302.8274   22929303.8144
        42.7004         39.9004
 -22575836.33847 -17308042.05047  20605471.815    20605471.5004   20605471.5684
        50.0004         47.2004
 -17149253.99346 -13338868.60747  21230091.129    21230091.8384   21230096.6014
        48.1004         45.2004
 -17659550.06446 -13736941.29647  21014801.687    21014801.7364   21014806.6044
        48.6004         45.8004
 16  6 10  0 29 30.0000000  0  9G19G 6G31G 1G22G17G23G 3G 9
 -13044149.96645 -10130770.19446  22490036.598    22490035.7834   22490036.9124
        44.6004         41.8004
  -8564689.54446  -6660622.08347  21439019.579    21439020.2714   21439024.8764
        47.4004         44.5004
  -2680041.56943  -2077621.57245  24272723.485    24272723.1964   24272723.1914
        37.8004         35.5004
    808589.31942    648796.86945  24106458.171    24106455.3714   24106462.2914
        35.7004         34.0004
  -6219380.95944  -4831654.42646  22948179.836    22948179.3824   22948179.8634
        42.3004         39.7004
  -5484578.40244  -4260122.85046  22944018.331    22944018.4034   22944020.5034
        42.5004         40.2004
 -22585267.67447 -17315391.13747  20603677.270    20603676.6984   20603676.7874
        50.0004         47.2004
 -17091971.93646 -13294233.24747  21240992.230    21240992.4634   21240997.0734
        48.1004         45.2004
 -17724299.99746 -13787395.78747  21002479.747    21002480.0544   21002484.7574
        48.4004         45.6004
 16  6 10  0 30  0.0000000  0  9G19G 6G31G 1G22G17G23G 3G 9
 -12995901.23645 -10093173.79046  22499217.895    22499217.4504   22499219.0284
        44.6004         41.8004
  -8628962.63246  -6710704.99947  21426789.130    21426789.4464   21426794.1194
        47.5004         44.7004
  -2612936.88843  -2025332.24145  24285492.548    24285492.1234   24285495.2844
        37.6004         35.7004
    918146.56342    734166.11445  24127300.963    24127304.2384   24127308.3694
        35.6004         33.8004
  -6138149.95144  -4768357.53846  22963638.185    22963636.3274   22963638.6074
        42.3004         39.5004
  -5406888.04444  -4199584.91146  22958802.372    22958802.9924   22958804.6014
        43.0004         40.4004
 -22594224.39647 -17322370.39647  20601972.556    20601972.2474   20601972.3534
        50.0004         47.2004
 -17034414.03546 -13249382.94347  21251945.139    21251945.5584   21251950.3734
        48.1004         45.2004
 -17788618.70146 -13837514.24247  20990240.629    20990240.5794   20990245.1874
        48.4004         45.6004
 16  6 10  0 30 30.0000000  0  9G19G 6G31G 1G22G17G23G 3G 9
 -12947109.62845 -10055154.35146  22508503.202    22508501.8754   22508503.5544
        44.6004         41.9004
  -8692822.16146  -6760465.66047  21414636.585    21414637.2604   21414642.3134
        47.5004         44.7004
  -2545373.12843  -1972685.21645  24298350.052    24298349.3224   24298351.5894
        37.8004         35.9004
   1027832.72542    819635.84745  24148168.586    24148176.5334   24148182.1484
        35.4004         33.6004
  -6056764.02344  -4704939.95146  22979123.833    22979123.3264   22979125.1474
        42.2004         39.3004
  -5328842.40844  -4138770.16346  22973653.887    22973652.9244   22973656.2224
        43.0004         40.2004
 -22602706.65247 -17328979.94247  20600358.417    20600358.0944   20600358.2254
        49.8004         47.0004
 -16976580.96446 -13204318.21847  21262950.247    21262951.0524   21262955.7294
        48.1004         45.4004
 -17852505.06046 -13887295.80447  20978083.398    20978083.6694   20978087.8234
        48.4004         45.6004
 16  6 10  0 31  0.0000000  0  9G19G 6G31G 1G22G17G23G 3G 9
 -12897777.21545 -10016713.50646  22517889.985    22517889.1154   22517891.3464
        44.8004         41.9004
  -8756265.91246  -6809902.34747  21402563.564    21402564.1844   21402569.0604
        47.7004         44.9004
  -2477352.42343  -1919682.06745  24311293.929    24311294.5384   24311295.4154
        38.0004         35.9004
   1137646.14242    905204.76145  24169072.529    24169073.7014   24169077.3234
        35.6004         34.1004
  -5975223.85844  -4641402.16946  22994640.780    22994639.7024   22994642.2514
        42.2004         39.5004
  -5250444.46944  -4077680.87346  22988571.707    22988571.6514   22988575.0594
        43.0004         40.4004
 -22610715.14247 -17335220.31747  20598834.243    20598834.2654   20598834.1674
        49.8004         47.2004
 -16918473.46546 -13159039.66047  21274008.120    21274008.2664   21274013.1074
        48.1004         45.2004
 -17915957.94946 -13936739.59647  20966009.464    20966009.1704   20966013.3754
        48.6004         45.8004
 16  6 10  0 31 30.0000000  0  9G19G 6G31G 1G22G17G23G 3G 9
 -12847906.62545  -9977853.32647  22527380.423    22527379.9454   22527380.8034
        45.1004         42.3004
  -8819291.67246  -6859013.30047  21390570.718    21390570.7384   21390576.0884
        47.9004         45.1004
  -2408876.82743  -1866324.49246  24324323.052    24324323.8044   24324325.4264
        38.2004         36.0004
   1247584.99242    990871.36145  24190000.835    24189994.2614   24189999.5024
        35.9004         34.1004
  -5893529.71144  -4577744.42646  23010186.580    23010186.4124   23010187.7964
        42.2004         39.3004
  -5171696.76144  -4016319.06146  23003557.712    23003558.0934   23003560.2754
        43.2004         40.4004
 -22618250.08647 -17341091.69447  20597400.049    20597400.0814   20597400.3784
        49.8004         47.0004
 -16860092.18246 -13113547.76447  21285117.455    21285117.7784   21285122.8504
        48.1004         45.2004
 -17978976.29046 -13985844.78847  20954016.416    20954016.7784   20954021.5844
        48.6004         45.8004
 16  6 10  0 32  0.0000000  0  9G19G 6G31G 1G22G17G23G 3G 9
 -12797499.67945  -9938575.20547  22536973.145    22536972.3724   22536973.3674
        45.3004         42.3004
  -8881897.24146  -6907796.84647  21378656.173    21378656.9624   21378662.5404
        47.9004         44.9004
  -2339948.80843  -1812614.38046  24337439.687    24337440.4974   24337441.9254
        38.3004         36.2004
   1357647.46542   1076634.30645  24210946.131    24210941.0794   24210943.8654
        35.7004         34.0004
  -5811682.73944  -4513967.56746  23025761.905    23025761.2444   23025762.6774
        42.0004         39.3004
  -5092602.26144  -3954687.01846  23018608.568    23018609.1454   23018611.6344
        43.2004         40.4004
 -22625311.72447 -17346594.26147  20596056.128    20596056.1434   20596056.8604
        49.8004         47.0004
 -16801437.82746 -13067843.07847  21296279.861    21296279.7834   21296284.6734
        48.2004         45.4004
 -18041559.00946 -14034610.52847  20942108.354    20942107.9374   20942112.5144
        48.8004         45.9004
 16  6 10  0 32 30.0000000  0  9G19G 6G31G 1G22G17G23G 3G 9
 -12746558.51945  -9898880.79047  22546666.288    22546665.6794   22546667.6084
        45.1004         42.1004
  -8944080.38646  -6956251.23447  21366823.297    21366824.0134   21366829.2114
        47.9004         45.2004
  -2270570.41443  -1758553.29846  24350642.328    24350641.8624   24350644.5464
        38.3004         36.0004
   1467831.71242   1162492.14045  24231910.967    24231909.0124   24231911.6384
        35.7004         34.0004
  -5729683.38944  -4450072.00646  23041364.984    23041364.9924   23041367.0784
        42.0004         39.3004
  -5013164.05344  -3892787.14046  23033724.780    23033725.0844   23033727.8524
        43.0004         40.4004
 -22631900.55847 -17351728.41547  20594802.496    20594802.5434   20594802.9984
        49.8004         47.0004
 -16742511.14746 -13021926.19147  21307492.699    21307492.9764   21307497.7174
        48.2004         45.4004
 -18103705.00546 -14083035.96247  20930281.056    20930281.5124   20930286.5414
        48.8004         45.9004
 16  6 10  0 33  0.0000000  0  9G19G 6G31G 1G22G17G23G 3G 9
 -12695085.55645  -9858771.99446  22556461.372    22556460.1964   22556462.2264
        44.9004         41.9004
  -9005838.93046  -7004374.77347  21355071.757    21355071.8104   21355077.1654
        48.1004         45.4004
  -2200744.26743  -1704143.34445  24363928.096    24363927.8654   24363932.0554
        38.2004         35.9004
   1578135.98842   1248443.55445  24252893.694    24252894.8914   24252900.9524
        35.4004         33.8004
  -5647532.27444  -4386058.15746  23056998.475    23056997.6714   23056999.4874
        41.8004         39.3004
  -4933384.74044  -3830621.45046  23048906.717    23048906.7964   23048909.4224
        43.2004         40.4004
 -22638016.93547 -17356494.41847  20593638.800    20593638.7004   20593638.9034
        49.8004         47.0004
 -16683312.80246 -12975797.61947  21318758.000    21318758.3774   21318762.7834
        48.2004         45.4004
 -18165413.23646 -14131120.28747  20918539.042    20918538.9834   20918543.5804
        48.8004         45.9004
 16  6 10  0 33 30.0000000  0  9G19G 6G31G 1G22G17G23G 3G 9
 -12643082.95445  -9818250.50147  22566356.877    22566355.5174   22566358.4394
        44.9004         42.1004
  -9067170.67946  -7052165.73047  21343400.782    21343401.2114   21343405.7774
        48.2004         45.4004
  -2130472.55543  -1649386.20246  24377301.172    24377301.2944   24377303.6374
        38.3004         36.4004
   1688558.41342   1334486.98845  24273904.627    24273906.2094   24273914.6114
        35.0004         33.4004
  -5565230.27844  -4321926.76846  23072661.654    23072660.2544   23072662.3554
        41.8004         39.3004
  -4853267.22744  -3768192.25646  23064153.465    23064153.2444   23064155.4344
        42.9004         40.0004
 -22643661.04847 -17360892.41847  20592565.296    20592564.6934   20592564.8744
        49.8004         47.0004
 -16623843.46646 -12929457.88047  21330074.135    21330074.6684   21330079.6034
        48.2004         45.6004
 -18226682.68746 -14178862.69947  20906880.085    20906879.8664   20906884.4514
        48.8004         45.9004
 16  6 10  0 34  0.0000000  0  9G19G 6G31G 1G22G17G23G 3G 9
 -12590552.74445  -9777317.87546  22576352.834    22576352.2224   22576354.3874
        44.8004         41.8004
  -9128073.42346  -7099622.40747  21331811.335    21331811.5864   21331816.8694
        48.4004         45.6004
  -2059757.50843  -1594283.58846  24390758.362    24390758.0134   24390761.4074
        38.7004         36.6004
   1799097.34542   1420621.24645  24294942.575    24294946.0234   24294948.0544
        34.5004         33.4004
  -5482777.82144  -4257678.10846  23088349.541    23088348.9974   23088351.7214
        41.8004         39.2004
  -4772814.44044  -3705501.76746  23079461.991    23079461.4214   23079464.8524
        42.5004         39.3004
 -22648833.35747 -17364922.78747  20591580.472    20591580.3354   20591580.7274
        49.8004         47.0004
 -16564103.88146 -12882907.56347  21341441.951    21341442.4284   21341447.2064
        48.2004         45.4004
 -18287512.25846 -14226262.35947  20895304.681    20895304.7954   20895308.9434
        48.9004         46.1004
 16  6 10  0 34 30.0000000  0  9G19G 6G31G 1G22G17G23G 3G 9
 -12537497.26645  -9735975.94546  22586449.092    22586447.7574   22586450.3234
        44.4004         41.6004
  -9188545.00446  -7146743.11247  21320303.349    21320304.1244   21320309.5534
        48.4004         45.6004
  -1988601.31343  -1538837.25346  24404298.144    24404298.2604   24404301.9114
        38.9004         36.7004
   1909750.81241   1506844.74445  24315999.069    24316000.7354   24316005.2394
        34.3004         33.1004
  -5400175.68444  -4193312.81146  23104070.804    23104068.9474   23104070.7344
        41.6004         39.0004
  -4692029.42244  -3642552.41046  23094836.649    23094836.4494   23094837.4974
        42.3004         39.7004
 -22653534.69147 -17368586.15847  20590685.825    20590685.4084   20590686.0524
        49.8004         47.0004
 -16504094.76446 -12836147.22247  21352861.885    21352862.1854   21352867.3114
        48.2004         45.4004
 -18347900.97846 -14273318.49647  20883813.312    20883813.3484   20883817.4064
        49.1004         46.1004
 16  6 10  0 35  0.0000000  0  9G19G 6G31G 1G22G17G23G 3G 9
 -12483918.87345  -9694226.55146  22596644.199    22596643.3164   22596646.8144
        44.2004         41.6004
  -9248583.24646  -7193526.15147  21308878.756    21308879.2734   21308884.6884
        48.4004         45.8004
  -1917006.53843  -1483049.13646  24417922.421    24417924.0324   24417925.7614
        39.4004         37.1004
   2020517.08942   1593156.13345  24337077.553    24337076.7564   24337083.7834
        34.5004         33.1004
  -5317424.46044  -4128831.37446  23119815.587    23119815.3904   23119817.7694
        41.6004         38.8004
  -4610915.08244  -3579346.45046  23110270.563    23110271.0574   23110272.6454
        42.2004         39.7004
 -22657765.24647 -17371882.69047  20589881.017    20589880.2724   20589880.8754
        49.8004         47.0004
 -16443816.77446 -12789177.38347  21364332.079    21364332.4114   21364337.5464
        48.2004         45.4004
 -18407847.81646 -14320030.31147  20872405.491    20872405.6384   20872409.9824
        49.1004         46.1004
 16  6 10  0 35 30.0000000  0  9G19G 6G31G 1G22G17G23G 3G 9
 -12429819.87845  -9652071.52146  22606939.269    22606937.9744   22606940.4974
        44.2004         41.4004
  -9308185.98246  -7239969.82947  21297536.462    21297536.9524   21297542.9204
        48.4004         45.6004
  -1844975.31443  -1426920.93346  24431631.907    24431632.0144   24431634.9414
        39.6004         37.3004
   2131394.37441   1679553.98745  24358181.785    24358177.5704   24358181.0024
        34.2004         32.7004
  -5234524.99444  -4064234.41246  23135593.014    23135591.5594   23135591.9924
        41.6004         39.0004
  -4529474.07444  -3515885.92446  23125767.914    23125768.6124   23125771.4154
        42.2004         39.7004
 -22661525.52447 -17374812.77647  20589165.306    20589164.9834   20589165.6384
        49.8004         47.2004
 -16383270.56446 -12741998.54047  21375853.653    21375854.1654   21375859.3564
        48.2004         45.2004
 -18467351.79546 -14366397.03147  20861082.056    20861081.9464   20861086.5604
        49.1004         46.1004
 16  6 10  0 36  0.0000000  0  9G19G 6G31G 1G22G17G23G 3G 9
 -12375202.34545  -9609512.41946  22617332.071    22617331.9654   22617333.5794
        44.1004         41.2004
  -9367351.06546  -7286072.48247  21286277.623    21286278.3234   21286283.7654
        48.2004         45.4004
  -1772510.01043  -1370454.50246  24445419.665    24445420.8924   24445424.0054
        39.7004         37.4004
   2242380.77341   1766036.92445  24379301.876    24379298.6174   24379303.2514
        34.3004         33.1004
  -5151477.89644  -3999522.42046  23151394.736    23151394.8754   23151396.4874
        41.5004         39.0004
  -4447709.39444  -3452173.20146  23141327.431    23141327.8334   23141330.4744
        42.2004         39.3004
 -22664816.07647 -17377376.83947  20588538.883    20588538.5964   20588539.5334
        49.8004         47.0004
 -16322456.94246 -12694611.30247  21387425.970    21387426.0394   21387431.9824
        48.1004         45.2004
 -18526411.92146 -14412417.89447  20849843.009    20849843.0924   20849848.0294
        49.1004         46.3004
 16  6 10  0 36 30.0000000  0  9G19G 6G31G 1G22G17G23G 3G 9
 -12320068.78845  -9566551.20846  22627824.681    22627823.2684   22627825.0604
        43.9004         41.2004
  -9426076.29046  -7331832.38947  21275102.781    21275103.5704   21275108.3314
        48.2004         45.4004
  -1699613.15443  -1313651.79146  24459293.341    24459293.8744   24459294.9074
        39.7004         37.1004
   2353474.47942   1852603.47545  24400438.850    24400437.6594   24400444.3944
        34.5004         33.1004
  -5068283.98944  -3934696.01046  23167229.290    23167226.9074   23167226.6784
        41.5004         38.8004
  -4365623.77544  -3388210.41346  23156947.281    23156947.6924   23156948.8364
        41.6004         38.6004
 -22667637.11047 -17379575.04247  20588002.256    20588002.2184   20588002.6864
        49.8004         47.2004
 -16261376.53446 -12647016.19847  21399048.483    21399049.3904   21399054.8334
        48.1004         45.1004
 -18585027.23546 -14458092.15247  20838689.062    20838688.9954   20838694.1644
        49.1004         46.3004
 16  6 10  0 37  0.0000000  0  9G19G 6G31G 1G22G17G23G 3G 9
 -12264421.56645  -9523189.75846  22638414.568    22638413.4074   22638414.5354
        44.2004         41.8004
  -9484359.53746  -7377247.90947  21264012.310    21264012.6404   21264017.4394
        48.2004         45.2004
  -1626287.00743  -1256514.56446  24473247.877    24473247.1014   24473248.6774
        39.7004         37.4004
   2464673.77641   1939252.32045  24421595.194    24421600.6144   24421600.6964
        34.2004         32.7004
  -4984943.39344  -3869755.30546  23183086.112    23183085.7854   23183086.7084
        41.3004         38.6004
  -4283220.74144  -3324000.28246  23172628.380    23172628.7494   23172631.8814
        41.5004         38.8004
 -22669989.27447 -17381407.88847  20587555.237    20587554.5564   20587555.1904
        50.0004         47.2004
 -16200030.05046 -12599213.74847  21410723.637    21410723.4024   21410728.7504
        47.9004         45.1004
 -18643196.76846 -14503419.04747  20827620.414    20827619.9654   20827624.7414
        49.1004         46.3004
 16  6 10  0 37 30.0000000  0  9G19G 6G31G 1G22G17G23G 3G 9
 -12208263.09545  -9479429.91646  22649101.110    22649099.6404   22649102.0224
        44.6004         41.9004
  -9542198.70546  -7422317.37447  21253005.170    21253005.7094   21253011.0064
        48.1004         45.1004
  -1552534.06743  -1199044.77446  24487282.116    24487281.5824   24487284.2114
        39.9004         37.4004
   2575976.77841   2025981.93545  24442778.805    24442779.7214   24442782.7164
        34.2004         32.9004
  -4901457.09044  -3804701.07246  23198974.957    23198973.4344   23198973.2404
        41.1004         38.5004
  -4200502.69744  -3259544.68146  23188369.634    23188368.4934   23188373.0904
        41.3004         38.5004
 -22671873.16147 -17382875.84647  20587196.333    20587196.1274   20587196.5054
        50.0004         47.2004
 -16138418.21746 -12551204.53347  21422446.879    21422447.3194   21422453.0864
        47.9004         45.1004
 -18700919.59246 -14548397.85447  20816635.633    20816635.4504   20816640.1374
        49.1004         46.5004
 16  6 10  0 38  0.0000000  0  9G19G 6G31G 1G22G17G23G 3G 9
 -12151595.65145  -9435273.47046  22659883.353    22659882.6724   22659885.3344
        44.6004         41.4004
  -9599591.61846  -7467039.11947  21242084.189    21242084.0974   21242089.3434
        48.1004         45.2004
  -1478356.43743  -1141244.06246  24501396.301    24501396.8664   24501400.0054
        39.7004         37.4004
   2687381.65241   2112790.91345  24463980.422    24463979.5424   24463982.0704
        33.8004         32.7004
  -4817825.78744  -3739533.81446  23214887.473    23214886.1864   23214887.7324
        40.9004         38.1004
  -4117472.96644  -3194846.20646  23204169.318    23204169.8634   23204171.3384
        40.9004         38.1004
 -22673289.08447 -17383979.15747  20586927.098    20586926.4234   20586927.0944
        49.8004         47.2004
 -16076541.72446 -12502989.09547  21434222.397    21434222.6134   21434227.9564
        47.9004         45.2004
 -18758194.77246 -14593027.85747  20805736.604    20805736.4064   20805740.8434
        49.3004         46.5004
 16  6 10  0 38 30.0000000  0  9G19G 6G31G 1G22G17G23G 3G 9
 -12094421.82645  -9390722.43246  22670763.400    22670762.6034   22670765.2674
        44.1004         41.1004
  -9656536.19246  -7511411.49647  21231247.790    21231248.4994   21231253.0844
        48.2004         45.6004
  -1403756.56243  -1083114.31646  24515593.099    24515593.2444   24515595.4084
        40.1004         37.6004
   2798886.60241   2199677.91745  24485196.385    24485196.6884   24485201.3774
        33.5004         32.4004
  -4734050.16344  -3674254.15146  23230830.503    23230828.7834   23230829.3714
        40.9004         38.3004
  -4034134.52244  -3129907.18146  23220028.450    23220028.0194   23220030.7814
        40.6004         38.1004
 -22674237.78047 -17384718.39647  20586746.473    20586746.1574   20586746.6294
        49.8004         47.2004
 -16014401.25746 -12454567.95047  21446047.523    21446047.7564   21446052.4384
        47.9004         45.1004
 -18815021.40346 -14637308.33047  20794922.904    20794922.7584   20794927.4214
        49.3004         46.5004
 16  6 10  0 39  0.0000000  0  9G19G 6G31G 1G22G17G23G 3G 9
 -12036743.98345  -9345778.68346  22681739.966    22681738.4644   22681740.3454
        43.9004         41.1004
  -9713030.23646  -7555432.81847  21220497.317    21220498.0464   21220502.8464
        48.4004         45.6004
  -1328737.02543  -1024657.56346  24529868.113    24529868.5654   24529871.7904
        40.1004         37.8004
   2910489.84341   2286641.47145  24506432.142    24506434.4274   24506443.1404
        33.7004         32.6004
  -4650130.96344  -3608862.58146  23246799.289    23246797.3934   23246798.4334
        40.8004         38.3004
  -3950490.18244  -3064729.77746  23235945.061    23235946.0034   23235948.3584
        40.9004         38.6004
 -22674719.90847 -17385094.08147  20586654.660    20586654.4444   20586654.6684
        49.8004         47.2004
 -15951997.52746 -12405941.67647  21457922.803    21457922.8194   21457927.9534
        47.9004         45.1004
 -18871398.55346 -14681238.56247  20784194.493    20784194.5654   20784199.4814
        49.3004         46.5004
 16  6 10  0 39 30.0000000  0  9G19G 6G31G 1G22G17G23G 3G 9
 -11978564.35745  -9300443.93846  22692811.382    22692810.2194   22692811.9694
        44.1004         41.4004
  -9769071.70746  -7599101.48947  21209833.143    21209833.6164   21209838.1194
        48.4004         45.4004
  -1253300.16243   -965875.61446  24544224.199    24544224.2594   24544226.1144
        39.9004         37.3004
   3022189.47241   2373680.09845  24527691.910    24527691.3794   24527693.2304
        33.7004         32.7004
  -4566068.83944  -3543359.63546  23262793.226    23262793.7264   23262795.4284
        40.8004         37.9004
  -3866542.83844  -2999316.29146  23251919.591    23251919.6554   23251923.9094
        41.1004         38.5004
 -22674735.74547 -17385106.41247  20586651.666    20586651.1894   20586651.8214
        49.8004         47.2004
 -15889331.24446 -12357110.82647  21469847.961    21469848.2934   21469852.7514
        47.9004         45.1004
 -18927325.36546 -14724817.88847  20773551.995    20773552.1354   20773557.1564
        49.3004         46.5004
 16  6 10  0 40  0.0000000  0  9G19G 6G31G 1G22G17G23G 3G 9
 -11919885.57545  -9254720.21046  22703977.281    22703976.1234   22703978.0374
        44.1004         41.4004
  -9824658.50546  -7642415.86647  21199255.467    21199255.7214   21199260.1154
        48.2004         45.4004
  -1177448.24643   -906770.24046  24558658.315    24558657.8514   24558660.2054
        39.4004         36.7004
   3133983.67341   2460792.48045  24548960.380    24548962.7174   24548970.3834
        33.5004         32.4004
  -4481864.04144  -3477745.54446  23278820.555    23278817.9094   23278818.8174
        40.8004         38.3004
  -3782295.64444  -2933669.13346  23267952.642    23267952.7134   23267954.3544
        41.3004         38.8004
 -22674286.07147 -17384756.00447  20586737.415    20586737.0074   20586737.4244
        50.0004         47.2004
 -15826403.09546 -12308075.91247  21481822.423    21481822.9724   21481827.4094
        47.9004         45.1004
 -18982800.95446 -14768045.61547  20762995.323    20762995.4784   20762999.5604
        49.3004         46.5004
 16  6 10  0 40 30.0000000  0  9G19G 6G31G 1G22G17G23G 3G 9
 -11860710.01945  -9208609.39646  22715238.605    22715236.9104   22715238.0294
        44.1004         41.1004
  -9879788.52446  -7685374.30947  21188764.179    21188764.7764   21188769.4394
        48.2004         45.2004
  -1101183.87943   -847343.49246  24573170.689    24573171.3514   24573172.5914
        39.6004         37.1004
   3245870.67741   2547977.10945  24570254.937    24570255.1474   24570259.4154
        33.7004         32.6004
  -4397517.72244  -3412021.14746  23294869.486    23294868.0784   23294869.6714
        40.6004         37.9004
  -3697751.56844  -2867790.66946  23284040.087    23284039.4864   23284041.9524
        41.3004         38.8004
 -22673371.25247 -17384043.14847  20586911.582    20586910.9984   20586911.3074
        50.0004         47.2004
 -15763213.77846 -12258837.48947  21493847.491    21493847.4604   21493851.9424
        47.9004         45.1004
 -19037824.44746 -14810921.05447  20752525.036    20752524.9454   20752528.9874
        49.3004         46.5004
 16  6 10  0 41  0.0000000  0  9G19G 6G31G 1G22G17G23G 3G 9
 -11801039.81345  -9162113.14546  22726592.615    22726591.5194   22726592.7834
        43.7004         40.9004
  -9934459.66846  -7727975.18947  21178360.762    21178361.2754   21178366.0784
        48.2004         45.6004
  -1024509.55843   -787597.32246  24587761.863    24587761.9304   24587763.0954
        39.2004         36.7004
   3357848.72241   2635232.76845  24591567.621    24591563.5874   24591570.8554
        33.7004         32.4004
  -4313030.36243  -3346186.85146  23310946.382    23310946.1344   23310946.6184
        40.4004         37.8004
  -3612913.16844  -2801682.83846  23300183.330    23300183.0994   23300187.2714
        41.3004         38.8004
 -22671992.07747 -17382968.46147  20587173.498    20587173.4144   20587173.6264
        49.8004         47.0004
 -15699764.00746 -12209396.12047  21505921.341    21505921.1464   21505925.9964
        47.7004         44.9004
 -19092395.01646 -14853443.55447  20742140.378    20742139.8804   20742144.6184
        49.3004         46.5004
 16  6 10  0 41 30.0000000  0  9G19G 6G31G 1G22G17G23G 3G 9
 -11740878.07845  -9115233.87446  22738041.085    22738040.0144   22738040.8984
        43.7004         40.9004
  -9988669.88546  -7770216.91047  21168044.530    21168044.9274   21168049.6054
        48.2004         45.4004
   -947427.58043   -727533.43746  24602429.777    24602429.6704   24602431.7434
        38.7004         36.0004
   3469915.82641   2722557.78645  24612897.940    24612893.8304   24612897.3844
        33.7004         32.4004
  -4228402.49843  -3280243.08546  23327049.976    23327050.7094   23327051.0504
        40.4004         37.9004
  -3527783.46044  -2735348.02946  23316384.658    23316384.8504   23316386.7094
        41.6004         39.0004
 -22670149.19547 -17381532.44747  20587524.596    20587524.1774   20587524.2364
        49.8004         47.2004
 -15636054.46346 -12159752.33347  21518044.385    21518044.7204   21518049.3734
        47.5004         44.7004
 -19146511.80746 -14895612.46947  20731841.347    20731841.5314   20731846.9284
        49.3004         46.5004
 16  6 10  0 42  0.0000000  0  9G19G 6G31G 1G22G17G23G 3G 9
 -11680227.18245  -9067973.43346  22749583.342    22749582.1004   22749583.3104
        43.9004         41.2004
 -10042417.08746  -7812097.84147  21157816.968    21157817.1984   21157822.5424
        48.4004         45.6004
   -869940.43343   -667153.88846  24617176.176    24617176.0684   24617176.1644
        38.9004         36.9004
   3582070.24441   2809950.77845  24634236.476    24634235.5004   24634237.5374
        33.1004         32.2004
  -4143634.85643  -3214190.39946  23343181.888    23343180.8834   23343182.0394
        40.4004         37.8004
  -3442365.93444  -2668788.93446  23332638.269    23332638.5454   23332640.3934
        41.3004         38.5004
 -22667843.05447 -17379735.44547  20587963.171    20587962.8874   20587962.9614
        49.8004         47.0004
 -15572085.88746 -12109906.69647  21530217.470    21530217.6394   21530222.5974
        47.5004         44.7004
 -19200173.98346 -14937427.13747  20721630.674    20721630.4664   20721635.1714
        49.5004         46.6004
 16  6 10  0 42 30.0000000  0  9G19G 6G31G 1G22G17G23G 3G 9
 -11619089.57945  -9020333.74146  22761217.305    22761215.9124   22761217.2234
        43.9004         41.1004
 -10095699.22346  -7853616.37647  21147677.701    21147678.2644   21147682.9854
        48.4004         45.8004
   -792050.89943   -606460.81346  24631997.081    24631997.4304   24631998.5274
        39.0004         36.6004
   3694310.13541   2897410.47045  24655589.086    24655592.1024   24655595.6134
        32.8004         31.9004
  -4058727.99143  -3148029.23046  23359338.706    23359337.9204   23359339.4964
        40.4004         37.9004
  -3356663.55144  -2602007.86946  23348946.368    23348946.7384   23348950.3554
        41.1004         38.5004
 -22665074.46247 -17377578.09447  20588490.349    20588489.6654   20588489.8454
        49.8004         47.0004
 -15507858.92746 -12059859.73947  21542438.849    21542439.5494   21542444.7934
        47.5004         44.5004
 -19253380.77247 -14978886.96447  20711505.784    20711505.6014   20711510.3354
        49.6004         46.8004
 16  6 10  0 43  0.0000000  0  9G19G 6G31G 1G22G17G23G 3G 9
 -11557467.76645  -8972316.75446  22772943.779    22772942.7264   22772943.4264
        43.7004         40.9004
 -10148514.23346  -7894770.93147  21137627.221    21137627.8334   21137632.4034
        48.4004         45.6004
   -713761.21243   -545455.91146  24646895.166    24646895.6744   24646896.1724
        38.7004         36.4004
   3806633.62951   2984935.24255  24676956.459    24676964.1944   24676973.1464
        32.4004         31.7004
  -3973682.72143  -3081760.23046  23375522.181    23375520.9934   23375522.1364
        40.3004         37.6004
  -3270679.05144  -2535006.97546  23365309.726    23365309.6094   23365312.4674
        41.1004         38.5004
 -22661844.04047 -17375060.87347  20589104.927    20589104.7414   20589104.7994
        49.8004         47.2004
 -15443374.33746 -12009612.03247  21554710.004    21554710.5004   21554715.6764
        47.4004         44.5004
 -19306131.36747 -15019991.31047  20701467.507    20701467.4464   20701471.8864
        49.6004         46.6004
 16  6 10  0 43 30.0000000  0  9G19G 6G31G 1G22G17G23G 3G 9
 -11495364.39344  -8923924.52546  22784759.970    22784759.2584   22784761.8644
        43.4004         40.2004
 -10200860.10246  -7935559.90947  21127665.838    21127666.5194   21127671.7664
        48.4004         45.8004
   -635073.85143   -484141.13146  24661869.023    24661869.2404   24661870.6834
        39.0004         36.9004
   3919038.77751   3072523.73755  24698341.425    24698351.5394   24698361.7674
        32.4004         31.7004
  -3888499.78943  -3015383.91546  23391731.977    23391730.2674   23391733.6194
        40.1004         37.6004
  -3184415.43144  -2467788.59746  23381724.153    23381725.2314   23381727.8874
        40.9004         38.5004
 -22658152.36547 -17372184.23847  20589806.910    20589806.7424   20589807.1604
        49.8004         47.0004
 -15378632.76146 -11959164.06247  21567030.118    21567030.3384   21567035.6614
        47.4004         44.5004
 -19358424.98146 -15060739.57247  20691516.176    20691516.4274   20691520.4334
        49.5004         46.6004
 16  6 10  0 44  0.0000000  0  9G19G 6G31G 1G22G17G23G 3G 9
 -11432781.87544  -8875158.93446  22796670.017    22796669.0164   22796670.3074
        43.4004         40.9004
 -10252734.79646  -7975981.75347  21117794.675    21117795.0804   21117800.2714
        48.6004         45.8004
   -555991.09743   -422518.27046  24676918.325    24676918.2354   24676918.8534
        39.0004         36.6004
   4031524.14651   3160174.65255  24719758.353    24719754.3364   24719768.2094
        32.4004         31.7004
  -3803179.88043  -2948900.90246  23407966.445    23407966.4004   23407969.1334
        39.9004         37.4004
  -3097875.80144  -2400355.15546  23398193.751    23398193.7374   23398196.1804
        40.9004         38.5004
 -22654000.07147 -17368948.67947  20590597.401    20590596.8574   20590597.1984
        49.8004         47.0004
 -15313634.95346 -11908516.42747  21579398.323    21579398.7214   21579404.0464
        47.2004         44.4004
 -19410260.82446 -15101131.12447  20681652.606    20681652.5244   20681656.2064
        49.5004         46.6004
 16  6 10  0 44 30.0000000  0  9G19G 6G31G 1G22G17G23G 3G 9
 -11369722.74245  -8826021.97046  22808671.154    22808669.4034   22808670.0384
        44.1004         41.4004
 -10304136.29246  -8016034.84947  21108013.372    21108013.9264   21108018.8534
        48.6004         45.6004
   -476515.71343   -360589.45246  24692042.660    24692042.1564   24692042.3924
        38.7004         36.2004
   4144087.51541   3247886.28345  24741182.173    24741179.3644   24741182.0454
        32.6004         32.0004
  -3717723.47443  -2882311.51146  23424228.688    23424228.3554   23424231.3484
        39.9004         37.6004
  -3011063.04944  -2332708.88346  23414713.639    23414714.6024   23414716.2354
        41.1004         38.6004
 -22649387.82647 -17365354.71947  20591475.457    20591474.9884   20591475.1104
        49.8004         47.2004
 -15248381.59646 -11857669.67047  21591816.214    21591816.7424   21591821.1284
        47.2004         44.2004
 -19461638.18746 -15141165.42947  20671876.046    20671875.6154   20671879.6204
        49.5004         46.6004
 16  6 10  0 45  0.0000000  0  9G19G 6G31G 1G22G17G23G 3G 9
 -11306189.80045  -8776515.78246  22820759.748    22820758.7384   22820760.5954
        43.9004         41.1004
 -10355062.59346  -8055717.67247  21098322.408    21098323.2894   21098328.0864
        48.6004         45.9004
   -396650.21443   -298356.62645  24707239.826    24707238.9294   24707241.1304
        38.3004         35.9004
   4256727.09941   3335657.30045  24762618.090    24762614.2304   24762616.1334
        31.7004         31.5004
  -3632131.19743  -2815616.24446  23440518.954    23440517.2724   23440519.9244
        40.3004         37.8004
  -2923980.46644  -2264852.33146  23431284.841    23431284.8854   23431288.1354
        41.3004         38.6004
 -22644316.47047 -17361403.00747  20592439.804    20592439.4814   20592440.1544
        49.8004         47.0004
 -15182873.39646 -11806624.32747  21604282.131    21604282.2364   21604286.9924
        47.0004         44.2004
 -19512556.27747 -15180841.85347  20662185.988    20662186.0234   20662190.7924
        49.6004         46.8004
 16  6 10  0 45 30.0000000  0  9G19G 6G31G 1G22G17G23G 3G 9
 -11242185.72745  -8726642.46946  22832938.445    22832937.9084   22832940.0074
        43.6004         40.6004
 -10405511.69646  -8095028.66447  21088722.904    21088723.0564   21088727.4484
        48.8004         45.9004
   -316397.01743   -235821.72946  24722511.601    24722512.0814   24722511.3694
        38.3004         36.2004
   4369441.16441   3423486.39545  24784070.811    24784062.7104
        32.3004         31.7004
  -3546403.83743  -2748815.72846  23456833.456    23456831.9164   23456832.6654
        40.3004         37.8004
  -2836631.03944  -2196787.86446  23447906.989    23447906.4334   23447908.5864
        41.1004         38.3004
 -22638786.64947 -17357094.05447  20593492.258    20593492.0154   20593492.4734
        49.8004         47.2004
 -15117111.05346 -11755380.96447  21616796.158    21616796.6704   21616800.6294
        47.0004         44.2004
 -19563014.40947 -15220159.86847  20652584.529    20652584.4754   20652588.9714
        49.6004         46.8004
 16  6 10  0 46  0.0000000  0  9G19G 6G31G 1G22G17G23G 3G 9
 -11177712.92544  -8676403.94046  22845207.988    22845206.9734   22845208.6044
        43.4004         40.7004
 -10455481.58246  -8133966.22647  21079213.194    21079214.3654   21079218.5494
        48.9004         45.9004
   -235758.73743   -172986.74946  24737857.350    24737856.6924   24737858.4444
        38.7004         36.6004
                   3511372.08845  24805531.707
                        31.7004
  -3460542.10443  -2681910.51146  23473169.681    23473169.1814   23473171.3704
        40.3004         37.6004
  -2749017.69244  -2128517.76846  23464577.902    23464578.0894   23464580.6274
        40.6004         37.8004
 -22632798.93747 -17352428.29647  20594631.861    20594631.4554   20594631.6734
        49.8004         47.0004
 -15051095.24946 -11703940.08947  21629358.931    21629358.9084   21629363.7634
        47.0004         44.2004
 -19613011.85647 -15259118.90147  20643070.128    20643070.1884   20643074.9294
        49.8004         47.0004
 16  6 10  0 46 30.0000000  0  9G19G 6G31G 1G22G17G23G 3G 9
 -11112774.27145  -8625802.41046  22857565.157    22857564.7184   22857566.7664
        43.6004         40.9004
 -10504970.30346  -8172528.86947  21069795.974    21069796.4724   21069801.0274
        48.9004         46.1004
   -154737.85443   -109853.65446  24753274.867    24753275.5004   24753276.5944
        38.7004         36.6004
   4595085.33841   3599312.88045  24827007.004    24827001.6784
        31.7004         31.5004
  -3374546.43543  -2614900.89146  23489534.971    23489533.5934   23489536.2644
        40.1004         37.6004
  -2661143.36844  -2060044.28446  23481300.578    23481300.6514   23481303.5764
        40.6004         38.3004
 -22626354.21947 -17347406.42647  20595858.345    20595857.7174   20595858.0614
        49.8004         47.0004
 -14984826.68846 -11652302.25347  21641968.912    21641969.1694   21641974.5864
        47.0004         44.0004
 -19662547.90947 -15297718.40547  20633643.491    20633643.6534   20633648.1834
        49.8004         47.0004
 16  6 10  0 47  0.0000000  0  9G19G 6G31G 1G22G17G23G 3G 9
 -11047372.15045  -8574839.72046  22870011.172    22870009.7174   22870012.3684
        43.6004         40.7004
 -10553975.86646  -8210715.02147  21060470.911    21060471.3154   21060475.9264
        48.9004         46.1004
    -73336.96443    -46424.41945  24768764.775    24768763.9904   24768765.8974
        38.3004         35.7004
   4708011.79741   3687307.54145  24848492.494    24848486.2964
        31.7004         31.7004
  -3288417.49043  -2547787.46246  23505923.977    23505923.5874   23505925.4984
        39.9004         37.4004
  -2573011.20344  -1991369.88046  23498072.908    23498073.1614   23498074.6644
        40.9004         38.5004
 -22619453.05547 -17342028.88847  20597171.501    20597171.3174   20597171.1754
        49.8004         47.0004
 -14918306.09546 -11600468.03747  21654627.584    21654627.8364   21654633.0164
        46.9004         44.2004
 -19711621.90747 -15335957.87847  20624305.004    20624304.8264   20624309.4604
        49.8004         47.0004
 16  6 10  0 47 30.0000000  0  9G19G 6G31G 1G22G17G23G 3G 9
 -10981509.40445  -8523518.12546  22882545.003    22882543.2474   22882545.3814
        43.6004         40.9004
 -10602496.34746  -8248523.18147  21051237.425    21051237.8284   21051242.8604
        48.9004         46.1004
      8441.59243     17299.09845  24784326.323    24784326.1874   24784326.1384
        38.0004         35.9004
   4821005.41241   3775354.46345  24869992.783    24869992.7674
        31.9004         31.7004
  -3202156.14243  -2480570.83546  23522338.823    23522338.9654   23522340.7614
        39.7004         37.3004
  -2484624.34844  -1922497.02846  23514892.522    23514891.7474   23514893.6214
        40.9004         38.3004
 -22612096.37147 -17336296.40047  20598571.156    20598570.8354   20598571.5274
        49.8004         47.2004
 -14851534.21146 -11548438.00447  21667332.464    21667333.7004   21667339.1424
        46.9004         44.0004
 -19760233.15347 -15373836.76647  20615054.998    20615054.8424   20615058.9644
        49.8004         47.0004
 16  6 10  0 48  0.0000000  0  9G19G 6G31G 1G22G17G23G 3G 9
 -10915188.75745  -8471839.72246  22895165.159    22895164.2844   22895166.0584
        43.6004         40.7004
 -10650529.76046  -8285951.81047  21042097.143    21042097.6294   21042102.3264
        49.1004         46.1004
     90595.05143     81314.72045  24799960.266    24799959.4074   24799959.4274
        38.0004         35.9004
                   3863452.28045  24891507.384
                        31.0004
  -3115763.02643  -2413251.56146  23538780.362    23538779.1704   23538779.7784
        39.6004         37.1004
  -2395985.76543  -1853428.00646  23531757.412    23531758.6934   23531762.0174
        40.4004         37.6004
 -22604284.88847 -17330209.52547  20600057.738    20600057.3214   20600058.0604
        49.8004         47.0004
 -14784511.67946 -11496212.67847  21680088.426    21680087.9274   21680092.5384
        46.7004         43.9004
 -19808380.98247 -15411354.55647  20605892.166    20605892.7214   20605897.0274
        49.8004         47.0004
 16  6 10  0 48 30.0000000  0  9G19G 6G31G 1G22G17G23G 3G 9
 -10848412.65044  -8419806.40946  22907870.793    22907869.8644   22907872.8034
        43.0004         39.9004
 -10698074.17446  -8322999.39047  21033049.757    21033050.0224   21033055.1484
        48.9004         46.1004
    173120.86443    145620.53645  24815664.634    24815663.4614   24815665.9344
        38.0004         35.9004
                   3951599.60345  24913033.475
                        31.7004
  -3029238.60143  -2345829.94346  23555243.875    23555243.3774   23555243.9394
        39.4004         36.9004
  -2307098.45344  -1784165.17846  23548673.820    23548672.9844   23548677.3094
        40.6004         38.1004
 -22596019.39647 -17323768.87247  20601630.415    20601630.2624   20601630.9674
        49.8004         47.0004
 -14717239.22246 -11443792.58447  21692889.290    21692889.6304   21692894.0734
        46.7004         43.9004
 -19856064.75947 -15448510.73147  20596818.952    20596818.8914   20596822.9674
        50.0004         47.2004
 16  6 10  0 49  0.0000000  0  9G19G 6G31G 1G22G17G23G 3G 9
 -10781184.18444  -8367420.56846  22920664.536    22920663.5824   22920666.5554
        42.9004         40.2004
 -10745127.69046  -8359664.46247  21024095.900    21024096.0194   21024100.9094
        48.9004         45.9004
    256016.81443    210214.71345  24831437.654    24831437.9174   24831441.1364
        38.0004         35.7004
                      5178.55143  24934574.092
                        23.4004
  -2942583.69543  -2278306.64546  23571733.318    23571731.6894   23571733.7894
        39.0004         36.4004
  -2217965.54443  -1714710.97046  23565633.714    23565633.8644   23565637.1344
        40.4004         37.6004
 -22587300.70447 -17316975.08047  20603289.783    20603289.5664   20603289.8194
        49.8004         47.0004
 -14649717.53246 -11391178.30847  21705737.945    21705738.4274   21705743.1964
        46.7004         43.9004
 -19903283.85247 -15485304.82347  20587833.316    20587833.3584   20587837.3874
        50.0004         47.2004
 16  6 10  0 49 30.0000000  0 10G19G 6G31G 1G22G17G23G 3G 7G 9
 -10713505.74444  -8314684.13646  22933544.880    22933543.2034   22933543.8544
        43.0004         40.2004
 -10791688.39546  -8395945.51747  21015235.436    21015236.1784   21015240.7234
        48.9004         46.1004
    339279.56843    275094.69245  24847280.632    24847281.5074   24847283.4624
        38.0004         35.7004
                     93415.64344  24956121.651
                        28.4004
  -2855799.02843  -2210682.26146  23588250.285    23588247.2764   23588249.4864
        38.9004         36.6004
  -2128590.03643  -1645067.76146  23582642.544    23582642.5314   23582643.3314
        40.1004         37.4004
 -22578129.50147 -17309828.68247  20605035.324    20605034.8074   20605035.0184
        49.8004         47.0004
 -14581947.35946 -11338370.39847  21718634.468    21718634.5344   21718640.0494
        46.7004         43.9004
                   -123247.73854  25064556.569
                        29.1004
 -19950037.65447 -15521736.34647  20578936.325    20578936.3264   20578940.2814
        50.0004         47.2004
 16  6 10  0 50  0.0000000  0  9G19G 6G31G 1G22G17G23G 3G 9
 -10645380.09144  -8261599.25446  22946507.237    22946506.6554   22946507.2824
        42.9004         39.7004
 -10837754.34646  -8431841.06847  21006469.582    21006469.6224   21006474.6214
        48.9004         46.1004
    422907.03943    340258.91645  24863195.723    24863196.6034   24863198.7534
        37.8004         35.9004
                    181680.31544  24977681.936
                        29.6004
  -2768885.07443  -2142957.11546  23604786.777    23604786.9184   23604788.3324
        38.7004         36.4004
  -2038975.12143  -1575237.97746  23599695.164    23599695.2014   23599697.6184
        39.9004         37.6004
 -22568506.86347 -17302330.51647  20606866.961    20606866.2344   20606865.9824
        49.8004         47.2004
 -14513929.31646 -11285369.32347  21731577.530    21731578.0204   21731583.6034
        46.7004         43.9004
 -19996325.56847 -15557804.83647  20570127.972    20570127.7964   20570132.3624
        50.0004         47.2004
 16  6 10  0 50 30.0000000  0  9G19G 6G31G 1G22G17G23G 3G 9
 -10576810.36444  -8208168.27646  22959555.925    22959555.1454   22959555.7104
        42.5004         40.0004
 -10883323.71346  -8467349.65447  20997797.291    20997798.1864   20997803.3554
        48.9004         46.1004
    506896.56543    405705.24745  24879178.070    24879178.2504   24879180.6984
        38.0004         35.9004
                                  24999253.018

  -2681842.70043  -2075131.87746  23621351.545    23621350.5484   23621351.5084
        38.7004         36.6004
  -1949123.72743  -1505223.89946  23616792.883    23616793.3454   23616796.9414
        40.1004         37.8004
 -22558433.41147 -17294481.06647  20608783.089    20608782.6484   20608783.0314
        49.8004         47.0004
 -14445664.19546 -11232175.74147  21744568.272    21744568.7794   21744573.8564
        46.7004         43.9004
 -20042146.97347 -15593509.81847  20561408.217    20561408.3344   20561412.8844
        50.0004         47.2004
 16  6 10  0 51  0.0000000  0  9G19G 6G31G 1G22G17G23G 3G 9
 -10507799.21444  -8154393.35346  22972688.809    22972687.8864   22972688.7954
        42.9004         40.2004
 -10928394.56046  -8502469.79047  20989220.877    20989221.5094   20989226.6114
        48.9004         45.9004
    591245.69843    471431.79646  24895229.631    24895229.9074   24895232.3674
        38.2004         36.0004
                     86207.23144  25020833.093
                        27.4004
  -2594672.39443  -2007207.00946  23637942.744    23637940.3144   23637938.6264
        38.9004         36.7004
  -1859038.76843  -1435027.81446  23633934.653    23633935.0604   23633938.1564
        40.3004         37.8004
 -22547909.78447 -17286280.83147  20610785.936    20610785.3264   20610785.5914
        49.8004         47.0004
 -14377152.67146 -11178790.13747  21757605.292    21757606.1334   21757611.1934
        46.7004         44.0004
 -20087501.32247 -15628850.86347  20552777.786    20552777.7404   20552782.4044
        50.0004         47.2004
 16  6 10  0 51 30.0000000  0 10G19G 6G31G 1G22G17G23G 3G 7G 9
 -10438348.89144  -8100276.22946  22985903.907    22985902.7784   22985904.3544
        42.7004         39.7004
 -10972965.06246  -8537200.05047  20980739.595    20980739.9084   20980744.8174
        48.8004         45.9004
    675951.67243    537436.40746  24911348.568    24911348.8254   24911352.2884
        38.3004         36.0004
                    174593.49644  25042424.096
                        29.8004
  -2507374.85543  -1939182.97246  23654553.208    23654551.8014   23654552.5714
        39.0004         36.9004
  -1768723.72643  -1364652.48346  23651123.679    23651123.5514   23651124.5084
        39.9004         37.3004
 -22536937.09347 -17277730.67647  20612874.148    20612873.7044   20612873.6944
        49.8004         47.2004
 -14308395.41746 -11125213.06347  21770689.838    21770690.2944   21770695.2574
        46.9004         44.2004
                    -73244.79454  24982841.569
                        27.2004
 -20132388.03847 -15663827.51847  20544236.012    20544236.0214   20544240.0224
        50.0004         47.2004
 16  6 10  0 52  0.0000000  0  9G19G 6G31G 1G22G17G23G 3G 9
 -10368462.69844  -8045819.45846  22999203.045    22999201.8524   22999203.1104
        42.5004         39.7004
 -11017033.34446  -8571538.96847  20972353.478    20972354.1254   20972359.3314
        48.9004         46.1004
    761012.07343    603717.18945  24927535.845    24927535.9074   24927537.3694
        38.0004         35.9004
                    263019.22145  25064026.359
                        30.0004
  -2419950.59443  -1871060.18646  23671189.825    23671189.2254   23671187.9354
        39.2004         36.9004
  -1678181.54443  -1294100.16246  23668352.139    23668352.4284   23668355.1704
        39.7004         37.3004
 -22525516.08747 -17268831.18447  20615047.269    20615047.0414   20615047.0564
        49.8004         47.2004
 -14239393.18346 -11071445.08647  21783820.768    21783821.2574   21783825.8854
        46.9004         44.0004
 -20176806.58647 -15698439.36847  20535782.615    20535783.1984   20535787.6454
        50.0004         47.2004
 16  6 10  0 52 30.0000000  0  9G19G 6G31G 1G22G17G23G 3G 9
 -10298143.27344  -7991025.10346  23012584.908    23012583.5904   23012585.5184
        42.7004         40.4004
 -11060597.56946  -8605485.12047  20964063.814    20964064.2524   20964069.3834
        49.1004         46.3004
    846423.98643    670271.85445  24943787.584    24943788.4334   24943790.2014
        38.0004         35.7004
                     80367.88044  25085637.900
                        25.8004
  -2332400.53243  -1802839.39046  23687848.628    23687847.4774   23687848.9814
        39.2004         36.6004
  -1587415.13643  -1223373.11446  23685623.237    23685623.8164   23685627.6024
        39.7004         37.4004
 -22513647.51847 -17259582.94247  20617305.950    20617305.4994   20617305.5314
        49.8004         47.2004
 -14170146.70446 -11017486.80047  21796998.033    21796997.6194   21797002.4794
        46.9004         43.9004
 -20220756.41247 -15732685.97947  20527419.957    20527419.9614   20527424.5964
        50.0004         47.3004
 16  6 10  0 53  0.0000000  0  9G19G 6G31G 1G22G17G23G 3G 9
 -10227393.47044  -7935895.41246  23026047.549    23026046.4974   23026049.3594
        43.0004         40.6004
 -11103655.91946  -8639037.07947  20955870.273    20955870.7584   20955875.6314
        49.1004         46.3004
    932184.98943    737098.54745  24960108.605    24960108.8954   24960110.0484
        37.6004         35.5004
                    168885.44144  25107256.610
                        29.8004
  -2244725.36243  -1734521.09446  23704531.311    23704531.3334   23704532.6774
        39.0004         36.6004
  -1496427.55643  -1152473.72246  23702938.257    23702937.9454   23702942.0184
        39.7004         37.4004
 -22501332.26547 -17249986.63647  20619649.505    20619648.8854   20619649.0214
        49.8004         47.0004
 -14100656.62446 -10963338.69647  21810220.935    21810221.2964   21810226.3794
        46.7004         43.9004
 -20264236.99447 -15766566.94547  20519145.871    20519146.1554   20519150.3634
        50.2004         47.5004
 16  6 10  0 53 30.0000000  0  9G19G 6G31G 1G22G17G23G 3G 9
 -10156216.37844  -7880432.75346  23039591.451    23039591.2434   23039593.5314
        43.0004         40.2004
 -11146206.55246  -8672193.40947  20947773.022    20947773.2594   20947778.2834
        49.1004         46.3004
   1018292.43943    804195.20045  24976494.926    24976493.6514   24976494.9684
        37.6004         35.7004
                    257438.00345  25128880.980
                        30.1004
  -2156925.56843  -1666105.67146  23721240.561    23721240.0384   23721240.3644
        39.0004         36.6004
  -1405221.82643  -1081404.34046  23720293.781    23720294.3354   23720297.1404
        39.7004         37.4004
 -22488571.34147 -17240043.05647  20622077.460    20622077.3104   20622077.4364
        49.8004         47.0004
 -14030923.66846 -10909001.32647  21823490.340    21823490.7974   21823496.0404
        46.7004         43.9004
 -20307247.84247 -15800081.87947  20510961.445    20510961.6354   20510965.6674
        50.3004         47.5004
 16  6 10  0 54  0.0000000  0  9G19G 6G31G 1G22G17G23G 3G 9
 -10084614.36344  -7824638.98246  23053218.358    23053217.0914   23053219.1894
        43.2004         40.7004
 -11188247.69146  -8704952.73547  20939772.346    20939773.3324   20939777.6234
        48.9004         46.1004
   1104744.06143    871560.06046  24992945.971    24992946.1114   24992947.7414
        38.2004         36.0004
                     73111.56343  25150516.645
                        23.4004
  -2069001.65143  -1597593.58446  23737974.040    23737971.5884   23737971.0374
        38.9004         36.6004
  -1313800.97943  -1010167.36146  23737690.908    23737691.5154   23737693.6884
        39.9004         37.3004
 -22475365.54247 -17229752.82047  20624590.316    20624590.1574   20624590.3454
        49.8004         47.0004
 -13960948.55846 -10854475.27047  21836805.312    21836806.3364   21836811.8314
        46.5004         43.7004
 -20349788.44947 -15833230.39247  20502866.161    20502866.1264   20502870.4214
        50.3004         47.5004
 16  6 10  0 54 30.0000000  0  9G19G 6G31G 1G22G17G23G 3G 9
 -10012590.42745  -7768516.47446  23066924.819    23066922.9464   23066924.9544
        43.6004         40.6004
 -11229777.53946  -8737313.64947  20931869.988    20931870.3284   20931874.7994
        48.9004         45.9004
   1191536.56343    939190.49845  25009460.497    25009461.0874   25009462.5904
        37.8004         35.7004
                    161868.82954  25172161.305
                        29.6004
  -1980954.68243  -1528985.56946  23754726.060    23754725.4124   23754726.8864
        38.9004         36.6004
  -1222168.48943   -938765.40846  23755125.563    23755126.2864   23755130.9074
        39.4004         37.1004
 -22461715.81647 -17219116.66347  20627187.956    20627187.3134   20627187.8014
        49.8004         47.0004
 -13890731.99146 -10799761.07547  21850168.638    21850168.9324   21850174.1334
        46.7004         43.9004
 -20391858.32547 -15866012.10347  20494860.912    20494860.8714   20494864.6864
        50.3004         47.5004
 16  6 10  0 55  0.0000000  0  9G19G 6G31G 1G22G17G23G 3G 9
  -9940147.30844  -7712067.27646  23080707.150    23080706.7854   23080709.5714
        42.9004         39.5004
 -11270794.30346  -8769274.75847  20924064.636    20924065.3774   20924069.9044
        48.9004         46.3004
   1278667.50043   1007084.61845  25026042.142    25026042.6654   25026044.1244
        37.6004         35.3004
                    250658.83244  25193812.935
                        29.6004
  -1892785.10643  -1460282.00446  23771503.467    23771503.8064   23771505.6074
        39.0004         36.7004
  -1130327.19243   -867200.78146  23772604.547    23772604.6864   23772608.5214
        39.6004         37.3004
 -22447623.27447 -17208135.45847  20629869.238    20629869.1594   20629869.2874
        49.6004         46.8004
 -13820274.70146 -10744859.30147  21863576.864    21863576.8604   21863581.6434
        46.7004         44.0004
 -20433457.05547 -15898426.69147  20486944.440    20486944.5564   20486948.5384
        50.2004         47.3004
 16  6 10  0 55 30.0000000  0  9G19G 6G31G 1G22G17G23G 3G 9
  -9867288.13244  -7655293.89946  23094572.906    23094571.9824   23094574.1254
        42.2004         39.3004
 -11311296.22346  -8800834.68847  20916357.944    20916358.2094   20916362.7894
        49.3004         46.5004
   1366134.45442   1075240.60245  25042687.614    25042688.0304   25042686.7384
        37.1004         35.2004
                     65826.99643  25215473.292
                        23.4004
  -1804493.84643  -1391483.66846  23788308.147    23788304.6954   23788306.4794
        39.0004         36.7004
  -1038279.90043   -795475.66546  23790120.051    23790119.9704   23790125.5684
        39.4004         37.1004
 -22433088.71047 -17196809.82047  20632635.883    20632635.4604   20632635.1644
        49.6004         47.0004
 -13749577.36346 -10689770.47047  21877029.478    21877030.4164   21877034.6034
        46.7004         43.9004
 -20474584.14947 -15930473.76547  20479117.830    20479117.9244   20479122.1854
        50.2004         47.2004
 16  6 10  0 56  0.0000000  0  9G19G 6G31G 1G22G17G23G 3G 9
  -9794015.67544  -7598198.50846  23108516.488    23108515.6874   23108517.3864
        42.2004         39.5004
 -11351281.55446  -8831992.08147  20908748.288    20908749.1184   20908753.9634
        49.3004         46.5004
   1453934.54342   1143656.20445  25059394.911    25059394.1414   25059393.9284
        36.8004         34.8004
                    154674.66644  25237141.481
                        29.8004
  -1716080.94943  -1322590.53646  23805130.882    23805130.4794   23805132.4174
        39.4004         37.3004
   -946030.24943   -723592.82746  23807673.503    23807673.8584   23807678.5074
        39.4004         37.1004
 -22418112.30247 -17185139.88947  20635485.754    20635485.3604   20635485.0884
        49.8004         47.0004
 -13678640.69846 -10634495.14747  21890528.507    21890528.7474   21890533.1374
        46.7004         43.7004
 -20515239.18547 -15962153.01047  20471381.560    20471381.7754   20471385.8774
        50.2004         47.3004
 16  6 10  0 56 30.0000000  0  9G19G 6G31G 1G22G17G23G 3G 9
  -9720332.70344  -7540783.22846  23122538.553    23122537.2784   23122538.8804
        42.3004         39.7004
 -11390748.58046  -8862745.60047  20901238.294    20901238.5784   20901243.5514
        49.3004         46.5004
   1542065.42542   1212329.57245  25076164.800    25076165.6264   25076164.7264
        36.4004         34.5004
                    243563.24044  25258816.275
                        29.1004
  -1627547.59943  -1253603.53146  23821977.259    23821976.9964   23821979.5764
        39.6004         37.1004
   -853580.97143   -651554.45146  23825269.897    23825269.9014   23825272.5224
        39.9004         37.6004
 -22402695.99947 -17173127.18547  20638418.677    20638418.6514   20638418.7184
        49.6004         46.8004
 -13607465.41446 -10579033.89647  21904072.834    21904073.2484   21904077.1194
        46.5004         43.5004
 -20555421.74147 -15993464.08647  20463735.470    20463735.2804   20463739.5134
        50.2004         47.3004
 16  6 10  0 57  0.0000000  0  9G19G 6G31G 1G22G17G23G 3G 9
  -9646242.24544  -7483050.38846  23136636.678    23136636.6054   23136638.0164
        42.3004         39.9004
 -11429695.55146  -8893093.88647  20893826.472    20893827.0754   20893831.8764
        49.1004         46.3004
   1630524.28342   1281258.50845  25092998.329    25092998.2224   25092997.0654
        36.4004         34.6004
                     58473.61843  25280495.785
                        23.4004
  -1538894.14643  -1184522.94546  23838848.833    23838846.1704   23838849.0894
        39.4004         36.7004
   -760935.48343   -579363.18646  23842897.983    23842898.1774   23842900.8844
        39.9004         37.4004
 -22386840.55247 -17160772.28647  20641435.910    20641435.4314   20641435.9114
        49.6004         46.8004
 -13536052.24545 -10523387.28547  21917661.122    21917662.0874   21917667.2974
        46.2004         43.3004
 -20595131.40947 -16024406.67647  20456178.674    20456178.9164   20456183.3984
        50.2004         47.3004
 16  6 10  0 57 30.0000000  0  9G19G 6G31G 1G22G17G23G 3G 9
  -9571747.07444  -7425002.22846  23150814.130    23150812.9684   23150814.1394
        42.7004         40.2004
 -11468120.79146  -8923035.62547  20886514.292    20886514.8924   20886519.8394
        49.1004         46.1004
   1719308.47242   1350440.90545  25109893.054    25109893.1964   25109892.9374
        36.6004         34.5004
                    147269.16744  25302174.060
                        29.8004
  -1450121.39043  -1115349.37546  23855741.309    23855741.2474   23855742.2214
        39.2004         36.6004
   -668096.55343   -507021.17146  23860561.590    23860562.8454   23860567.1474
        39.6004         36.9004
 -22370546.71746 -17148075.78547  20644536.703    20644536.3164   20644536.4634
        49.5004         46.8004
 -13464401.86145 -10467555.83547  21931296.056    21931296.3104   21931301.7864
        46.0004         43.2004
 -20634367.75047 -16054980.43747  20448712.671    20448712.6874   20448716.8814
        50.3004         47.5004
 16  6 10  0 58  0.0000000  0  9G19G 6G31G 1G22G17G23G 3G 9
  -9496849.92944  -7366640.84346  23165066.232    23165064.6704   23165066.2264
        42.7004         39.7004
 -11506022.56646  -8952569.48047  20879302.664    20879302.9484   20879307.6484
        49.1004         46.3004
   1808415.30142   1419874.70245  25126851.100    25126850.8734   25126850.0784
        36.3004         34.3004
                    236088.00844  25323863.437
                        29.8004
  -1361230.09243  -1046083.45746  23872656.576    23872655.3124   23872656.8104
        39.0004         36.6004
   -575067.04943   -434530.68646  23878266.749    23878267.0084   23878269.4744
        39.2004         36.9004
 -22353815.66047 -17135038.60047  20647720.999    20647720.0904   20647720.0384
        49.6004         46.8004
 -13392514.98545 -10411540.09047  21944975.943    21944976.1294   21944981.0404
        46.0004         43.2004
 -20673130.44347 -16085185.12747  20441335.802    20441336.1244   20441340.3214
        50.3004         47.5004
 16  6 10  0 58 30.0000000  0  9G19G 6G31G 1G22G17G23G 3G 9
  -9421554.39244  -7307968.97746  23179392.832    23179392.5584   23179394.7364
        42.3004         39.3004
 -11543399.20446  -8981694.13547  20872189.964    20872190.2354   20872194.9064
        49.1004         46.3004
   1897842.13142   1489557.88645  25143865.753    25143866.4404   25143868.7434
        36.3004         34.3004
                     51129.35843  25345556.265
                        23.4004
  -1272221.01943   -976725.73446  23889592.652    23889593.1984   23889594.9654
        38.9004         36.6004
   -481850.43243   -361894.36346  23896006.117    23896006.0084   23896011.7224
        39.6004         37.3004
 -22336648.22647 -17121661.37647  20650987.722    20650987.3164   20650987.0054
        49.6004         46.8004
 -13320392.33745 -10355340.63847  21958699.632    21958699.8674   21958705.7094
        46.0004         43.0004
 -20711419.10047 -16115020.43047  20434049.919    20434049.8344   20434054.2554
        50.2004         47.3004
 16  6 10  0 59  0.0000000  0  9G19G 6G31G 1G22G17G23G 3G 9
  -9345862.93844  -7248988.64246  23193798.901    23193797.4174   23193798.3314
        42.3004         39.5004
 -11580249.05346  -9010408.30647  20865177.431    20865178.1304   20865182.8904
        49.1004         46.3004
   1987586.20342   1559488.27745  25160944.513    25160946.3834   25160947.3494
        36.1004         34.5004
                    140008.98154  25367254.996
                        29.6004
  -1183094.74843   -907276.71946  23906554.712    23906553.9914   23906554.7994
        38.9004         36.4004
   -388449.70343   -289114.61446  23913780.756    23913779.5274   23913783.9314
        39.6004         37.1004
 -22319045.17247 -17107944.70747  20654337.580    20654337.2624   20654336.6524
        49.6004         46.8004
 -13248034.60045 -10298958.01547  21972469.964    21972470.1994   21972474.6494
        45.8004         43.0004
 -20749233.36647 -16144486.08147  20426853.861    20426853.8954   20426858.2744
        50.2004         47.3004
 16  6 10  0 59 30.0000000  0  8G19G 6G31G22G17G23G 3G 9
  -9269778.57544  -7189702.16946  23208276.336    23208274.7994   23208276.8074
        42.0004         39.0004
 -11616570.49946  -9038710.71547  20858264.736    20858265.5154   20858271.0474
        49.1004         46.3004
   2077644.97142   1629663.86945  25178082.209    25178082.0204   25178083.4014
        35.9004         34.1004
  -1093851.65843   -837736.67646  23923537.261    23923535.6064   23923537.8934
        38.5004         36.2004
   -294868.25343   -216193.99546  23931587.291    23931587.1454   23931590.5164
        39.0004         36.7004
 -22301007.79447 -17093889.60347  20657769.334    20657769.1344   20657769.4614
        49.6004         46.8004
 -13175442.64645 -10242392.86447  21986283.279    21986283.3134   21986288.6644
        45.8004         43.0004
 -20786572.89847 -16173581.82147  20419748.309    20419748.5414   20419753.0574
        50.2004         47.3004
 16  6 10  1  0  0.0000000  0  8G19G 6G31G22G17G23G 3G 9
  -9193304.35844  -7130111.86746  23222827.252    23222826.7454   23222829.8174
        41.3004         38.5004
 -11652361.85046  -9066600.06947  20851455.284    20851455.6064   20851459.8634
        49.3004         46.6004
   2168015.73142   1700082.58345  25195280.823    25195280.6874   25195281.7964
        36.1004         34.1004
  -1004492.55143   -768106.22346  23940539.295    23940539.8144   23940541.0414
        38.5004         36.4004
   -201108.45943   -143134.46246  23949429.677    23949430.1214   23949434.3314
        39.4004         37.3004
 -22282536.90947 -17079496.70347  20661284.562    20661284.2974   20661284.4424
        49.6004         47.0004
 -13102616.94745 -10185645.57347  22000142.539    22000142.6894   22000147.2604
        45.8004         43.2004
 -20823437.38247 -16202307.38147  20412733.439    20412732.9734   20412737.9424
        50.2004         47.3004
 16  6 10  1  0 30.0000000  0  8G19G 6G31G22G17G23G 3G 9
  -9116442.99544  -7070219.91546  23237455.498    23237454.5214   23237455.7784
        41.6004         39.3004
 -11687621.48646  -9094075.11247  20844745.348    20844745.8044   20844750.0334
        49.5004         46.6004
   2258696.05042   1770742.52845  25212535.461    25212534.9384   25212537.0604
        35.9004         34.1004
   -915018.09343   -698385.87946  23957568.460    23957567.3664   23957568.4994
        38.9004         36.7004
   -107174.10643    -69938.87746  23967303.894    23967304.4684   23967308.1064
        39.4004         36.9004
 -22263633.56147 -17064766.81647  20664881.772    20664881.4864   20664881.5294
        49.6004         47.0004
 -13029558.34645 -10128716.82347  22014044.891    22014045.5194   22014049.7034
        46.0004         43.2004
 -20859826.50647 -16230662.53647  20405808.642    20405808.7044   20405813.3724
        50.2004         47.3004
 16  6 10  1  1  0.0000000  0  8G19G 6G31G22G17G23G 3G 9
  -9039197.63744  -7010028.76746  23252154.556    23252154.1884   23252153.8814
        41.6004         38.8004
 -11722347.82246  -9121134.59247  20838136.889    20838137.4314   20838141.9764
        49.5004         46.5004
   2349682.95442   1841641.34445  25229848.615    25229848.7484   25229852.8954
        35.6004         33.6004
   -825429.02043   -628576.26746  23974619.447    23974617.5234   23974618.2854
        39.4004         37.1004
    -13068.09643      3390.47646  23985212.328    23985213.0904   23985215.7944
        39.0004         36.7004
 -22244298.94447 -17049700.88247  20668561.172    20668560.7324   20668560.5804
        49.6004         46.8004
 -12956267.52845 -10071607.11247  22027992.335    22027992.7064   22027996.3014
        46.0004         43.0004
 -20895739.95047 -16258647.02947  20398974.732    20398974.5634   20398979.1684
        50.2004         47.3004
 16  6 10  1  1 30.0000000  0  8G19G 6G31G22G17G23G 3G 9
  -8961571.23544  -6949540.65646  23266925.396    23266924.4294   23266926.8054
        41.1004         38.5004
 -11756539.28446  -9147777.28747  20831630.518    20831630.8024   20831635.8834
        49.3004         46.5004
   2440973.83842   1912777.06245  25247221.615    25247223.2924   25247227.6164
        35.6004         34.0004
   -735725.93443   -558677.77446  23991688.021    23991686.1024   23991688.0184
        39.7004         37.4004
     81206.64043     76851.30446  24003152.787    24003153.5704   24003156.3224
        39.6004         37.3004
 -22224533.91247 -17034299.55547  20672322.137    20672321.8044   20672321.6644
        49.6004         46.6004
 -12882745.21845 -10014317.01847  22041982.444    22041982.7274   22041987.0354
        46.0004         43.2004
 -20931177.31647 -16286260.55647  20392231.157    20392231.3434   20392235.6714
        50.2004         47.5004
 16  6 10  1  2  0.0000000  0  8G19G 6G31G22G17G23G 3G 9
  -8883566.93344  -6888758.11346  23281771.103    23281769.0834   23281770.5864
        41.5004         39.3004
 -11790194.17146  -9174001.86947  20825225.907    20825226.7304   20825231.3684
        49.5004         46.8004
   2532566.04642   1984147.58245  25264651.724    25264652.3844   25264653.2244
        35.4004         33.8004
   -645909.75943   -488691.15746  24008778.816    24008777.6754   24008777.7554
        39.4004         36.7004
    175646.94043    150441.09846  24021125.471    24021125.3894   24021126.2824
        39.4004         36.9004
 -22204339.44546 -17018563.60247  20676164.723    20676164.3974   20676164.4254
        49.5004         46.6004
 -12808992.12045  -9956847.09347  22056018.430    22056018.0164   22056022.5294
        45.8004         43.0004
 -20966138.61747 -16313503.11847  20385578.291    20385578.4304   20385582.7894
        50.2004         47.5004
 16  6 10  1  2 30.0000000  0  8G19G 6G31G22G17G23G 3G 9
  -8805187.55544  -6827683.29146  23296684.915    23296683.9744   23296685.5124
        41.8004         39.0004
 -11823311.12647  -9199807.28747  20818924.571    20818924.9334   20818929.2704
        49.6004         46.8004
   2624456.93242   2055750.87045  25282137.540    25282137.2864   25282141.8124
        35.2004         33.6004
   -555980.98643   -418616.78446  24025892.937    24025890.2294   24025889.0854
        38.9004         36.4004
    270249.55343    224157.41746  24039123.814    24039124.5694   24039130.3874
        39.2004         36.9004
 -22183716.82646 -17002494.02347  20680089.275    20680088.8744   20680088.8354
        49.5004         46.6004
 -12735008.95445  -9899197.89547  22070095.148    22070095.7094   22070101.0124
        45.8004         42.8004
 -21000623.42847 -16340374.38647  20379016.707    20379016.1764   20379020.4384
        50.3004         47.5004
 16  6 10  1  3  0.0000000  0  7G19G 6G22G17G23G 3G 9
  -8726436.01744  -6766318.47046  23311669.811    23311669.6964   23311671.1484
        41.3004         38.5004
 -11855888.52247  -9225192.27147  20812724.886    20812725.6044   20812730.3134
        49.6004         47.0004
   -465940.11043   -348455.07246  24043025.796    24043024.7074   24043025.8044
        38.7004         36.4004
    365011.64943    297998.00146  24057159.769    24057159.6134   24057162.7004
        39.4004         37.1004
 -22162666.88246 -16986091.46347  20684095.143    20684094.7154   20684094.7694
        49.5004         46.8004
 -12660796.43845  -9841369.97747  22084218.173    22084218.2784   22084223.1104
        45.6004         42.8004
 -21034631.52247 -16366874.19747  20372544.594    20372544.9024   20372549.0064
        50.3004         47.5004
 16  6 10  1  3 30.0000000  0  7G19G 6G22G17G23G 3G 9
  -8647315.39844  -6704666.05346  23326728.313    23326727.3664   23326727.1474
        41.3004         39.0004
 -11887924.82147  -9250155.61447  20806628.819    20806629.2624   20806634.1184
        49.6004         46.8004
   -375788.05143   -278206.71945  24060178.977    24060177.7704   24060179.8954
        38.3004         35.7004
    459929.91643    371960.25546  24075222.490    24075221.8204   24075223.5164
        39.2004         36.7004
 -22141190.86046 -16969356.89347  20688181.625    20688181.0844   20688181.7214
        49.5004         46.8004
 -12586355.27445  -9783363.89147  22098383.610    22098383.7544   22098388.8864
        45.5004         42.8004
 -21068162.67647 -16393002.36247  20366164.340    20366164.1654   20366168.1044
        50.3004         47.5004
 16  6 10  1  4  0.0000000  0  7G19G 6G22G17G23G 3G 9
  -8567828.90644  -6642728.54346  23341852.814    23341852.2054   23341853.4644
        41.5004         38.8004
 -11919418.50246  -9274696.14347  20800635.392    20800635.9234   20800640.5574
        49.5004         46.6004
   -285525.24243   -207872.06645  24077354.722    24077355.0444   24077357.1994
        37.8004         35.7004
    555001.71043    446042.15846  24093313.276    24093312.9054   24093316.3804
        39.0004         36.7004
 -22119289.77546 -16952291.11547  20692349.772    20692349.2824   20692349.2324
        49.5004         46.8004
 -12511686.19845  -9725180.23247  22112592.834    22112593.4864   22112597.7634
        45.5004         42.8004
 -21101216.67247 -16418758.71647  20359873.731    20359874.0014   20359877.8744
        50.3004         47.5004
 16  6 10  1  4 30.0000000  0  7G19G 6G22G17G23G 3G 9
  -8487979.32444  -6580508.11046  23357046.397    23357046.2674   23357049.1954
        41.3004         38.6004
 -11950368.09446  -9298812.71247  20794746.114    20794746.4944   20794751.3604
        49.5004         46.6004
   -195152.46443   -137451.71945  24094552.173    24094551.2794   24094554.8554
        37.6004         35.5004
    650223.65643    520241.06646  24111433.483    24111433.6864   24111435.9774
        39.2004         36.9004
 -22096964.64247 -16934894.90547  20696597.948    20696597.7234   20696597.4864
        49.6004         46.8004
 -12436789.96145  -9666819.53647  22126845.413    22126845.5754   22126849.8654
        45.6004         42.6004
 -21133793.31547 -16444143.09947  20353674.455    20353674.6984   20353679.0294
        50.3004         47.5004
 16  6 10  1  5  0.0000000  0  8G19G 6G22G17G23G 3G 2G 9
  -8407769.74744  -6518007.16246  23372311.100    23372310.2674   23372312.9664
        41.3004         38.8004
 -11980772.11446  -9322504.15447  20788960.264    20788960.7124   20788965.8684
        49.5004         46.6004
   -104670.54142    -66946.35445  24111770.120    24111769.3374   24111772.1854
        37.5004         35.5004
    745592.64243    594554.55846  24129582.583    24129582.0324   24129584.2914
        39.2004         36.9004
 -22074216.58646 -16917169.14747  20700926.668    20700926.3604   20700926.3084
        49.5004         46.6004
 -12361667.22045  -9608282.35347  22141140.087    22141140.0184   22141145.7384
        45.5004         42.6004
                   -213786.47656  24005828.687                    24005829.1974
                        37.1004
 -21165892.44147 -16469155.40047  20347566.538    20347566.2944   20347570.9094
        50.3004         47.5004
 16  6 10  1  5 30.0000000  0  8G19G 6G22G17G23G 3G 2G 9
  -8327203.21444  -6455228.07546  23387641.975    23387641.3604   23387643.6224
        41.5004         38.8004
 -12010629.08346  -9345769.32047  20783278.317    20783279.0034   20783284.2664
        49.5004         46.6004
    -14079.98143      3643.66446  24129010.925    24129010.3314   24129013.1624
        38.0004         36.0004
    841105.55843    668980.18346  24147756.347    24147756.4534   24147758.5244
        39.0004         36.7004
 -22051046.50046 -16899114.53547  20705335.271    20705335.3334   20705335.4134
        49.5004         46.5004
 -12286318.72345  -9549569.26447  22155478.304    22155479.3314   22155484.2814
        45.5004         42.6004
   -389872.36743   -287865.01246  23987740.735    23987737.2304   23987738.3644
        39.2004         37.4004
 -21197513.85447 -16493795.45647  20341549.500    20341549.4104   20341553.6404
        50.5004         47.7004
 16  6 10  1  6  0.0000000  0  8G19G 6G22G17G23G 3G 2G 9
  -8246282.47144  -6392172.98446  23403040.590    23403039.5414   23403041.0944
        41.5004         39.0004
 -12039937.58646  -9368607.11647  20777701.122    20777701.8394   20777706.9664
        49.5004         46.6004
     76618.43643     74317.76146  24146267.989    24146268.4434   24146272.6074
        38.3004         36.2004
    936759.37143    743515.59246  24165957.952    24165958.5774   24165961.9094
        38.9004         36.4004
 -22027455.86546 -16880732.22047  20709824.528    20709823.9804   20709824.5504
        49.3004         46.5004
 -12210745.18945  -9490680.81347  22169859.924    22169860.2634   22169864.9544
        45.5004         42.6004
   -484755.73843   -361800.04246  23969682.236    23969681.7934   23969681.5664
        39.9004         37.6004
 -21228657.38847 -16518063.13247  20335622.997    20335622.8254   20335627.2804
        50.5004         47.7004
 16  6 10  1  6 30.0000000  0  8G19G 6G22G17G23G 3G 2G 9
  -8165011.32044  -6328844.83246  23418504.928    23418504.5024   23418507.4734
        41.5004         38.8004
 -12068696.16146  -9391016.39947  20772228.366    20772229.1684   20772234.5494
        49.5004         46.6004
    167424.16443    145075.47145  24163550.037    24163548.1314   24163552.1524
        38.3004         35.9004
   1032551.05643    818158.42146  24184187.667    24184187.6994   24184191.4324
        38.7004         36.6004
 -22003445.73346 -16862023.02847  20714393.219    20714392.9434   20714393.5114
        49.3004         46.5004
 -12134947.32445  -9431617.56347  22184284.606    22184284.0264   22184289.4824
        45.5004         42.6004
   -579452.96553   -435590.04256  23951662.457    23951661.6754   23951661.9034
        40.1004         37.8004
 -21259322.90447 -16541958.33947  20329787.020    20329786.9954   20329791.6864
        50.3004         47.7004
 16  6 10  1  7  0.0000000  0  8G19G 6G22G17G23G 3G 2G 9
  -8083392.43244  -6265245.72446  23434038.219    23434036.9544   23434039.7424
        41.3004         39.0004
 -12096903.46146  -9412996.11647  20766860.569    20766861.1234   20766866.4044
        49.3004         46.5004
    258336.56543    215916.24345  24180851.764    24180848.3134   24180849.9694
        38.0004         35.5004
   1128477.22343    892906.07546  24202440.814    24202440.7004   24202444.9664
        38.9004         36.4004
 -21979017.04246 -16842987.68147  20719042.499    20719042.0554   20719042.5084
        49.3004         46.5004
 -12058925.88145  -9372380.09447  22198749.793    22198750.5794   22198754.9314
        45.3004         42.5004
   -673961.61143   -509233.09346  23933677.435    23933676.5404   23933677.3304
        40.4004         37.9004
 -21289510.29547 -16565480.97247  20324042.673    20324042.8204   20324047.1204
        50.3004         47.5004
 16  6 10  1  7 30.0000000  0  8G19G 6G22G17G23G 3G 2G 9
  -8001428.81244  -6201378.02646  23449635.865    23449634.9464   23449636.5724
        41.6004         39.2004
 -12124558.01546  -9434545.12147  20761598.731    20761598.9644   20761604.2354
        49.3004         46.5004
    349354.68042    286839.44245  24198165.936    24198167.1814   24198172.6634
        37.5004         35.2004
   1224535.10543    967756.38646  24220721.076    24220721.2214   24220723.6424
        38.9004         36.6004
 -21954171.02046 -16823627.14547  20723770.706    20723770.2394   20723770.2974
        49.3004         46.5004
 -11982681.55145  -9312968.94347  22213258.759    22213258.5704   22213264.0914
        45.1004         42.3004
   -768279.51944   -582727.50546  23915728.360    23915727.7654   23915729.0044
        40.6004         37.9004
 -21319219.39347 -16588630.91247  20318389.094    20318389.3264   20318393.4364
        50.3004         47.5004
 16  6 10  1  8  0.0000000  0  8G19G 6G22G17G23G 3G 2G 9
  -7919123.56044  -6137244.09746  23465297.176    23465295.9614   23465297.8974
        41.5004         38.8004
 -12151658.49346  -9455662.37447  20756441.025    20756441.8864   20756447.4174
        49.5004         46.6004
    440478.12442    357844.73145  24215508.315    24215507.2024   24215511.7084
        37.0004         34.6004
   1320721.62343   1042706.87346  24239025.317    24239024.9604   24239027.9354
        38.9004         36.6004
 -21928908.75746 -16803942.26047  20728577.647    20728577.1554   20728577.4484
        49.1004         46.5004
 -11906215.07745  -9253384.70546  22227807.600    22227809.2074   22227815.1364
        44.9004         41.9004
   -862404.33744   -656071.46246  23897817.662    23897816.5944   23897817.8094
        40.6004         38.1004
 -21348450.15547 -16611408.12347  20312826.986    20312827.0034   20312830.9694
        50.3004         47.5004
 16  6 10  1  8 30.0000000  0  8G19G 6G22G17G23G 3G 2G 9
  -7836479.50044  -6072846.12646  23481023.587    23481022.7004   23481025.9084
        41.6004         39.2004
 -12178203.51946  -9476346.80447  20751389.849    20751390.5684   20751395.9744
        49.5004         46.8004
    531706.13242    428931.40445  24232872.926    24232871.2674   24232870.2224
        37.0004         35.0004
   1417033.51643   1117755.08646  24257352.646    24257351.9454   24257355.9594
        38.9004         36.6004
 -21903231.28546 -16783933.84047  20733463.458    20733463.0314   20733463.6614
        49.1004         46.3004
 -11829527.18345  -9193627.92946  22242402.906    22242402.5384   22242408.3414
        44.8004         41.9004
   -956334.08944   -729263.42046  23879942.651    23879942.1464   23879943.8794
        40.8004         38.3004
 -21377202.43547 -16633812.49147  20307355.475    20307355.4374   20307359.8814
        50.5004         47.7004
 16  6 10  1  9  0.0000000  0  8G19G 6G22G17G23G 3G 2G 9
  -7753500.16944  -6008186.93046  23496815.457    23496814.8334   23496815.9964
        41.8004         39.3004
 -12204191.77046  -9496597.38547  20746444.408    20746445.0074   20746450.3194
        49.5004         46.6004
    623037.94342    500099.05945  24250251.078    24250248.8394   24250250.2524
        36.8004         35.0004
   1513467.63043   1192898.55046  24275702.525    24275701.9334   24275706.5214
        38.5004         36.2004
 -21877139.71246 -16763602.74147  20738428.478    20738428.3434   20738428.6894
        49.1004         46.3004
 -11752618.55145  -9133699.15647  22257037.730    22257038.2154   22257044.3824
        44.8004         42.1004
  -1050066.35344   -802301.47346  23862106.440    23862105.2264   23862106.7974
        40.6004         38.1004
 -21405476.17647 -16655843.97347  20301975.329    20301975.1204   20301979.4864
        50.5004         47.7004
 16  6 10  1  9 30.0000000  0  8G19G 6G22G17G23G 3G 2G 9
  -7670188.47644  -5943268.76946  23512668.166    23512666.8654   23512668.9704
        41.6004         38.8004
 -12229621.91846  -9516413.08347  20741605.371    20741605.6914   20741611.0504
        49.5004         46.6004
    714473.08342    571347.17545  24267655.200    24267650.6504   24267649.8794
        37.1004         35.2004
   1610021.18543   1268135.07245  24294075.255    24294075.9494   24294080.5234
        38.3004         35.9004
 -21850635.43046 -16742950.05347  20743472.569    20743472.2244   20743472.5914
        49.1004         46.5004
 -11675489.96545  -9073598.97747  22271714.072    22271715.0494   22271721.1944
        44.8004         42.1004
  -1143598.43044   -875183.57946  23844307.960    23844307.4074   23844308.4804
        40.6004         38.1004
 -21433271.36447 -16677502.55747  20296685.765    20296685.7274   20296690.2074
        50.5004         47.5004
 16  6 10  1 10  0.0000000  0  8G19G 6G22G17G23G 3G 2G 9
  -7586547.35944  -5878093.88246  23528581.994    23528581.9624   23528585.5294
        40.9004         38.3004
 -12254492.63447  -9535792.86147  20736873.425    20736873.8014   20736878.2274
        49.6004         46.8004
    806010.58242    642675.05645  24285071.475    24285069.2064   24285070.3104
        37.3004         35.0004
   1706691.18643   1343462.32645  24312474.556    24312472.7574   24312475.0624
        38.2004         35.9004
 -21823719.67046 -16721976.73247  20748594.506    20748593.8434   20748594.5104
        49.3004         46.5004
 -11598142.08745  -9013327.93947  22286434.713    22286434.3614   22286439.8384
        44.9004         42.1004
  -1236928.37444   -947908.16646  23826547.462    23826546.3994   23826547.8344
        40.6004         38.1004
 -21460587.88347 -16698788.14847  20291487.207    20291487.3484   20291492.3274
        50.3004         47.5004
 16  6 10  1 10 30.0000000  0  8G19G 6G22G17G23G 3G 2G 9
  -7502580.14044  -5812664.92346  23544563.326    23544562.1654   23544564.7504
        41.1004         38.8004
 -12278802.66147  -9554735.74147  20732247.290    20732247.5554   20732252.3214
        49.6004         46.8004
    897649.91842    714082.33545  24302503.756    24302505.2374   24302509.0124
        36.8004         34.8004
   1803474.24443   1418877.67745  24330888.061    24330887.8874   24330892.7004
        38.0004         35.7004
 -21796393.31046 -16700683.46747  20753794.201    20753794.1134   20753794.5544
        49.3004         46.5004
 -11520575.70545  -8952886.60246  22301192.761    22301193.9934   22301200.2724
        44.8004         41.9004
  -1330053.74244  -1020473.35146  23808826.470    23808825.3124   23808827.1564
        40.6004         38.1004
 -21487425.75547 -16719700.76347  20286380.566    20286380.4544   20286384.9554
        50.3004         47.5004
 16  6 10  1 11  0.0000000  0  8G19G 6G22G17G23G 3G 2G 9
  -7418289.84544  -5746984.19746  23560603.334    23560602.0114   23560604.4644
        41.1004         38.5004
 -12302550.73047  -9573240.72347  20727727.284    20727727.9344   20727733.2704
        49.6004         46.8004
    989390.33442    785568.37045  24319966.733    24319965.4954   24319966.3394
        37.0004         35.0004
   1900367.49343   1494378.90645  24349326.388    24349327.2144   24349330.7854
        37.8004         35.7004
 -21768657.65546 -16679071.26347  20759072.456    20759071.8654   20759072.4454
        49.3004         46.5004
 -11442791.52645  -8892275.57947  22315995.938    22315996.6964   22316002.2424
        44.8004         42.1004
  -1422972.26044  -1092877.35746  23791144.332    23791143.6594   23791145.4154
        40.8004         38.3004
 -21513784.90147 -16740240.36047  20281364.639    20281364.8394   20281368.8474
        50.3004         47.7004
 16  6 10  1 11 30.0000000  0  8G19G 6G22G17G23G 3G 2G 9
  -7333679.44344  -5681054.03446  23576702.884    23576702.3144   23576705.2004
        40.8004         37.9004
 -12325735.59546  -9591306.84847  20723315.326    20723316.3394   20723321.1234
        49.5004         46.6004
   1081231.23042    857132.66745  24337446.815    24337439.8424   24337443.3954
        37.0004         35.0004
   1997367.79443   1569963.54445  24367786.355    24367786.5134   24367788.5234
        37.8004         35.7004
 -21740513.81946 -16657141.00047  20764427.832    20764427.7454   20764427.7574
        49.3004         46.5004
 -11364790.26445  -8831495.39547  22330840.392    22330840.6454   22330845.1354
        44.9004         42.3004
  -1515681.76044  -1165118.49246  23773502.047    23773501.8024   23773503.2144
        40.9004         38.5004
 -21539665.35547 -16760406.94847  20276440.052    20276439.9704   20276444.0274
        50.5004         47.7004
 16  6 10  1 12  0.0000000  0  8G19G 6G22G17G23G 3G 2G 9
  -7248752.27343  -5614877.06346  23592865.554    23592864.6604   23592865.5414
        40.4004         37.9004
 -12348356.00546  -9608933.14347  20719011.995    20719012.5374   20719016.5084
        49.5004         46.6004
   1173172.14342    928774.93445  24354935.316    24354935.9094   24354938.6354
        37.1004         35.2004
   2094472.02943   1645629.15645  24386267.204    24386266.4534   24386267.3024
        37.8004         35.5004
 -21711963.14646 -16634893.72047  20769860.843    20769860.5164   20769861.1444
        49.3004         46.5004
 -11286572.62745  -8770546.61747  22345725.104    22345724.1294   22345729.5094
        45.1004         42.5004
  -1608180.11844  -1237195.10546  23755900.448    23755900.2124   23755901.1954
        40.9004         38.3004
 -21565067.08747 -16780200.49647  20271605.634    20271605.7274   20271610.4104
        50.5004         47.7004
 16  6 10  1 12 30.0000000  0  8G19G 6G22G17G23G 3G 2G 9
  -7163511.55443  -5548455.74446  23609085.686    23609084.7544   23609086.8404
        40.4004         37.8004
 -12370410.74547  -9626118.64847  20714814.878    20714815.3754   20714819.8844
        49.6004         46.8004
   1265212.19842   1000494.47745  24372452.382    24372451.1714   24372453.8284
        37.1004         35.0004
   2191677.17643   1721373.40045  24404761.479    24404762.7964   24404765.6324
        37.6004         35.3004
 -21683006.84846 -16612330.36547  20775371.360    20775370.7054   20775371.5184
        49.3004         46.3004
 -11208139.40145  -8709429.83147  22360648.261    22360649.4784   22360655.4274
        45.1004         42.3004
  -1700464.65744  -1309105.11046  23738339.903    23738338.9174   23738339.1124
        40.8004         38.1004
 -21589990.16147 -16799621.06847  20266863.072    20266863.1284   20266867.8804
        50.5004         47.8004
 16  6 10  1 13  0.0000000  0  8G19G 6G22G17G23G 3G 2G 9
  -7077960.23343  -5481792.39746  23625364.001    23625363.1954   23625367.5544
        40.1004         37.6004
 -12391898.65047  -9642862.46947  20710725.568    20710725.8714   20710730.7784
        49.6004         46.8004
   1357350.46142   1072290.51045  24389986.130    24389984.8464   24389985.8524
        37.1004         35.2004
   2288980.12542   1797193.88145  24423277.503    24423278.2674   24423280.8684
        37.0004         34.8004
 -21653645.77846 -16589451.60847  20780958.713    20780958.4724   20780958.4164
        49.1004         46.5004
 -11129491.30745  -8648145.61647  22375615.633    22375615.4014   22375621.5494
        45.1004         42.5004
  -1792533.00243  -1380846.64146  23720819.501    23720819.1294   23720818.9534
        40.3004         37.6004
 -21614434.58747 -16818668.66847  20262211.729    20262211.3724   20262216.3594
        50.5004         47.8004
 16  6 10  1 13 30.0000000  0  9G19G 6G22G17G23G 3G 7G 2G 9
  -6992101.36843  -5414889.40446  23641703.378    23641702.8814   23641705.0404
        40.1004         37.8004
 -12412818.54647  -9659163.68347  20706744.544    20706745.3084   20706749.8134
        49.6004         46.8004
   1449586.39242   1144162.64545  24407540.417    24407536.2004   24407539.2264
        37.1004         35.2004
   2386378.08342   1873088.34745  24441812.752    24441813.3744   24441814.7724
        37.0004         35.0004
 -21623881.49546 -16566258.66647  20786622.416    20786622.1984   20786622.3654
        49.1004         46.3004
 -11050629.07545  -8586694.54647  22390622.420    22390622.3724   22390628.2324
        45.1004         42.5004
                   -106123.26555  24082737.113
                        34.8004
  -1884382.87743  -1452417.93746  23703341.165    23703340.5114   23703341.3894
        40.4004         37.9004
 -21638400.39747 -16837343.31947  20257650.613    20257650.4994   20257655.6414
        50.5004         47.7004
 16  6 10  1 14  0.0000000  0  8G19G 6G22G17G23G 3G 2G 9
  -6905937.88543  -5347749.07146  23658100.572    23658099.1434   23658100.5434
        40.3004         37.8004
 -12433169.25747  -9675021.37447  20702872.037    20702872.5534   20702877.5304
        49.6004         46.8004
   1541919.38542   1216110.40145  24425110.284    24425106.6304   24425107.1184
        37.0004         35.0004
   2483867.63942   1949054.17645  24460361.908    24460363.0384   24460367.3524
        36.3004         34.3004
 -21593715.01746 -16542752.32047  20792363.317    20792362.5864   20792362.7174
        49.1004         46.1004
 -10971553.40345  -8525077.15847  22405670.450    22405671.2604   22405675.3694
        45.1004         42.5004
  -1976012.19844  -1523817.39646  23685905.343    23685903.9834   23685905.2654
        40.8004         38.5004
 -21661887.68047 -16855645.09247  20253181.213    20253181.3354   20253186.2174
        50.5004         47.8004
 16  6 10  1 14 30.0000000  0  9G19G 6G22G17G23G 3G 7G 2G 9
  -6819473.47943  -5280374.22146  23674553.560    23674553.0604   23674554.7644
        40.4004         37.9004
 -12452949.65747  -9690434.67447  20699107.859    20699108.5834   20699113.2194
        49.6004         46.8004
   1634348.61042   1288133.18045  24442696.513    24442695.9864   24442695.7434
        37.0004         34.8004
   2581445.98342   2025089.25845  24478932.199    24478933.0574   24478936.0724
        36.3004         34.5004
 -21563147.77146 -16518933.69147  20798179.415    20798179.2784   20798179.3994
        48.9004         46.1004
 -10892265.03245  -8463294.04047  22420759.216    22420759.3924   22420763.5244
        45.1004         42.3004
                   -272356.95846  24042142.295                    24042142.7744
                        36.2004
  -2067418.57744  -1595043.10246  23668510.643    23668509.9574   23668510.6474
        40.8004         38.3004
 -21684896.48547 -16873574.03547  20248803.108    20248803.3664   20248807.8174
        50.5004         47.8004
 16  6 10  1 15  0.0000000  0  9G19G 6G22G17G23G 3G 7G 2G 9
  -6732710.90644  -5212767.02946  23691062.834    23691063.0074   23691065.3134
        40.6004         38.3004
 -12472158.61347  -9705402.68647  20695452.784    20695453.0064   20695457.9304
        49.6004         46.8004
   1726873.47942   1360230.46145  24460303.548    24460303.2044   24460303.2444
        36.8004         34.8004
   2679109.88942   2101190.97345  24497518.632    24497516.4204   24497518.2584
        36.1004         34.3004
 -21532181.00746 -16494803.74647  20804071.924    20804071.8984   20804072.1594
        48.9004         46.1004
 -10812764.71745  -8401345.75646  22435885.528    22435886.9304   22435891.9014
        44.9004         41.9004
   -480238.92643   -355383.81645  24021865.313    24021866.5244   24021867.7084
        37.8004         35.9004
  -2158599.56744  -1666093.18446  23651159.328    23651158.6444   23651159.3294
        40.8004         38.1004
 -21707426.90247 -16891130.20047  20244515.648    20244515.8824   20244520.3054
        50.7004         47.8004
 16  6 10  1 15 30.0000000  0  9G19G 6G22G17G23G 3G 7G 2G 9
  -6645653.53744  -5144930.12246  23707630.518    23707629.6014   23707631.7624
        40.6004         38.1004
 -12490795.04047  -9719924.57747  20691906.096    20691906.4794   20691911.8604
        49.6004         46.8004
   1819493.31342   1432401.75645  24477929.278    24477929.7024   24477926.8994
        36.8004         34.6004
   2776856.59042   2177357.19945  24516118.232    24516117.9424   24516120.1464
        36.3004         34.5004
 -21500815.82246 -16470363.33847  20810041.408    20810040.6124   20810040.8884
        48.9004         46.1004
 -10733053.19045  -8339232.89247  22451055.300    22451055.2944   22451061.0574
        44.9004         42.1004
   -586709.74353   -438348.08655  24001604.519    24001605.1374   24001607.5894
        38.0004         35.9004
  -2249552.97044  -1736965.93046  23633851.279    23633850.3434   23633851.6884
        40.8004         38.1004
 -21729479.03847 -16908313.67547  20240318.848    20240319.0784   20240323.9544
        50.7004         47.8004
 16  6 10  1 16  0.0000000  0  9G19G 6G22G17G23G 3G 7G 2G 9
  -6558304.24744  -5076865.78546  23724252.582    23724251.7644   23724253.3214
        40.6004         38.1004
 -12508857.88146  -9733999.51647  20688468.603    20688468.8964   20688474.4084
        49.5004         46.6004
   1912207.46742   1504646.54745  24495571.393    24495571.0794   24495571.7404
        36.6004         35.0004
   2874682.80342   2253585.42345  24534733.653    24534734.8234   24534736.3824
        36.4004         34.6004
 -21469053.35446 -16445613.36647  20816085.147    20816085.0104   20816085.0494
        48.9004         45.9004
 -10653131.17845  -8276956.00047  22466263.640    22466263.9954   22466269.8554
        44.8004         42.1004
   -693097.64143   -521247.74745  23981357.863    23981358.2944   23981361.6134
        37.8004         35.7004
  -2340276.44544  -1807659.51746  23616587.264    23616586.4174   23616588.1744
        40.9004         38.3004
 -21751053.00947 -16925124.55847  20236213.656    20236213.9004   20236218.5854
        50.5004         47.8004
 16  6 10  1 16 30.0000000  0  9G19G 6G22G17G23G 3G 7G 2G 9
  -6470666.28844  -5008576.48946  23740928.263    23740927.7214   23740931.0854
        40.6004         37.9004
 -12526346.04946  -9747626.66247  20685140.654    20685141.1814   20685146.5414
        49.5004         46.6004
   2005015.35342   1576964.42245  24513228.530    24513231.3154   24513230.7784
        36.6004         34.8004
   2972585.69442   2329873.35745  24553364.107    24553365.1404   24553367.7094
        36.4004         34.5004
 -21436895.13046 -16420555.00647  20822204.479    20822204.3914   20822204.8314
        48.9004         46.1004
 -10572999.41445  -8214515.67746  22481512.852    22481512.7154   22481518.4214
        44.8004         41.9004
   -799400.00043   -604080.76145  23961128.351    23961129.3664   23961131.9794
        37.6004         35.5004
  -2430767.16944  -1878171.75246  23599366.440    23599366.7394   23599367.9374
        40.8004         38.1004
 -21772148.95747 -16941562.95447  20232199.814    20232199.4384   20232203.8594
        50.7004         47.8004
 16  6 10  1 17  0.0000000  0  9G19G 6G22G17G23G 3G 7G 2G 9
  -6382743.13844  -4940064.94846  23757661.696    23757660.7944   23757662.5114
        40.6004         38.3004
 -12543258.50846  -9760805.21047  20681922.833    20681923.0214   20681928.1414
        49.5004         46.6004
   2097916.12542   1649354.66045  24530912.227    24530908.5524   24530911.4014
        36.4004         34.3004
   3070562.15042   2406218.64745  24572010.160    24572009.2454   24572011.2384
        36.8004         35.2004
 -21404341.89646 -16395188.85447  20828399.627    20828399.1074   20828399.4524
        48.9004         46.1004
 -10492658.65345  -8151912.47847  22496801.014    22496801.2754   22496806.6414
        44.8004         42.1004
   -905614.19642   -686845.07245  23940917.205    23940918.1684   23940920.6814
        37.5004         35.3004
  -2521023.49344  -1948501.32046  23582192.365    23582191.6584   23582191.7374
        40.8004         37.9004
 -21792766.96147 -16957628.92747  20228275.511    20228275.7734   20228280.2624
        50.5004         47.7004
 16  6 10  1 17 30.0000000  0  9G19G 6G22G17G23G 3G 7G 2G 9
  -6294537.46744  -4871333.30746  23774446.689    23774445.6974   23774446.1484
        40.6004         38.1004
 -12559594.26046  -9773534.36747  20678813.594    20678814.2624   20678819.8684
        49.5004         46.6004
   2190908.91242   1721816.57045  24548607.150    24548607.5184   24548607.2094
        36.4004         34.6004
   3168608.97842   2482618.73945  24590664.375    24590665.9714   24590669.5294
        37.1004         35.2004
 -21371395.43346 -16369516.29247  20834669.041    20834668.7504   20834668.8224
        48.9004         46.1004
 -10412109.62145  -8089147.00146  22512128.632    22512129.1144   22512134.4364
        44.6004         41.8004
  -1011737.59442   -769538.62145  23920723.016    23920722.7614   23920725.0694
        37.3004         35.2004
  -2611043.10843  -2018646.44146  23565061.928    23565061.4214   23565061.8814
        40.4004         37.8004
 -21812907.23647 -16973322.63847  20224443.226    20224443.2474   20224447.8614
        50.5004         47.7004
 16  6 10  1 18  0.0000000  0  9G19G 6G22G17G23G 3G 7G 2G 9
  -6206052.42844  -4802383.93146  23791283.928    23791282.6504   23791285.5084
        40.8004         38.1004
 -12575352.28546  -9785813.34747  20675815.127    20675815.6164   20675821.0004
        49.5004         46.6004
   2283993.37242   1794349.91445  24566323.466    24566318.9724   24566320.0994
        36.3004         34.5004
   3266723.26042   2559071.42045  24609335.399    24609336.5504   24609339.5154
        37.0004         34.8004
 -21338056.79746 -16343538.13647  20841013.150    20841012.6824   20841013.1764
        48.9004         46.1004
 -10331353.03945  -8026219.79946  22527494.956    22527496.6934   22527502.0534
        44.4004         41.6004
  -1117767.34242   -852159.21245  23900546.839    23900546.8994   23900548.8844
        37.5004         35.3004
  -2700823.12243  -2088604.88146  23547977.652    23547976.4094   23547976.5954
        40.3004         37.8004
 -21832569.90647 -16988644.19647  20220701.292    20220701.3434   20220706.1074
        50.5004         47.7004
 16  6 10  1 18 30.0000000  0  9G19G 6G22G17G23G 3G 7G 2G 9
  -6117291.66844  -4733219.70146  23808176.434    23808175.1654   23808175.7234
        40.8004         38.3004
 -12590531.63646  -9797641.40947  20672926.803    20672927.2034   20672932.6804
        49.5004         46.6004
   2377168.71642   1866954.03245  24584048.039    24584048.6254   24584051.3574
        36.1004         34.1004
   3364902.09642   2635574.40945  24628018.968    24628019.7574   24628022.0354
        36.8004         34.8004
 -21304327.44846 -16317255.52647  20847431.482    20847431.0384   20847431.2294
        48.9004         45.9004
 -10250389.69745  -7963131.48946  22542903.910    22542903.6134   22542908.5454
        44.4004         41.6004
  -1223701.18242   -934705.03645  23880388.242    23880388.1724   23880389.7294
        37.5004         35.3004
  -2790361.49344  -2158374.99146  23530938.764    23530937.7104   23530938.5764
        40.6004         38.3004
 -21851755.18547 -17003593.76247  20217050.318    20217050.5944   20217055.1464
        50.5004         47.7004
 16  6 10  1 19  0.0000000  0  9G19G 6G22G17G23G 3G 7G 2G 9
  -6028258.08444  -4663842.91446  23825118.514    23825117.3474   23825118.8184
        41.1004         38.5004
 -12605131.31846  -9809017.78547  20670148.734    20670148.9064   20670154.2954
        49.5004         46.6004
   2470433.97742   1939628.29645  24601795.758    24601795.0444   24601799.2204
        36.1004         34.5004
   3463142.27442   2712125.15245  24646710.562    24646712.0634   24646715.8334
        36.6004         34.5004
 -21270208.30146 -16290669.17547  20853923.841    20853923.6274   20853924.0004
        48.8004         45.9004
 -10169220.29945  -7899882.61546  22558348.724    22558349.1754   22558354.9294
        44.2004         41.4004
  -1329536.17843  -1017173.85845  23860249.644    23860249.1644   23860251.2194
        37.8004         35.7004
  -2879655.78544  -2227954.91446  23513947.224    23513946.7214   23513946.6204
        40.8004         38.3004
 -21870463.25447 -17018171.47447  20213491.130    20213490.5954   20213495.3604
        50.5004         47.8004
 16  6 10  1 19 30.0000000  0  9G19G 6G22G17G23G 3G 7G 2G 9
  -5938954.88944  -4594256.00246  23842111.646    23842110.4874   23842112.5924
        40.9004         38.5004
 -12619150.43046  -9819941.76447  20667480.227    20667480.8044   20667486.6814
        49.5004         46.6004
   2563788.75542   2012372.28245  24619565.317    24619562.2844   24619562.9864
        36.3004         34.5004
   3561440.80542   2788721.33845  24665419.796    24665421.4554   24665422.2404
        36.3004         34.5004
 -21235700.79346 -16263780.21147  20860490.317    20860490.4804   20860490.5714
        48.8004         45.9004
 -10087845.61945  -7836473.80446  22573834.328    22573834.7964   22573839.9914
        44.2004         41.4004
  -1435269.74643  -1099563.62145  23840128.493    23840128.9444   23840129.9114
        38.0004         35.9004
  -2968703.61944  -2297342.77746  23497000.654    23497000.7404   23497001.5264
        40.8004         38.3004
 -21888694.30247 -17032377.48147  20210021.136    20210021.3744   20210026.1774
        50.5004         47.7004
 16  6 10  1 20  0.0000000  0  9G19G 6G22G17G23G 3G 7G 2G 9
  -5849385.29344  -4524461.53546  23859156.553    23859154.6404   23859156.8854
        40.9004         38.3004
 -12632588.02347  -9830412.61847  20664923.721    20664924.4994   20664929.2204
        49.6004         46.8004
   2657232.09842   2085185.26145  24637342.040    24637346.4914   24637345.7354
        36.4004         34.5004
   3659794.80842   2865360.80745  24684137.337    24684135.6994   24684137.3734
        36.3004         34.3004
 -21200806.09046 -16236589.52947  20867130.802    20867130.5744   20867130.7394
        48.8004         45.9004
 -10006266.38345  -7772905.56946  22589357.868    22589358.0954   22589364.2964
        44.1004         41.4004
  -1540899.28143  -1181872.33946  23820030.770    23820028.5924   23820028.8794
        38.2004         36.0004
  -3057502.79944  -2366536.89246  23480104.081    23480102.2974   23480103.2824
        40.6004         37.9004
 -21906448.55847 -17046211.96547  20206642.852    20206642.8354   20206647.5104
        50.5004         47.7004
 16  6 10  1 20 30.0000000  0  9G19G 6G22G17G23G 3G 7G 2G 9
  -5759552.11944  -4454461.70946  23876251.092    23876250.3864   23876251.4304
        40.9004         38.3004
 -12645443.23147  -9840429.66647  20662477.959    20662478.2694   20662483.2814
        49.6004         46.8004
   2750763.57142   2158066.95945  24655140.105    24655141.5924   24655141.1824
        36.4004         34.6004
   3758201.41142   2942041.29945  24702862.843    24702861.0594   24702864.7134
        36.3004         34.3004
 -21165525.91546 -16209098.48747  20873844.478    20873843.9894   20873844.4904
        48.6004         45.8004
  -9924483.32945  -7709178.53246  22604921.645    22604921.8514   22604926.4544
        44.1004         41.4004
  -1646422.29943  -1264098.05446  23799948.258    23799947.2274   23799948.6934
        38.2004         36.0004
  -3146050.74644  -2435535.28646  23463254.184    23463253.8774   23463252.9364
        40.6004         38.1004
 -21923726.23947 -17059675.08647  20203355.531    20203355.2884   20203359.3084
        50.5004         47.7004
 16  6 10  1 21  0.0000000  0  9G19G 6G22G17G23G 3G 7G 2G 9
  -5669458.87844  -4384259.18946  23893393.572    23893392.9264   23893396.1544
        40.8004         38.3004
 -12657715.16847  -9849992.21247  20660142.183    20660142.9254   20660147.5114
        49.6004         46.6004
   2844382.18042   2231016.51345  24672960.391    24672957.7014   24672959.6734
        36.3004         34.5004
   3856657.39842   3018760.22645  24721598.271    24721598.8244   24721601.0134
        36.6004         34.8004
 -21129861.16046 -16181307.77047  20880630.326    20880630.6264   20880631.4834
        48.6004         45.8004
  -9842497.22545  -7645293.25446  22620521.636    22620522.5424   22620528.2824
        44.1004         41.2004
  -1751835.89443  -1346238.51046  23779887.811    23779887.7884   23779889.6424
        38.5004         36.4004
  -3234345.45443  -2504336.32646  23446451.203    23446450.4134   23446451.2784
        40.4004         37.8004
 -21940527.59947 -17072767.05347  20200158.392    20200158.1594   20200162.0874
        50.5004         47.7004
 16  6 10  1 21 30.0000000  0  9G19G 6G22G17G23G 3G 7G 2G 9
  -5579109.04544  -4313856.71046  23910588.218    23910587.0614   23910589.6534
        40.9004         38.5004
 -12669402.99147  -9859099.60247  20657918.396    20657918.8574   20657923.6534
        49.6004         46.6004
   2938087.57742   2304033.67745  24690791.626    24690788.6444   24690791.6624
        35.9004         34.1004
   3955159.82342   3095515.32445  24740342.625    24740342.0134   24740343.3054
        36.4004         34.6004
 -21093813.15646 -16153218.41947  20887490.537    20887490.5604   20887490.8494
        48.6004         45.9004
  -9760308.80845  -7581250.35646  22636162.680    22636162.7604   22636168.1354
        43.9004         41.2004
  -1857137.71543  -1428291.84346  23759851.360    23759849.4724   23759851.2114
        38.5004         36.2004
  -3322384.52943  -2572938.22246  23429698.347    23429697.3954   23429698.2344
        40.3004         37.8004
 -21956852.91247 -17085488.07047  20197051.236    20197051.4984   20197055.6524
        50.7004         47.8004
 16  6 10  1 22  0.0000000  0  9G19G 6G22G17G23G 3G 7G 2G 9
  -5488505.33744  -4243256.45046  23927829.098    23927828.3254   23927829.7984
        40.8004         37.9004
 -12680505.83447  -9867751.17047  20655805.520    20655805.9314   20655810.4534
        49.6004         46.8004
   3031878.70242   2377117.69345  24708634.730    24708636.8864   24708639.2014
        36.3004         34.5004
   4053705.54742   3172304.17145  24759096.829    24759096.2214   24759096.2344
        36.1004         34.3004
 -21057383.13346 -16124831.38047  20894423.074    20894422.7614   20894423.2444
        48.6004         45.8004
  -9677918.83745  -7517050.38346  22651840.561    22651840.8384   22651846.3754
        43.9004         41.1004
  -1962324.78143  -1510255.76846  23739835.246    23739834.7234   23739834.9134
        38.7004         36.4004
  -3410165.18943  -2641338.71646  23412993.286    23412992.5414   23412994.7114
        40.3004         37.8004
 -21972702.40447 -17097838.32147  20194035.125    20194035.5484   20194039.5994
        50.7004         47.8004
 16  6 10  1 22 30.0000000  0  9G19G 6G22G17G23G 3G 7G 2G 9
  -5397651.09343  -4172460.95546  23945116.902    23945116.6594   23945119.6294
        40.4004         37.8004
 -12691022.91547  -9875946.29447  20653803.897    20653804.3944   20653809.3014
        49.6004         46.8004
   3125754.97442   2450268.04045  24726501.166    24726501.6664   24726502.5734
        35.9004         34.1004
   4152291.92342   3249124.69545  24777854.300    24777855.3614   24777856.9064
        36.4004         34.6004
 -21020572.64746 -16096147.88947  20901427.499    20901427.7064   20901428.0174
        48.6004         45.8004
  -9595328.03245  -7452693.93246  22667558.101    22667557.8244   22667563.1244
        43.9004         41.2004
  -2067394.55143  -1592128.28346  23719839.473    23719839.3314   23719841.5034
        38.7004         36.4004
  -3497685.24843  -2709536.15146  23396339.034    23396338.6274   23396340.0454
        40.3004         37.9004
 -21988076.38647 -17109818.04548  20191110.158    20191109.9974   20191114.0894
        50.7004         48.0004
 16  6 10  1 23  0.0000000  0  9G19G 6G22G17G23G 3G 7G 2G 9
  -5306549.47544  -4101472.68746  23962455.030    23962453.2034   23962456.3884
        40.8004         38.3004
 -12700953.42847  -9883684.35347  20651914.489    20651915.0344   20651919.6334
        49.6004         46.8004
   3219715.88442   2523484.31945  24744381.625    24744379.9164   24744384.0814
        35.7004         34.0004
   4250915.24242   3325974.05545  24796620.372    24796622.3604   24796629.2904
        36.8004         34.8004
 -20983382.95946 -16067168.90947  20908505.481    20908504.9544   20908504.6904
        48.6004         45.9004
  -9512537.19345  -7388181.60046  22683311.416    22683311.8784   22683317.4534
        43.9004         41.1004
  -2172344.72543  -1673907.59246  23699865.167    23699866.2654   23699870.0824
        38.5004         36.0004
  -3584942.47743  -2777528.79246  23379734.168    23379734.0024   23379734.8384
        40.4004         38.1004
 -22002975.15847 -17121427.47348  20188274.825    20188274.7974   20188279.1764
        50.8004         48.0004
 16  6 10  1 23 30.0000000  0  9G19G 6G22G17G23G 3G 7G 2G 9
  -5215203.56743  -4030294.09146  23979836.935    23979835.5154   23979837.6044
        40.4004         37.8004
 -12710296.62747  -9890964.77247  20650136.652    20650137.2594   20650141.5894
        49.6004         46.8004
   3313760.34042   2596765.72245  24762277.117    24762274.7164   24762279.7134
        35.7004         34.0004
   4349572.87342   3402850.12345  24815394.962    24815396.0204   24815398.8274
        36.4004         34.6004
 -20945815.37046 -16037895.46447  20915653.689    20915653.6514   20915653.9274
        48.6004         45.8004
  -9429547.02245  -7323513.95546  22699106.650    22699105.9284   22699110.6564
        44.1004         41.4004
  -2277172.71443  -1755591.75846  23679917.073    23679919.6134   23679923.4754
        38.5004         36.4004
  -3671934.64844  -2845314.88746  23363180.328    23363180.0564   23363181.9024
        40.9004         38.6004
 -22017399.00247 -17132666.83048  20185529.428    20185529.6754   20185534.5814
        50.8004         48.0004
 16  6 10  1 24  0.0000000  0  9G19G 6G22G17G23G 3G 7G 2G 9
  -5123616.46443  -3958927.51546  23997264.246    23997263.0774   23997266.2644
        40.1004         37.6004
 -12719051.75947  -9897786.95047  20648470.187    20648470.5884   20648475.9194
        49.6004         46.6004
   3407888.04642   2670112.01745  24780192.913    24780188.2334   24780191.1174
        35.7004         34.1004
   4448262.47642   3479751.05945  24834175.684    24834176.1844   24834179.3384
        35.9004         34.0004
 -20907871.17346 -16008328.55247  20922874.556    20922874.2224   20922874.2074
        48.6004         45.8004
  -9346358.30245  -7258691.59746  22714935.135    22714936.0854   22714940.5014
        43.9004         41.1004
  -2381875.29543  -1837178.16646  23659991.446    23659994.8914   23659998.5974
        38.7004         36.4004
  -3758658.99144  -2912892.27546  23346677.756    23346676.7334   23346678.4734
        41.3004         39.0004
 -22031348.25447 -17143536.36948  20182875.199    20182875.3804   20182880.1714
        50.8004         48.0004
 16  6 10  1 24 30.0000000  0  9G19G 6G22G17G23G 3G 7G 2G 9
  -5031791.65943  -3887375.71346  24014738.569    24014737.1734   24014739.9634
        40.3004         37.6004
 -12727218.07746  -9904150.31647  20646916.061    20646916.3914   20646921.7554
        49.5004         46.6004
   3502097.97842   2743522.29145  24798115.534    24798111.7284   24798118.2694
        35.0004         33.4004
   4546980.48942   3556674.15545  24852961.872    24852962.9864   24852964.1644
        35.7004         34.0004
 -20869551.70546 -15978469.22547  20930166.348    20930166.2484   20930166.2754
        48.6004         45.6004
  -9262971.75645  -7193715.07746  22730803.401    22730803.3574   22730808.2874
        43.7004         40.9004
  -2486450.15543  -1918665.06946  23640094.108    23640095.1744   23640098.3154
        38.9004         36.7004
  -3845113.31244  -2980259.25446  23330224.223    23330224.2124   23330226.4564
        41.8004         39.3004
 -22044823.24147 -17154036.34748  20180311.017    20180311.1504   20180315.9304
        50.8004         48.2004
 16  6 10  1 25  0.0000000  0  9G19G 6G22G17G23G 3G 7G 2G 9
  -4939732.16243  -3815641.05246  24032258.283    24032256.7724   24032256.9614
        40.3004         37.6004
 -12734794.88346  -9910054.31847  20645473.863    20645474.4274   20645480.1194
        49.5004         46.8004
   3596389.50142   2816996.17045  24816059.056    24816060.5024   24816062.2074
        35.0004         33.6004
   4645724.13942   3633617.25945  24871754.136    24871753.7724   24871752.0474
        35.7004         34.1004
 -20830858.24746 -15948318.47747  20937530.135    20937529.5044   20937529.4574
        48.6004         45.8004
  -9179388.17845  -7128585.02846  22746707.353    22746707.6884   22746713.5374
        43.6004         40.7004
  -2590894.70743  -2000050.41946  23620220.528    23620219.8404   23620223.0264
        39.2004         36.9004
  -3931295.46644  -3047414.16246  23313825.731    23313825.1794   23313826.3474
        42.5004         40.2004
 -22057824.30247 -17164167.03248  20177837.015    20177837.2024   20177841.8214
        50.8004         48.2004
 16  6 10  1 25 30.0000000  0  9G19G 6G22G17G23G 3G 7G 2G 9
  -4847441.28843  -3743726.08646  24049819.158    24049818.3094   24049819.9584
        39.9004         37.4004
 -12741781.51047  -9915498.44247  20644144.596    20644145.4714   20644150.8374
        49.6004         46.8004
   3690761.80742   2890533.07045  24834021.110    24834017.6264   24834017.6144
        34.9004         33.4004
   4744490.22742   3710577.85945  24890548.155    24890548.1204   24890551.5134
        35.7004         33.8004
 -20791792.07846 -15917877.31447  20944963.516    20944963.1634   20944963.3404
        48.4004         45.6004
  -9095608.29944  -7063302.01546  22762649.862    22762650.2394   22762656.6524
        43.4004         40.6004
  -2695206.16543  -2081332.06846  23600369.915    23600368.9444   23600373.6974
        39.2004         36.9004
  -4017202.92044  -3114355.01246  23297478.207    23297477.7564   23297478.3864
        43.0004         40.6004
 -22070351.78247 -17173928.69948  20175453.426    20175453.5354   20175458.0874
        51.0004         48.2004
 16  6 10  1 26  0.0000000  0  9G19G 6G22G17G23G 3G 7G 2G 9
  -4754922.56443  -3671633.56146  24067424.488    24067423.8364   24067426.1144
        40.1004         37.6004
 -12748177.27347  -9920482.16347  20642927.855    20642928.0064   20642933.5944
        49.6004         46.8004
   3785214.17342   2964132.31745  24851987.758    24851990.3004   24851994.1454
        34.7004         33.3004
   4843275.88642   3787553.65345  24909345.653    24909347.9004   24909347.7664
        35.0004         33.4004
 -20752354.54146 -15887146.76947  20952468.450    20952467.9974   20952467.7914
        48.4004         45.6004
  -9011632.85844  -6997866.63746  22778629.838    22778630.7404   22778636.3164
        43.2004         40.4004
  -2799382.02043  -2162508.06146  23580545.539    23580546.2374   23580549.7014
        39.6004         37.3004
  -4102833.32845  -3181079.98446  23281182.621    23281182.6214   23281183.2404
        43.6004         41.1004
 -22082406.07747 -17183321.64848  20173159.477    20173159.4324   20173164.1044
        51.0004         48.0004
 16  6 10  1 26 30.0000000  0  9G19G 6G22G17G23G 3G 7G 2G 9
  -4662178.03543  -3599365.12346  24085073.953    24085073.9234   24085073.8404
        39.9004         37.4004
 -12753981.56747  -9925004.98947  20641822.681    20641823.4984   20641828.8144
        49.6004         46.8004
   3879746.52052   3037793.85755  24869978.751    24869979.4104   24869982.2334
        34.7004         33.6004
   4942078.78042   3864542.90445  24928146.044    24928147.7204   24928147.0554
        34.5004         33.1004
 -20712547.03046 -15856127.93447  20960043.434    20960043.0664   20960042.9224
        48.4004         45.4004
  -8927462.67844  -6932279.50046  22794648.304    22794648.7104   22794654.0164
        43.2004         40.6004
  -2903419.29543  -2243576.05446  23560749.947    23560748.4494   23560751.5654
        39.7004         37.4004
  -4188184.14245  -3247587.08946  23264941.678    23264941.0874   23264941.8134
        44.1004         41.4004
 -22093987.55547 -17192346.17648  20170955.409    20170955.4444   20170960.2064
        50.8004         48.0004
 16  6 10  1 27  0.0000000  0  9G19G 6G22G17G23G 3G 7G 2G 9
  -4569211.51743  -3526923.70946  24102764.135    24102763.0984   24102766.2434
        39.6004         37.1004
 -12759193.74647  -9929066.43247  20640831.930    20640832.3064   20640836.9164
        49.8004         47.2004
   3974357.53142   3111516.62445  24887989.280    24887985.7904   24887982.9444
        34.5004         32.9004
   5040895.32442   3941542.80245  24946950.870    24946950.3764   24946955.2904
        34.5004         33.3004
 -20672371.14046 -15824822.04547  20967688.681    20967687.9624   20967688.3724
        48.2004         45.4004
  -8843098.45744  -6866541.16846  22810702.484    22810702.6644   22810707.9064
        43.2004         40.6004
  -3007315.60643  -2324534.19646  23540978.465    23540977.8614   23540980.6484
        39.9004         37.4004
  -4273253.23245  -3313874.67346  23248753.972    23248753.0414   23248753.4654
        44.1004         41.4004
 -22105096.60347 -17201002.57348  20168841.639    20168841.5934   20168846.0574
        50.8004         48.0004
 16  6 10  1 27 30.0000000  0  9G19G 6G22G17G23G 3G 7G 2G 9
  -4476026.75043  -3454312.20146  24120496.245    24120496.6494   24120497.8714
        39.7004         37.4004
 -12763813.22847  -9932666.03247  20639952.291    20639952.9714   20639958.2574
        50.0004         47.3004
   4069046.71441   3185300.35545  24906001.608    24906006.8694   24906000.7554
        34.3004         33.1004
   5139722.65342   4018551.15345  24965754.398    24965752.8994   24965759.0684
        34.5004         32.9004
 -20631827.98246 -15793229.97247  20975403.300    20975403.4054   20975403.6244
        48.2004         45.4004
  -8758541.00344  -6800652.25246  22826792.273    22826792.9784   22826798.6574
        43.2004         40.4004
  -3111068.43643  -2405380.55746  23521234.943    23521234.4774   23521237.5604
        40.1004         37.6004
  -4358038.19345  -3379940.85146  23232620.532    23232619.4204   23232619.4404
        44.2004         41.6004
 -22115733.64747 -17209291.17248  20166817.386    20166817.2914   20166821.8134
        50.8004         48.0004
 16  6 10  1 28  0.0000000  0  9G19G 6G22G17G23G 3G 7G 2G 9
  -4382626.68543  -3381532.96346  24138272.886    24138270.1424   24138270.7834
        39.7004         37.3004
 -12767839.43347  -9935803.32847  20639186.057    20639186.6334   20639191.7914
        50.0004         47.2004
   4163813.06942   3259144.31345  24924036.736    24924037.9814   24924040.7504
        34.9004         33.6004
   5238557.61441   4095565.48845  24984564.054    24984569.6944   24984567.0834
        33.7004         32.6004
 -20590918.79346 -15761352.68147  20983188.577    20983188.1314   20983188.3944
        48.2004         45.6004
  -8673791.06644  -6734613.35046  22842919.747    22842920.9324   22842925.6934
        43.2004         40.4004
  -3214674.76343  -2486112.75146  23501517.978    23501518.7404   23501521.6184
        40.4004         38.1004
  -4442536.77845  -3445783.87546  23216540.220    23216539.6204   23216540.3114
        44.2004         41.4004
 -22125899.07847 -17217212.28548  20164882.568    20164882.7854   20164887.6054
        50.7004         48.0004
 16  6 10  1 28 30.0000000  0  9G19G 6G22G17G23G 3G 7G 2G 9
  -4289014.27843  -3308588.21546  24156084.447    24156083.4014   24156084.5884
        39.4004         36.9004
 -12771271.84047  -9938477.93447  20638533.666    20638533.9404   20638538.7274
        50.0004         47.2004
   4258655.82442   3333047.77545  24942090.357    24942087.6164   24942086.4964
        35.0004         33.6004
   5337397.64041   4172583.68745  25003375.329    25003373.4794   25003375.6694
        33.5004         32.6004
 -20549645.00046 -15729191.28647  20991042.316    20991042.2744   20991042.5554
        48.4004         45.6004
  -8588849.39344  -6668425.06146  22859084.653    22859084.6934   22859089.3284
        43.2004         40.4004
  -3318132.67744  -2566729.30046  23481830.993    23481831.1694   23481834.1314
        40.6004         38.1004
  -4526746.47845  -3511401.79846  23200516.427    23200515.3644   23200516.2084
        44.4004         41.8004
 -22135593.34247 -17224766.24948  20163037.847    20163038.1594   20163042.7374
        50.8004         48.0004
 16  6 10  1 29  0.0000000  0  9G19G 6G22G17G23G 3G 7G 2G 9
  -4195192.67143  -3235480.46346  24173939.272    24173937.7484   24173939.1404
        39.6004         37.3004
 -12774109.90647  -9940689.41047  20637992.804    20637993.5754   20637998.3584
        50.0004         47.2004
   4353574.73842   3407010.51245  24960150.204    24960147.7724   24960151.1324
        35.7004         34.3004
   5436239.74041   4249603.44845  25022182.870    25022184.3984   25022180.0144
        33.1004         32.0004
 -20508008.13046 -15696746.96547  20998965.743    20998965.8164   20998966.1454
        48.4004         45.6004
  -8503716.78844  -6602087.97046  22875284.167    22875284.3534   22875290.0574
        43.0004         40.6004
  -3421438.99244  -2647227.74446  23462173.569    23462173.8574   23462175.8334
        40.9004         38.5004
  -4610664.98345  -3576792.81346  23184546.716    23184545.7224   23184546.4954
        44.4004         41.6004
 -22144816.87547 -17231953.40648  20161283.087    20161282.8864   20161287.3764
        50.8004         48.2004
 16  6 10  1 29 30.0000000  0  9G19G 6G22G17G23G 3G 7G 2G 9
  -4101164.84443  -3162212.07346  24191831.594    24191830.3094   24191832.4674
        39.0004         36.6004
 -12776353.08147  -9942437.33747  20637566.604    20637567.3044   20637571.5944
        50.0004         47.2004
   4448568.72642   3481031.82945  24978224.359    24978225.3534   24978227.6254
        36.1004         34.3004
   5535080.88141   4326622.50845  25040992.763    25040985.8984   25040991.0304
        33.0004         32.4004
 -20466009.49446 -15664020.75647  21006958.816    21006958.0184   21006957.5354
        48.4004         45.6004
  -8418393.97644  -6535602.67546  22891519.959    22891521.5624   22891525.9854
        43.2004         40.6004
  -3524590.77844  -2727605.74046  23442543.889    23442544.0604   23442546.7054
        41.1004         38.6004
  -4694289.54145  -3641954.77846  23168632.735    23168632.2374   23168633.0744
        44.4004         41.8004
 -22153570.14547 -17238774.13448  20159617.171    20159617.2494   20159621.9864
        50.8004         48.2004
 16  6 10  1 30  0.0000000  0  9G19G 6G22G17G23G 3G 7G 2G 9
  -4006934.59543  -3088785.91046  24209761.806    24209759.7374   24209763.2074
        38.9004         36.4004
 -12778000.94047  -9943721.38347  20637252.805    20637253.3004   20637258.1924
        50.0004         47.2004
   4543636.90342   3555110.95845  24996315.933    24996314.7504   24996319.4434
        36.1004         34.3004
   5633918.39041   4403638.75845  25059799.482    25059799.7334   25059800.5244
        33.7004         32.6004
 -20423650.41046 -15631013.68147  21015019.143    21015018.5504   21015018.3704
        48.4004         45.6004
  -8332881.74844  -6468969.80146  22907793.703    22907793.6174   22907798.1724
        43.2004         40.4004
  -3627586.06944  -2807861.81146  23422944.819    23422945.3414   23422947.2324
        41.1004         38.5004
  -4777618.03045  -3706886.04646  23152776.752    23152775.6624   23152776.3664
        44.6004         41.8004
 -22161853.58347 -17245228.76048  20158041.040    20158041.2694   20158045.7024
        50.8004         48.2004
 16  6 10  1 30 30.0000000  0  9G19G 6G22G17G23G 3G 7G 2G 9
  -3912504.64443  -3015204.16746  24227733.067    24227731.5364   24227732.7684
        38.7004         36.2004
 -12779053.00047  -9944541.16847  20637052.372    20637052.6854   20637057.8734
        49.8004         47.0004
   4638778.82542   3629247.48945  25014420.186    25014420.4854   25014422.3544
        36.3004         34.3004
   5732749.23941   4480649.76045  25078606.911    25078605.3054   25078607.8924
        33.5004         32.0004
 -20380931.98946 -15597726.59447  21023148.081    21023147.4024   21023147.8604
        48.4004         45.6004
  -8247180.88044  -6402189.91846  22924102.365    22924102.0154   22924106.8324
        43.2004         40.6004
  -3730422.01244  -2887993.70346  23403374.262    23403374.6034   23403377.5274
        41.1004         38.5004
  -4860648.36245  -3771584.97946  23136976.154    23136975.5214   23136976.6634
        44.6004         41.8004
 -22169667.67247 -17251317.65548  20156554.229    20156554.1434   20156558.8464
        51.0004         48.2004
 16  6 10  1 31  0.0000000  0  9G19G 6G22G17G23G 3G 7G 2G 9
  -3817878.29543  -2941469.37345  24245737.042    24245736.5064   24245738.9004
        38.3004         35.9004
 -12779508.82447  -9944896.35947  20636965.156    20636965.7034   20636970.9574
        49.6004         46.8004
   4733994.00342   3703441.12445  25032539.990    25032538.1364   25032540.4934
        36.1004         34.3004
   5831570.33441   4557653.16645  25097414.105    25097411.1764   25097414.1694
        33.5004         32.6004
 -20337855.90446 -15564160.81447  21031344.747    21031344.7144   21031345.1834
        48.4004         45.6004
  -8161292.12544  -6335263.62646  22940445.159    22940445.9074   22940450.3354
        43.0004         40.4004
  -3833095.47644  -2967998.98746  23383836.762    23383837.5704   23383840.0124
        40.9004         38.3004
  -4943377.98445  -3836049.60646  23121233.162    23121233.5344   23121233.1944
        44.4004         41.6004
 -22177012.93447 -17257041.23548  20155156.443    20155156.4154   20155160.9984
        51.0004         48.2004
 16  6 10  1 31 30.0000000  0  8G19G 6G22G23G 3G 7G 2G 9
  -3723058.76743  -2867584.08545  24263783.033    24263781.0344   24263781.8574
        38.2004         35.9004
 -12779367.99247  -9944786.62947  20636992.859    20636993.0964   20636997.8094
        49.6004         46.8004
   4829281.41442   3777691.05545  25050672.545    25050671.8844   25050673.9804
        35.7004         34.0004
 -20294423.51146 -15530317.38047  21039609.348    21039608.9484   21039609.9634
        48.4004         45.4004
  -8075216.26344  -6268191.54446  22956826.501    22956826.9304   22956830.9504
        43.2004         40.6004
  -3935604.12944  -3047875.83846  23364330.088    23364330.2264   23364332.8054
        40.8004         38.3004
  -5025804.39845  -3900277.95846  23105548.151    23105547.1274   23105548.0364
        44.2004         41.1004
 -22183889.83547 -17262399.85148  20153847.841    20153847.7984   20153852.2194
        51.0004         48.2004
 16  6 10  1 32  0.0000000  0  8G19G 6G22G23G 3G 7G 2G 9
  -3628049.32543  -2793550.72945  24281861.120    24281859.9744   24281862.6244
        38.2004         35.9004
 -12778630.11647  -9944211.67147  20637132.807    20637133.4864   20637138.3154
        49.6004         47.0004
   4924640.22642   3851996.62945  25068815.816    25068817.2744   25068818.5894
        35.7004         34.0004
 -20250636.22646 -15496197.41447  21047942.140    21047941.6114   21047942.2194
        48.4004         45.6004
  -7988954.03544  -6200974.23346  22973240.979    22973241.1234   22973245.9054
        43.0004         40.2004
  -4037945.25544  -3127622.15946  23344854.428    23344854.9824   23344858.0654
        40.8004         38.1004
  -5107925.27045  -3964268.22046  23089921.136    23089919.4554   23089920.9234
        43.7004         40.6004
 -22190298.89347 -17267393.91648  20152627.985    20152627.7224   20152632.5584
        50.8004         48.0004
 16  6 10  1 32 30.0000000  0  8G19G 6G22G23G 3G 7G 2G 9
  -3532853.08943  -2719371.87145  24299977.618    24299975.5814   24299977.3284
        38.2004         35.9004
 -12777294.83547  -9943171.19347  20637387.081    20637387.3094   20637392.5794
        49.6004         46.8004
   5020069.84842   3926357.36645  25086979.338    25086976.6184   25086979.0894
        36.3004         34.6004
 -20206495.31046 -15461801.89247  21056342.040    21056341.6194   21056341.6624
        48.4004         45.4004
  -7902506.31144  -6133612.35746  22989690.959    22989691.5594   22989696.2314
        43.0004         40.2004
  -4140116.51744  -3207236.12446  23325411.201    23325413.6724   23325415.8514
        40.8004         38.5004
  -5189738.38544  -4028018.66446  23074351.680    23074351.0104   23074352.1654
        43.4004         40.7004
 -22196240.63547 -17272023.84248  20151497.055    20151497.3214   20151501.9994
        50.8004         48.0004
 16  6 10  1 33  0.0000000  0  7G19G 6G23G 3G 7G 2G 9
  -3437473.22043  -2645049.90345  24318128.000    24318126.3034   24318128.7964
        38.0004         35.7004
 -12775361.77347  -9941664.91747  20637754.511    20637754.7064   20637760.0554
        49.6004         46.6004
 -20162002.19246 -15427131.93647  21064808.846    21064808.4294   21064808.5614
        48.4004         45.6004
  -7815873.78544  -6066106.50646  23006176.194    23006177.0044   23006181.5854
        42.9004         40.0004
  -4242115.51744  -3286715.85646  23306002.579    23306003.2684   23306005.4434
        40.8004         38.3004
  -5271241.47044  -4091527.53246  23058842.562    23058841.3794   23058842.9504
        43.0004         40.2004
 -22201715.59747 -17276290.03948  20150455.626    20150455.6344   20150460.1024
        50.8004         48.2004
 16  6 10  1 33 30.0000000  0  7G19G 6G23G 3G 7G 2G 9
  -3341913.18042  -2570587.52845  24336310.696    24336310.3654   24336311.2284
        37.5004         35.2004
 -12772830.64946  -9939692.62247  20638236.117    20638236.7264   20638241.9004
        49.5004         46.6004
 -20117158.30846 -15392188.64647  21073342.344    21073342.0014   21073341.7924
        48.4004         45.6004
  -7729057.24344  -5998457.25746  23022698.207    23022698.4894   23022701.5864
        42.7004         40.0004
  -4343938.79944  -3366058.68046  23286626.914    23286627.4204   23286628.8444
        40.8004         38.1004
  -5352431.83944  -4154792.72546  23043392.594    23043391.8114   23043392.4884
        42.9004         39.9004
 -22206724.30747 -17280192.92748  20149502.656    20149502.6174   20149506.7794
        51.0004         48.2004
 16  6 10  1 34  0.0000000  0  7G19G 6G23G 3G 7G 2G 9
  -3246175.77142  -2495986.96045  24354531.990    24354529.2114   24354531.0274
        37.3004         35.3004
 -12769701.13146  -9937254.03547  20638832.069    20638832.3134   20638837.5614
        49.5004         46.8004
 -20071964.84946 -15356972.96747  21081941.902    21081942.0584   21081941.9984
        48.4004         45.4004
  -7642057.49344  -5930665.25846  23039253.681    23039253.6584   23039257.3504
        42.7004         39.9004
  -4445584.14644  -3445262.83746  23267284.147    23267283.9244   23267286.0044
        40.8004         38.3004
  -5433307.15044  -4217812.44046  23028002.861    23028001.4704   23028002.0764
        42.9004         40.2004
 -22211267.35747 -17283732.96348  20148638.438    20148638.2064   20148642.3114
        51.0004         48.2004
 16  6 10  1 34 30.0000000  0  7G19G 6G23G 3G 7G 2G 9
  -3150264.35643  -2421250.80646  24372781.872    24372781.5874   24372782.1524
        38.2004         36.0004
 -12765972.96247  -9934348.96847  20639541.448    20639542.0014   20639546.8784
        49.6004         46.8004
 -20026423.40346 -15321486.12847  21090608.070    21090608.1294   21090608.0814
        48.4004         45.4004
  -7554875.30744  -5862731.10046  23055841.774    23055842.8384   23055847.6094
        42.5004         39.7004
  -4547049.00444  -3524326.36046  23247976.470    23247976.0954   23247977.4254
        40.6004         38.1004
  -5513865.27644  -4280584.99646  23012672.423    23012672.2314   23012672.2444
        42.9004         40.2004
 -22215345.27447 -17286910.56148  20147861.831    20147862.0414   20147866.2964
        51.0004         48.2004
 16  6 10  1 35  0.0000000  0  7G19G 6G23G 3G 7G 2G 9
  -3054182.17643  -2346381.61846  24391066.258    24391064.8364   24391065.5084
        38.3004         36.2004
 -12761645.87447  -9930977.21047  20640364.620    20640365.2754   20640370.2924
        49.6004         46.8004
 -19980535.24246 -15285729.11547  21099340.722    21099340.6824   21099340.6954
        48.4004         45.4004
  -7467511.43044  -5794655.37446  23072467.852    23072468.1224   23072472.8784
        42.3004         39.9004
  -4648330.52844  -3603247.02946  23228702.345    23228702.7074   23228704.2384
        40.8004         38.5004
  -5594103.83244  -4343108.52146  22997403.520    22997403.1774   22997403.7934
        42.9004         40.0004
 -22218958.66247 -17289726.18448  20147174.138    20147174.2234   20147178.5704
        50.8004         48.0004
 16  6 10  1 35 30.0000000  0  7G19G 6G23G 3G 7G 2G 9
  -2957932.16643  -2271381.63846  24409381.580    24409380.0744   24409382.2144
        38.3004         36.0004
 -12756719.62847  -9927138.58047  20641301.854    20641302.7054   20641307.6344
        49.6004         46.8004
 -19934301.89946 -15249703.13447  21108138.723    21108138.0894   21108138.3104
        48.4004         45.4004
  -7379966.70644  -5726438.70446  23089125.646    23089126.4274   23089132.8884
        42.5004         39.7004
  -4749426.04844  -3682022.75546  23209465.216    23209465.6974   23209466.9164
        40.9004         38.5004
  -5674020.37844  -4405381.13746  22982196.027    22982195.4784   22982196.2184
        42.7004         40.0004
 -22222108.10747 -17292180.29848  20146575.099    20146575.0324   20146579.4774
        51.0004         48.2004
 16  6 10  1 36  0.0000000  0  7G19G 6G23G 3G 7G 2G 9
  -2861517.44843  -2196253.32246  24427726.916    24427726.8924   24427728.9274
        38.5004         36.4004
 -12751194.04047  -9922832.92647  20642353.981    20642354.3014   20642359.3944
        49.6004         47.0004
 -19887724.84346 -15213409.32347  21117001.614    21117001.3844   21117001.8444
        48.2004         45.4004
  -7292241.88744  -5658081.71346  23105820.355    23105820.7774   23105826.1864
        42.5004         40.0004
  -4850333.01144  -3760651.55546  23190264.145    23190264.1544   23190265.0914
        41.1004         38.8004
  -5753612.73744  -4467401.13846  22967050.118    22967049.5474   22967050.0144
        42.9004         40.4004
 -22224794.19247 -17294273.34348  20146063.837    20146063.8654   20146068.2894
        51.0004         48.2004
 16  6 10  1 36 30.0000000  0  7G19G 6G23G 3G 7G 2G 9
  -2764941.61643  -2120999.43946  24446108.461    24446107.2824   24446106.9504
        39.0004         36.7004
 -12745068.90047  -9918060.08847  20643519.391    20643519.8934   20643524.7344
        49.8004         47.0004
 -19840805.18646 -15176848.54747  21125931.256    21125930.6344   21125930.5294
        48.4004         45.6004
  -7204337.78544  -5589585.02546  23122548.920    23122548.7584   23122554.3264
        42.5004         40.0004
  -4951048.87744  -3839131.44046  23171097.722    23171097.2844   23171098.7954
        41.5004         39.0004
  -5832878.36744  -4529166.55246  22951966.380    22951965.2574   22951966.9654
        43.2004         40.7004
 -22227017.56247 -17296005.83348  20145640.753    20145640.8334   20145645.2744
        51.0004         48.2004
 16  6 10  1 37  0.0000000  0  7G19G 6G23G 3G 7G 2G 9
  -2668207.54843  -2045622.29646  24464513.326    24464513.3544   24464514.1874
        38.7004         36.2004
 -12738344.07547  -9912819.96647  20644798.996    20644799.4804   20644804.5434
        49.8004         47.0004
 -19793544.50946 -15140022.05547  21134924.058    21134923.8234   21134923.6384
        48.4004         45.6004
  -7116255.17544  -5520949.22746  23139310.070    23139309.9974   23139315.1034
        42.7004         39.9004
  -5051571.11944  -3917460.44146  23151969.857    23151969.8024   23151971.3414
        41.6004         39.2004
  -5911814.83744  -4590675.48246  22936945.084    22936944.6784   22936945.0614
        43.4004         40.7004
 -22228778.82147 -17297378.23348  20145305.934    20145305.7604   20145309.9944
        51.0004         48.2004
 16  6 10  1 37 30.0000000  0  7G19G 6G23G 3G 7G 2G 9
  -2571318.60043  -1970124.43745  24482950.589    24482951.3564   24482952.8904
        38.2004         35.9004
 -12731019.39547  -9907112.42147  20646192.934    20646193.0334   20646198.3694
        49.6004         46.8004
 -19745944.18346 -15102930.89047  21143981.602    21143981.5554   21143981.6334
        48.4004         45.4004
  -7027994.83544  -5452174.96146  23156105.559    23156105.6024   23156110.2264
        42.5004         39.9004
  -5151897.11944  -3995636.52146  23132879.560    23132877.6084   23132880.3774
        42.0004         39.3004
  -5990419.98944  -4651926.23546  22921987.022    22921986.9184   22921986.9514
        43.4004         40.7004
 -22230078.58947 -17298391.03548  20145058.651    20145058.4774   20145062.6304
        51.0004         48.2004
 16  6 10  1 38  0.0000000  0  7G19G 6G23G 3G 7G 2G 9
  -2474277.77643  -1894508.26946  24501418.412    24501417.3774   24501417.8174
        38.3004         36.0004
 -12723094.75547  -9900937.38647  20647701.129    20647701.6234   20647706.4104
        49.6004         47.0004
 -19698005.77546 -15065576.28847  21153104.653    21153103.8364   21153104.0074
        48.2004         45.4004
  -6939557.59944  -5383262.82346  23172934.372    23172934.5584   23172939.3994
        42.5004         39.9004
  -5252023.91044  -4073657.38346  23113823.074    23113824.0254   23113826.7264
        42.0004         39.5004
  -6068691.47244  -4712916.98246  22907091.606    22907091.1644   22907092.0474
        43.4004         40.6004
 -22230917.52247 -17299044.75048  20144898.558    20144898.8194   20144902.8734
        51.0004         48.2004
 16  6 10  1 38 30.0000000  0  7G19G 6G23G 3G 7G 2G 9
  -2377088.15443  -1818776.13046  24519912.775    24519912.4974   24519913.5574
        38.3004         36.0004
 -12714570.05647  -9894294.76247  20649322.709    20649323.6434   20649329.2544
        49.8004         47.2004
 -19649730.38846 -15027959.10347  21162290.742    21162290.3344   21162290.6774
        48.2004         45.4004
  -6850944.22144  -5314213.44746  23189796.660    23189797.6194   23189802.3594
        42.3004         39.7004
  -5351949.28544  -4151521.28646  23094808.702    23094808.6624   23094811.9314
        42.2004         39.5004
  -6146626.92544  -4773645.91446  22892261.519    22892261.2464   22892261.5124
        43.2004         40.6004
 -22231296.26047 -17299339.87348  20144826.234    20144826.4014   20144830.6294
        51.0004         48.2004
 16  6 10  1 39  0.0000000  0  7G19G 6G23G 3G 7G 2G 9
  -2279753.04843  -1742930.64145  24538434.985    24538435.4804   24538436.3544
        38.0004         35.7004
 -12705445.26047  -9887184.53247  20651059.490    20651060.3194   20651065.3614
        49.8004         47.0004
 -19601119.55246 -14990080.52947  21171540.781    21171540.5224   21171540.8294
        48.2004         45.2004
  -6762155.53444  -5245027.46246  23206692.259    23206693.5054   23206697.9824
        42.3004         39.5004
  -5451670.07944  -4229225.77146  23075832.605    23075832.4314   23075835.8394
        42.3004         39.9004
  -6224223.74244  -4834110.94646  22877495.938    22877495.0304   22877495.8334
        43.2004         40.7004
 -22231215.49347 -17299276.93648  20144841.903    20144841.7774   20144846.1094
        50.8004         48.0004
 16  6 10  1 39 30.0000000  0  7G19G 6G23G 3G 7G 2G 9
  -2182275.75643  -1666974.36245  24556984.123    24556982.6494   24556985.7864
        37.8004         35.7004
 -12695720.28847  -9879606.64147  20652910.548    20652910.5954   20652915.7294
        49.8004         47.0004
 -19552174.64146 -14951941.64247  21180855.161    21180854.5904   21180854.7244
        48.1004         45.2004
  -6673192.25644  -5175705.43646  23223622.946    23223622.5594   23223627.0064
        42.0004         39.3004
  -5551183.92444  -4306769.00946  23056895.280    23056895.5294   23056898.3714
        42.5004         39.9004
  -6301479.90744  -4894310.54446  22862794.381    22862794.0914   22862794.3584
        43.4004         40.7004
 -22230675.89847 -17298856.46948  20144944.685    20144944.8144   20144948.8274
        51.0004         48.2004
 16  6 10  1 40  0.0000000  0  7G19G 6G23G 3G 7G 2G 9
  -2084659.31743  -1590909.67145  24575559.704    24575558.7864   24575561.0764
        38.2004         35.9004
 -12685395.14647  -9871561.07747  20654874.767    20654875.3524   20654880.4264
        49.8004         47.0004
 -19502897.23846 -14913543.66647  21190233.204    21190232.4444   21190231.8954
        48.2004         45.4004
  -6584055.28544  -5106248.06246  23240582.269    23240583.6894   23240588.9244
        41.8004         39.0004
  -5650488.28444  -4384149.00246  23037998.559    23037998.9994   23038001.5634
        42.7004         40.0004
  -6378392.85745  -4954242.70746  22848157.776    22848157.6454   22848158.2324
        43.6004         40.9004
 -22229678.14547 -17298078.99248  20145134.675    20145134.4474   20145138.6354
        50.8004         48.2004
 16  6 10  1 40 30.0000000  0  7G19G 6G23G 3G 7G 2G 9
  -1986906.81043  -1514738.94545  24594161.840    24594161.2294   24594162.2514
        38.0004         35.9004
 -12674469.82847  -9863047.84347  20656953.128    20656953.9974   20656959.6214
        49.6004         46.8004
 -19453288.52646 -14874887.53047  21199672.264    21199671.9414   21199672.2684
        48.2004         45.2004
  -6494745.32744  -5036655.90946  23257580.348    23257579.2774   23257584.5214
        41.5004         38.8004
  -5749580.93244  -4461364.02346  23019141.680    23019142.1644   23019144.2814
        42.5004         39.9004
  -6454960.35845  -5013905.69146  22833588.086    22833586.6014   22833587.7864
        43.6004         40.7004
 -22228222.92947 -17296945.05648  20145411.307    20145411.4214   20145415.8944
        51.0004         48.2004
 16  6 10  1 41  0.0000000  0  7G19G 6G23G 3G 7G 2G 9
  -1889021.54543  -1438464.73145  24612788.203    24612786.9574   24612789.3984
        37.8004         35.7004
 -12662944.35247  -9854066.95447  20659147.327    20659147.6254   20659153.0614
        49.6004         46.8004
 -19403350.10246 -14835974.46647  21209175.381    21209175.0914   21209175.3664
        48.1004         45.2004
  -6405263.25144  -4966929.60046  23274603.454    23274606.5904   23274613.0164
        41.5004         39.0004
  -5848458.66244  -4538411.58946  23000326.111    23000325.8944   23000328.7854
        42.5004         39.7004
  -6531180.22145  -5073297.77446  22819083.330    22819082.5794   22819084.7834
        43.6004         41.1004
 -22226310.95547 -17295455.20448  20145775.491    20145775.2474   20145779.8054
        51.0004         48.2004
 16  6 10  1 41 30.0000000  0  7G19G 6G23G 3G 7G 2G 9
  -1791006.38143  -1362089.29845  24631441.112    24631439.8854   24631441.8714
        37.8004         35.5004
 -12650818.77247  -9844618.45547  20661454.552    20661455.1734   20661459.6684
        49.6004         46.6004
 -19353083.37546 -14796805.59847  21218740.785    21218740.3624   21218740.5174
        48.1004         45.1004
  -6315609.85444  -4897069.80746  23291668.501    23291668.2614   23291672.7174
        41.5004         38.8004
  -5947118.51044  -4615289.37746  22981552.052    22981551.9594   22981554.8304
        42.5004         40.0004
  -6607049.92745  -5132417.01146  22804645.059    22804645.1434   22804646.3294
        43.6004         40.7004
 -22223942.94047 -17293609.99548  20146225.812    20146225.7234   20146230.3624
        51.0004         48.2004
 16  6 10  1 42  0.0000000  0  7G19G 6G23G 3G 7G 2G 9
  -1692864.74843  -1285615.34945  24650115.603    24650114.9354   24650116.3854
        37.6004         35.5004
 -12638093.15346  -9834702.38447  20663876.255    20663876.6344   20663881.6244
        49.5004         46.6004
 -19302489.86646 -14757382.08247  21228368.193    21228368.0144   21228368.3544
        48.1004         45.2004
  -6225785.94844  -4827077.16046  23308760.408    23308760.6714   23308765.6824
        41.5004         38.8004
  -6045558.58844  -4691995.91646  22962819.324    22962819.5274   22962821.0414
        42.5004         39.9004
  -6682567.36944  -5191261.75646  22790275.373    22790274.0854   22790276.1184
        43.4004         40.6004
 -22221119.61147 -17291409.99848  20146763.125    20146763.0164   20146767.6264
        51.0004         48.4004
 16  6 10  1 42 30.0000000  0  8G19G 6G30G23G 3G 7G 2G 9
  -1594599.75243  -1209045.28445  24668815.280    24668814.4644   24668815.2784
        37.6004         35.3004
 -12624767.61546  -9824318.84547  20666411.261    20666412.1094   20666417.4364
        49.5004         46.6004
                   -113224.93155  25029796.260
                        34.1004
 -19251570.74246 -14717704.84247  21238057.380    21238057.3364   21238058.2434
        48.1004         45.2004
  -6135792.32644  -4756952.27146  23325884.116    23325885.4864   23325890.2714
        41.5004         38.8004
  -6143776.07844  -4768529.02746  22944128.251    22944128.6934   22944130.8584
        42.7004         39.9004
  -6757729.90844  -5249829.94146  22775972.224    22775971.9214   22775973.1934
        43.4004         41.1004
 -22217841.73147 -17288855.80448  20147386.640    20147386.6314   20147391.2394
        51.0004         48.2004
 16  6 10  1 43  0.0000000  0  8G19G 6G30G23G 3G 7G 2G 9
  -1496214.39243  -1132381.41346  24687538.514    24687537.0814   24687540.6284
        38.0004         36.0004
 -12610842.26246  -9813467.92547  20669061.440    20669062.1734   20669067.3874
        49.5004         46.6004
                   -202017.79745  25008112.859
                        34.8004
 -19200327.53746 -14677775.06947  21247809.204    21247808.8524   21247808.9774
        47.9004         45.1004
  -6045629.78544  -4686695.77746  23343043.194    23343043.8974   23343046.8204
        41.3004         38.6004
  -6241768.52244  -4844886.75546  22925482.322    22925482.3384   22925484.0644
        42.7004         40.2004
  -6832535.37544  -5308119.89646  22761737.124    22761736.9004   22761738.0724
        43.4004         40.7004
 -22214110.01747 -17285947.97248  20148096.497    20148096.6554   20148101.2934
        51.0004         48.2004
 16  6 10  1 43 30.0000000  0  8G19G 6G30G23G 3G 7G 2G 9
  -1397711.76843  -1055626.16646  24706283.044    24706281.8454   24706284.4044
        38.2004         36.0004
 -12596317.22246  -9802149.72047  20671825.642    20671826.2294   20671831.5144
        49.5004         46.5004
                   -290831.53345  24986425.064                    24986425.3094
                        34.8004
 -19148761.58646 -14637593.80747  21257621.088    21257621.2514   21257621.3744
        47.9004         44.9004
  -5955299.13344  -4616308.26346  23360232.780    23360233.5884   23360238.3334
        41.5004         38.8004
  -6339533.19344  -4921067.01046  22906878.094    22906877.6124   22906881.3074
        42.9004         40.2004
  -6906981.62544  -5366129.94646  22747570.580    22747569.8784   22747572.0834
        43.4004         40.6004
 -22209925.22747 -17282687.09348  20148893.544    20148893.4754   20148897.6274
        51.0004         48.2004
 16  6 10  1 44  0.0000000  0  8G19G 6G30G23G 3G 7G 2G 9
  -1299095.31143   -978782.23246  24725048.219    24725047.3844   24725050.8514
        38.2004         36.0004
 -12581192.69846  -9790364.37847  20674703.908    20674704.2654   20674709.3584
        49.3004         46.5004
   -531939.49942   -379664.14445  24964727.480    24964726.2074   24964733.7684
        36.4004         34.6004
 -19096874.38446 -14597162.22247  21267495.853    21267495.4094   21267495.2174
        47.9004         45.1004
  -5864801.24344  -4545790.43246  23377451.776    23377453.5024   23377459.3924
        41.3004         38.6004
  -6437067.52244  -4997067.77246  22888317.255    22888317.2034   22888319.9114
        42.9004         40.4004
  -6981066.15544  -5423858.14146  22733472.925    22733472.7364   22733473.2224
        43.2004         40.7004
 -22205288.13647 -17279073.77548  20149775.848    20149775.7694   20149780.0724
        51.0004         48.2004
 16  6 10  1 44 30.0000000  0  8G19G 6G30G23G 3G 7G 2G 9
  -1200367.96443   -901851.85546  24743836.240    24743834.3434   24743836.3444
        38.2004         36.0004
 -12565468.87946  -9778112.05047  20677695.970    20677696.7134   20677701.7714
        49.3004         46.5004
   -645963.24452   -468513.77955  24943027.519    24943027.6764   24943034.1194
        36.4004         34.5004
 -19044667.15946 -14556481.27047  21277431.026    21277430.3944   21277429.7864
        47.9004         45.1004
  -5774136.84744  -4475142.87646  23394707.713    23394707.6814   23394711.7564
        41.3004         38.6004
  -6534368.62444  -5072886.80246  22869801.486    22869802.0484   22869803.4574
        42.9004         40.2004
  -7054786.72345  -5481302.71946  22719444.603    22719443.9054   22719445.2094
        43.6004         40.9004
 -22200199.51647 -17275108.61648  20150744.020    20150744.0584   20150748.6334
        51.0004         48.2004
 16  6 10  1 45  0.0000000  0  8G19G 6G30G23G 3G 7G 2G 9
  -1101532.75043   -824837.43046  24762643.101    24762642.4864   24762644.8584
        38.2004         36.0004
 -12549145.93046  -9765392.87847  20680801.527    20680802.2324   20680807.5924
        49.3004         46.3004
   -760006.42842   -557378.58245  24921323.729    24921325.4484   24921334.5664
        36.1004         34.3004
 -18992141.69846 -14515552.34647  21287425.684    21287425.5564   21287425.4394
        47.9004         45.1004
  -5683306.80044  -4404366.22946  23411990.436    23411991.2614   23411996.8244
        41.1004         38.5004
  -6631434.11744  -5148522.24346  22851331.763    22851331.6204   22851332.9264
        43.0004         40.4004
  -7128140.91845  -5538461.82246  22705485.521    22705484.9944   22705486.2824
        43.6004         40.9004
 -22194660.10947 -17270792.19148  20151797.907    20151798.0054   20151802.6154
        51.0004         48.2004
 16  6 10  1 45 30.0000000  0  8G19G 6G30G23G 3G 7G 2G 9
  -1002592.95043   -747741.51845  24781471.686    24781470.6484   24781473.0134
        37.8004         35.5004
 -12532224.15746  -9752207.08747  20684022.100    20684022.5204   20684027.8234
        49.1004         46.3004
   -874066.54042   -646256.56945  24899619.023    24899619.7534   24899628.3204
        35.9004         34.0004
 -18939299.30746 -14474376.45847  21297481.331    21297481.1994   21297480.5144
        47.9004         45.1004
  -5592311.95044  -4333461.15446  23429305.636    23429306.8004   23429313.2634
        40.9004         38.1004
  -6728261.52244  -5223972.16546  22832907.458    22832906.4524   22832907.0484
        43.2004         40.6004
  -7201126.55845  -5595333.72746  22691597.643    22691596.1444   22691597.1204
        43.7004         41.2004
 -22188670.79147 -17266125.18548  20152937.455    20152937.6524   20152942.2814
        51.0004         48.2004
 16  6 10  1 46  0.0000000  0  8G19G 6G30G23G 3G 7G 2G 9
   -903551.79043   -670566.59845  24800317.495    24800316.9494   24800319.8794
        37.6004         35.5004
 -12514703.77146  -9738554.84547  20687356.515    20687356.6134   20687361.9464
        49.3004         46.5004
   -988141.23142   -735145.91645  24877913.229    24877912.6784   24877922.8244
        35.9004         34.1004
 -18886141.14246 -14432954.51147  21307597.945    21307597.2454   21307596.8014
        48.1004         45.2004
  -5501153.01544  -4262428.28146  23446655.441    23446654.0474   23446658.3504
        40.8004         38.1004
  -6824848.28144  -5299234.56446  22814526.599    22814526.1494   22814528.2334
        43.2004         40.6004
  -7273741.24745  -5651916.58546  22677779.488    22677778.7954   22677779.0274
        44.1004         41.4004
 -22182232.33047 -17261108.19448  20154162.456    20154162.4914   20154167.5254
        50.8004         48.0004
 16  6 10  1 46 30.0000000  0  8G19G 6G30G23G 3G 7G 2G 9
   -804412.26542   -593315.04845  24819183.857    24819182.1554   24819184.6914
        37.3004         34.8004
 -12496585.08146  -9724436.39047  20690804.003    20690804.4704   20690809.6114
        49.3004         46.5004
  -1102227.94142   -824044.61445  24856204.502    24856203.2064   24856214.0054
        36.3004         34.5004
 -18832668.99246 -14391287.90047  21317772.226    21317771.9654   21317772.4294
        48.1004         45.1004
  -5409830.95344  -4191268.24746  23464030.257    23464030.9944   23464037.0534
        40.6004         38.1004
  -6921191.77544  -5374307.41746  22796193.268    22796192.9614   22796193.4364
        43.4004         40.6004
  -7345982.88645  -5708208.76946  22664032.420    22664031.7174   22664031.8294
        44.1004         41.4004
 -22175345.51147 -17255741.83548  20155472.908    20155473.2064   20155477.8234
        50.8004         48.0004
 16  6 10  1 47  0.0000000  0  8G19G 6G30G23G 3G 7G 2G 9
   -705177.34942   -515989.18445  24838068.674    24838068.4244   24838069.7904
        37.1004         35.3004
 -12477868.40546  -9709851.97347  20694365.821    20694366.3914   20694371.8064
        49.3004         46.5004
  -1216324.30942   -912950.86145  24834492.868    24834491.8044   24834500.4344
        35.9004         34.1004
 -18778884.17046 -14349377.65047  21328007.799    21328007.0724   21328007.5534
        48.1004         45.2004
  -5318346.45143  -4119981.64146  23481439.319    23481439.1554   23481445.8764
        40.4004         37.8004
  -7017289.26844  -5449188.58146  22777905.375    22777905.5084   22777907.2794
        43.4004         40.6004
  -7417849.16945  -5764208.45646  22650356.462    22650356.1334   22650356.0474
        44.1004         41.2004
 -22168011.18747 -17250026.77748  20156869.334    20156869.2604   20156873.4924
        50.8004         48.2004
 16  6 10  1 47 30.0000000  0  8G19G 6G30G23G 3G 7G 2G 9
   -605850.18942   -438591.44645  24856967.611    24856966.3824   24856968.2264
        37.1004         35.2004
 -12458554.04346  -9694801.82447  20698041.370    20698041.8794   20698046.6374
        49.5004         46.6004
  -1330427.78042  -1001862.67845  24812779.084    24812778.1584   24812784.9624
        35.9004         34.1004
 -18724788.07946 -14307224.85247  21338302.003    21338301.3414   21338301.8124
        48.1004         45.2004
  -5226700.42243  -4048569.17546  23498881.080    23498880.4904   23498886.0354
        40.3004         37.8004
  -7113138.25744  -5523876.09646  22759666.547    22759665.7344   22759668.8444
        43.2004         40.6004
  -7489337.81945  -5819913.87946  22636752.355    22636751.7204   22636752.4694
        44.1004         41.2004
 -22160230.18247 -17243963.65748  20158350.062    20158349.9494   20158354.5874
        51.0004         48.2004
 16  6 10  1 48  0.0000000  0  8G19G 6G30G23G 3G 7G 2G 9
   -506434.11442   -361124.41145  24875887.806    24875887.7044   24875888.8074
        37.3004         35.3004
 -12438642.39646  -9679286.26147  20701830.153    20701830.7194   20701835.8774
        49.5004         46.6004
  -1444535.99142  -1090778.14245  24791063.919    24791063.1324   24791070.5334
        35.9004         34.3004
 -18670382.09546 -14264830.58347  21348654.723    21348654.1734   21348654.9744
        47.9004         45.1004
  -5134893.70743  -3977031.49446  23516348.176    23516349.3474   23516355.9544
        40.1004         37.6004
  -7208736.02144  -5598367.85846  22741474.718    22741474.0364   22741476.5304
        43.0004         40.4004
  -7560446.52145  -5875323.25146  22623221.139    22623220.3404   22623220.9154
        43.9004         41.2004
 -22152003.34247 -17237553.13448  20159915.349    20159915.5054   20159920.0574
        51.0004         48.4004
 16  6 10  1 48 30.0000000  0  8G19G 6G30G23G 3G 7G 2G 9
   -406932.14643   -283590.44645  24894821.315    24894820.5604   24894824.4074
        37.6004         35.7004
 -12418133.81146  -9663305.54447  20705733.328    20705733.7954   20705738.6824
        49.5004         46.6004
  -1558646.40042  -1179695.34645  24769350.924    24769351.7614   24769354.6264
        35.9004         34.1004
 -18615667.72646 -14222196.01147  21359066.730    21359066.3764   21359067.1014
        47.9004         45.1004
  -5042927.06743  -3905369.20146  23533850.575    23533849.7924   23533857.2944
        40.1004         37.6004
  -7304080.34644  -5672662.11546  22723330.721    22723331.0824   22723332.2384
        42.9004         40.2004
  -7631173.03645  -5930434.80446  22609762.025    22609761.2354   22609762.2914
        44.1004         41.4004
 -22143331.52147 -17230795.86548  20161565.564    20161565.4304   20161570.1554
        51.0004         48.4004
 16  6 10  1 49  0.0000000  0  8G19G 6G30G23G 3G 7G 2G 9
   -307347.17342   -205991.80245  24913769.864    24913769.5384   24913774.1174
        37.5004         35.3004
 -12397028.70046  -9646860.00647  20709749.120    20709749.8554   20709754.5514
        49.5004         46.6004
  -1672756.52042  -1268612.31245  24747637.353    24747637.2114   24747638.8914
        35.9004         34.5004
 -18560646.00246 -14179321.94647  21369537.120    21369536.4624   21369537.1914
        48.1004         45.1004
  -4950801.35443  -3833582.94746  23551379.335    23551381.0844   23551387.2744
        39.9004         37.4004
  -7399168.18144  -5746756.52046  22705236.079    22705235.5314   22705237.9704
        42.7004         40.0004
  -7701514.94145  -5985246.66046  22596376.396    22596376.2274   22596376.1584
        44.4004         41.9004
 -22134215.55747 -17223692.51348  20163300.406    20163300.3674   20163304.6004
        51.0004         48.4004
 16  6 10  1 49 30.0000000  0  8G19G 6G30G23G 3G 7G 2G 9
   -207682.46542   -128331.04845  24932736.518    24932736.3284   24932740.3494
        37.0004         34.8004
 -12375327.50046  -9629949.99347  20713878.855    20713879.3204   20713884.2774
        49.5004         46.6004
  -1786863.87942  -1357527.10345  24725923.577    24725923.5974   24725925.5974
        36.3004         34.6004
 -18505319.01346 -14136210.01147  21380065.763    21380065.0624   21380065.2664
        47.9004         44.9004
  -4858517.41643  -3761673.41046  23568943.199    23568942.9924   23568949.0474
        39.9004         37.4004
  -7493997.22344  -5820649.27046  22687190.308    22687190.2774   22687192.5034
        42.9004         40.2004
  -7771470.02645  -6039757.10546  22583065.209    22583064.1324   22583064.2614
        44.6004         41.9004
 -22124656.32347 -17216243.75748  20165119.258    20165119.3044   20165123.6464
        51.0004         48.2004
 16  6 10  1 50  0.0000000  0  8G19G 6G30G23G 3G 7G 2G 9
   -107940.77642    -50610.31345  24951716.655    24951716.0584   24951718.2524
        36.4004         34.1004
 -12353030.66546  -9612575.83547  20718121.728    20718122.3854   20718127.5684
        49.5004         46.8004
  -1900966.00542  -1446437.87045  24704208.550    24704207.8164   24704212.3104
        36.4004         34.6004
 -18449687.87346 -14092861.07247  21390651.294    21390650.7804   21390650.9804
        47.7004         44.7004
  -4766076.08643  -3689641.24346  23586536.083    23586534.3994   23586539.2624
        39.9004         37.6004
  -7588565.23444  -5894338.62346  22669193.899    22669195.0084   22669196.8474
        43.0004         40.4004
  -7841036.09845  -6093964.41146  22569826.244    22569825.0194   22569826.3654
        44.6004         41.8004
 -22114654.68847 -17208450.27148  20167022.447    20167022.7844   20167026.8724
        51.0004         48.2004
 16  6 10  1 50 30.0000000  0  8G19G 6G30G23G 3G 7G 2G 9
     -8125.80442     27167.50245  24970712.978    24970710.9474   24970711.7774
        35.6004         33.6004
 -12330138.67246  -9594737.92447  20722477.960    20722478.5484   20722483.5954
        49.5004         46.6004
  -2015060.42742  -1535342.60045  24682496.804    24682497.0034   24682501.7584
        36.6004         34.8004
 -18393754.16046 -14049276.35747  21401294.822    21401294.5634   21401295.1914
        47.7004         44.7004
  -4673478.21843  -3617487.06146  23604153.103    23604155.2394   23604159.9064
        40.3004         37.8004
  -7682869.10144  -5967822.15746  22651248.240    22651249.4564   22651251.1474
        43.2004         40.6004
  -7910211.19745  -6147867.06546  22556663.068    22556662.5134   22556661.9714
        44.6004         41.8004
 -22104211.55547 -17200312.75748  20169009.679    20169009.9214   20169014.3114
        51.0004         48.2004
 16  6 10  1 51  0.0000000  0  8G19G 6G30G23G 3G 7G 2G 9
     91759.99442    105000.54545  24989719.754    24989719.7634   24989721.8474
        35.6004         33.8004
 -12306652.00146  -9576436.63247  20726946.889    20726947.6204   20726952.6874
        49.5004         46.6004
  -2129144.63242  -1624239.35645  24660790.799    24660789.8904   24660794.0854
        37.0004         35.2004
 -18337518.89846 -14005456.67347  21411995.884    21411995.8954   21411995.9824
        47.5004         44.5004
  -4580724.55743  -3545211.49746  23621809.418    23621807.7714   23621811.7044
        40.4004         38.1004
  -7776906.30344  -6041097.89146  22633353.037    22633354.4184   22633357.1314
        43.4004         40.7004
  -7978992.54745  -6201462.91647  22543574.853    22543573.7174   22543573.3624
        44.8004         42.1004
 -22093327.81147 -17191831.91048  20171080.706    20171080.7014   20171085.3574
        51.0004         48.2004
 16  6 10  1 51 30.0000000  0  8G19G 6G30G23G 3G 7G 2G 9
    191713.27342    182886.20245  25008739.328    25008737.0504   25008738.4994
        35.0004         33.4004
 -12282571.17946  -9557672.36547  20731529.976    20731530.2064   20731535.3084
        49.5004         46.6004
  -2243216.15042  -1713126.24445  24639082.838    24639082.4244   24639086.8614
        37.3004         35.3004
 -18280983.77746 -13961403.33747  21422754.505    21422754.1714   21422754.4464
        47.5004         44.5004
  -4487816.07143  -3472815.28546  23639486.383    23639486.7094   23639489.9434
        40.4004         37.9004
  -7870674.73644  -6114164.20346  22615509.378    22615511.4724   22615513.7044
        43.4004         40.7004
  -8047378.17945  -6254750.40647  22530560.928    22530560.0864   22530560.5664
        44.9004         42.1004
 -22082004.34447 -17183008.42748  20173235.769    20173235.9124   20173239.9804
        51.0004         48.2004
 16  6 10  1 52  0.0000000  0  8G19G 6G30G23G 3G 7G 2G 9
    291731.13442    260822.17245  25027774.967    25027771.7544   25027774.8044
        34.7004         33.3004
 -12257896.76246  -9538445.55347  20736225.183    20736226.0954   20736231.2484
        49.5004         46.6004
  -2357272.43643  -1802001.25645  24617377.502    24617377.9814   24617383.7064
        37.6004         35.7004
 -18224150.27646 -13917117.49247  21433570.049    21433569.2244   21433569.3704
        47.5004         44.7004
  -4394753.72443  -3400299.18346  23657193.838    23657194.0964   23657200.2524
        40.4004         37.8004
  -7964171.77845  -6187019.02746  22597718.601    22597719.4174   22597721.4944
        43.6004         40.7004
  -8115366.11945  -6307728.00646  22517623.855    22517622.5924   22517622.4884
        44.8004         41.9004
 -22070242.07947 -17173843.02148  20175474.354    20175474.2364   20175478.2754
        51.0004         48.2004
 16  6 10  1 52 30.0000000  0  8G19G 6G30G23G 3G 7G 2G 9
    391809.91442    338805.57445  25046818.224    25046816.5334   25046818.4044
        34.7004         33.3004
 -12232629.30446  -9518756.63947  20741033.488    20741034.1154   20741038.8954
        49.5004         46.5004
  -2471311.11143  -1890862.55145  24595677.845    24595677.8194   24595684.8274
        37.6004         35.7004
 -18167019.74246 -13872600.19447  21444440.887    21444440.4384   21444440.8024
        47.4004         44.5004
  -4301538.01043  -3327663.58846  23674930.862    23674932.8684   23674939.3244
        40.4004         37.8004
  -8057394.60844  -6259660.17546  22579979.846    22579979.6534   22579981.5904
        43.4004         40.6004
  -8182953.58845  -6360393.56546  22504761.292    22504760.7174   22504761.0844
        44.6004         41.8004
 -22058041.93647 -17164336.41948  20177795.771    20177795.6994   20177800.1114
        50.8004         48.2004
 16  6 10  1 53  0.0000000  0  8G19G 6G30G23G 3G 7G 2G 9
    491946.82342    416834.32945  25065874.483    25065871.5394   25065873.2544
        34.9004         33.4004
 -12206769.41246  -9498606.07547  20745954.138    20745954.6084   20745959.9194
        49.3004         46.5004
  -2585329.46742  -1979708.01245  24573980.474    24573980.1824   24573987.9214
        37.5004         35.3004
 -18109593.48446 -13827852.46447  21455369.278    21455368.9664   21455369.0524
        47.4004         44.5004
  -4208169.94343  -3254909.30346  23692700.861    23692700.7194   23692705.8624
        40.1004         37.6004
  -8150340.83744  -6332085.78446  22562291.398    22562291.6094   22562294.5344
        43.2004         40.6004
  -8250138.98645  -6412745.81346  22491977.155    22491976.0534   22491976.0014
        44.4004         41.8004
 -22045404.79447 -17154489.29548  20180200.164    20180200.1644   20180204.9284
        50.8004         48.0004
 16  6 10  1 53 30.0000000  0  8G19G 6G30G23G 3G 7G 2G 9
    592139.01542    494906.14045  25084938.544    25084937.0384   25084939.8704
        35.2004         33.8004
 -12180317.69046  -9477994.35447  20750988.593    20750988.7784   20750993.3024
        49.3004         46.6004
  -2699325.11842  -2068535.78345  24552284.933    24552286.1474   24552293.3584
        37.3004         35.3004
 -18051872.95646 -13782875.44147  21466353.388    21466352.8754   21466353.1544
        47.5004         44.5004
  -4114650.39443  -3182036.94846  23710494.740    23710496.5854   23710501.7994
        40.1004         37.6004
  -8243008.37044  -6404294.24146  22544656.657    22544658.0984   22544661.1844
        43.2004         40.6004
  -8316919.99245  -6464782.95246  22479269.573    22479268.6524   22479268.6134
        44.6004         41.6004
 -22032331.64647 -17144302.42648  20182687.473    20182687.8114   20182692.6124
        50.8004         48.0004
 16  6 10  1 54  0.0000000  0  8G19G 6G30G23G 3G 7G 2G 9
    692383.50442    573018.70145  25104013.608    25104014.5804   25104016.2614
        35.0004         33.6004
 -12153274.79646  -9456921.97747  20756134.609    20756134.8984   20756139.3334
        49.3004         46.5004
  -2813295.48942  -2157343.84545  24530596.773    24530597.9864   24530604.0034
        37.1004         34.8004
 -17993859.77246 -13737670.36847  21477392.852    21477392.5604   21477392.2604
        47.5004         44.5004
  -4020980.11543  -3109047.15946  23728324.205    23728322.4634   23728327.5654
        39.9004         37.4004
  -8335393.90844  -6476282.95946  22527076.474    22527077.3154   22527080.6594
        43.2004         40.6004
  -8383293.89045  -6516502.86346  22466638.550    22466638.0754   22466637.9704
        44.6004         41.6004
 -22018823.42347 -17133776.53548  20185258.298    20185258.4434   20185263.0074
        50.8004         48.2004
 16  6 10  1 54 30.0000000  0  8G19G 6G30G23G 3G 7G 2G 9
    792677.31042    651169.66345  25123098.261    25123098.0644   25123101.5424
        35.2004         33.8004
 -12125641.38546  -9435389.45447  20761392.479    20761393.0094   20761398.0144
        49.3004         46.5004
  -2927238.16742  -2246130.32745  24508917.063    24508915.3344   24508922.3624
        37.1004         35.2004
 -17935555.16146 -13692238.20347  21488487.628    21488487.1744   21488487.4144
        47.4004         44.5004
  -3927160.06643  -3035940.62446  23746172.562    23746174.5934   23746179.7734
        39.7004         37.1004
  -8427495.21144  -6548050.19046  22509550.780    22509551.5774   22509554.3124
        43.2004         40.6004
  -8449258.98545  -6567904.22646  22454085.946    22454084.9694   22454084.9264
        44.4004         41.8004
 -22004881.02747 -17122912.32348  20187911.478    20187911.7254   20187916.3704
        50.8004         48.2004
 16  6 10  1 55  0.0000000  0  8G19G 6G30G23G 3G 7G 2G 9
    893017.13142    729356.47945  25142193.434    25142190.6314   25142195.4874
        35.6004         34.1004
 -12097418.17846  -9413397.35147  20766763.515    20766763.9094   20766768.8884
        49.5004         46.6004
  -3041150.54542  -2334893.19845  24487236.839    24487236.4944   24487244.0964
        36.8004         34.6004
 -17876960.83246 -13646580.29547  21499638.266    21499637.8784   21499637.4014
        47.4004         44.5004
  -3833191.05443  -2962718.04046  23764055.498    23764056.2704   23764061.1714
        39.6004         37.1004
  -8519309.74444  -6619593.97746  22492079.531    22492079.7234   22492082.2844
        43.4004         40.7004
  -8514812.92045  -6618985.20446  22441611.154    22441610.6104   22441610.7164
        44.4004         41.8004
 -21990505.47447 -17111710.58848  20190647.033    20190647.2244   20190651.8444
        50.8004         48.2004
 16  6 10  1 55 30.0000000  0  8G19G 6G30G23G 3G 7G 2G 9
    993399.90142    807576.76545  25161295.707    25161294.1464   25161297.5384
        35.7004         34.3004
 -12068605.79146  -9390946.15047  20772246.269    20772246.8554   20772252.1094
        49.5004         46.6004
  -3155030.15042  -2423630.53845  24465568.076    24465568.5794   24465575.2024
        36.4004         34.5004
 -17818077.87846 -13600697.47247  21510843.010    21510842.6784   21510842.6054
        47.2004         44.4004
  -3739073.95743  -2889380.05946  23781966.154    23781966.3514   23781971.4154
        39.4004         37.1004
  -8610835.18945  -6690912.51346  22474662.692    22474662.8894   22474665.9014
        43.6004         41.1004
  -8579953.46945  -6669744.08146  22429215.532    22429214.1734   22429214.3774
        44.4004         41.6004
 -21975697.70747 -17100172.06148  20193465.429    20193465.2604   20193469.7834
        50.8004         48.2004
 16  6 10  1 56  0.0000000  0  8G19G 6G30G23G 3G 7G 2G 9
   1093822.74042    885828.31845  25180406.643    25180404.6014   25180407.5524
        36.3004         34.8004
 -12039205.01746  -9368036.46847  20777841.052    20777841.6054   20777846.5854
        49.5004         46.6004
  -3268874.39742  -2512340.37645  24443907.576    24443903.8094   24443908.1084
        36.1004         34.3004
 -17758907.79446 -13554590.91147  21522101.916    21522102.0524   21522101.9984
        47.2004         44.2004
  -3644809.58543  -2815927.35046  23799904.748    23799905.3504   23799908.6264
        39.6004         37.3004
  -8702068.98545  -6762003.79046  22457300.765    22457302.1024   22457303.8054
        43.7004         41.1004
  -8644678.48245  -6720179.14246  22416898.561    22416898.0554   22416898.0804
        44.4004         41.8004
 -21960458.69747 -17088297.50148  20196365.255    20196365.2374   20196369.6054
        51.0004         48.2004
 16  6 10  1 56 30.0000000  0  8G19G 6G30G23G 3G 7G 2G 9
   1194282.61942    964108.71345  25199524.659    25199524.2434   25199524.9234
        36.8004         35.0004
 -12009216.62046  -9344668.89447  20783547.933    20783548.1364   20783553.2964
        49.5004         46.6004
  -3382680.85142  -2601020.73545  24422249.813    24422249.3394   24422251.2974
        35.9004         34.5004
 -17699452.37346 -13508262.01647  21533416.208    21533415.7214   21533415.6374
        47.0004         44.4004
  -3550398.87143  -2742360.56946  23817870.252    23817871.5654   23817875.9774
        39.9004         37.6004
  -8793008.55745  -6832865.79146  22439996.708    22439996.8394   22439998.6704
        43.9004         41.2004
  -8708985.77845  -6770288.71746  22404660.758    22404660.4444   22404660.8084
        44.6004         41.9004
 -21944789.43847 -17076087.68548  20199346.609    20199346.7274   20199351.4104
        51.0004         48.2004
 16  6 10  1 57  0.0000000  0  8G19G 6G30G23G 3G 7G 2G 9
   1294776.51742   1042415.61745  25218647.004    25218644.1604   25218648.7714
        37.0004         35.2004
 -11978641.37446  -9320844.03547  20789364.887    20789366.0434   20789371.4554
        49.3004         46.5004
  -3496446.87742  -2689669.56945  24400601.160    24400599.6524   24400602.8424
        36.1004         34.3004
 -17639712.58446 -13461711.53947  21544784.666    21544784.2124   21544783.6684
        47.0004         44.2004
  -3455842.66043  -2668680.44346  23835864.821    23835864.4884   23835869.3034
        39.9004         37.4004
  -8883651.60645  -6903496.73446  22422748.360    22422748.4604   22422750.3434
        43.9004         41.2004
  -8772873.42745  -6820071.28946  22392503.252    22392502.9454   22392503.2294
        44.6004         41.9004
 -21928690.88447 -17063543.35548  20202410.100    20202410.1014   20202415.0254
        51.0004         48.2004
 16  6 10  1 57 30.0000000  0  8G19G 6G30G23G 3G 7G 2G 9
   1395301.30642   1120746.60045  25237776.249    25237774.8254   25237776.7154
        37.1004         35.3004
 -11947480.05746  -9296562.49747  20795295.175    20795296.1084   20795301.1524
        49.3004         46.5004
  -3610169.96542  -2778284.99545  24378956.775    24378957.6984   24378959.8414
        35.9004         34.1004
 -17579689.80646 -13414940.55547  21556206.751    21556206.4734   21556205.6374
        47.2004         44.4004
  -3361141.78243  -2594887.57646  23853886.692    23853885.7444   23853890.6834
        39.9004         37.4004
  -8973995.58745  -6973894.62546  22405556.335    22405556.6414   22405559.4664
        44.1004         41.2004
  -8836339.07045  -6869525.03846  22380426.381    22380425.8834   22380425.9714
        44.6004         41.9004
 -21912164.07347 -17050665.31948  20205554.991    20205555.0434   20205559.7484
        51.0004         48.4004
 16  6 10  1 58  0.0000000  0  8G19G 6G30G23G 3G 7G 2G 9
   1495853.93542   1199099.24645  25256909.632    25256907.7464   25256911.3874
        37.5004         35.3004
 -11915733.51846  -9271824.94147  20801337.146    20801337.2034   20801342.1314
        49.3004         46.3004
  -3723847.67042  -2866865.01145  24357321.157    24357325.1204   24357328.5344
        36.1004         34.3004
 -17519385.64146 -13367950.29647  21567682.486    21567682.3944   21567681.0204
        47.2004         44.4004
  -3266297.11643  -2520982.68546  23871930.298    23871933.2854   23871936.6194
        39.6004         36.7004
  -9064037.79345  -7044057.38946  22388421.856    22388421.9184   22388425.0434
        43.9004         41.2004
  -8899380.68445  -6918648.37646  22368430.190    22368428.8964   22368429.8084
        44.8004         41.9004
 -21895209.96447 -17037454.32548  20208781.241    20208781.3124   20208786.0034
        51.0004         48.2004
 16  6 10  1 58 30.0000000  0  8G19G 6G30G23G 3G 7G 2G 9
   1596431.76843   1277471.57545  25276048.296    25276047.9234   25276051.3734
        37.6004         35.7004
 -11883402.60546  -9246632.02247  20807488.875    20807489.5004   20807494.7324
        49.1004         46.3004
  -3837477.31042  -2955407.58445  24335702.154    24335702.8414   24335706.7794
        36.1004         34.5004
 -17458801.52946 -13320741.90447  21579211.542    21579210.9674   21579210.1044
        47.2004         44.4004
  -3171309.54043  -2446966.36846  23890008.355    23890007.6184   23890013.9274
        39.4004         36.9004
  -9153776.14145  -7113983.35546  22371345.191    22371344.1184   22371347.4184
        43.9004         41.1004
  -8961996.13945  -6967439.64246  22356514.537    22356513.7114   22356514.0154
        44.8004         41.9004
 -21877829.60847 -17023911.18748  20212088.771    20212088.7624   20212093.6154
        51.0004         48.2004
 16  6 10  1 59  0.0000000  0  8G19G 6G30G23G 3G 7G 2G 9
   1697031.53843   1355860.95745  25295193.707    25295191.6294   25295195.3054
        37.8004         35.9004
 -11850488.15946  -9220984.41047  20813752.404    20813753.0364   20813758.0354
        49.1004         46.3004
  -3951056.41342  -3043910.82545  24314089.547    24314089.7934   24314095.5404
        36.4004         34.6004
 -17397938.81046 -13273316.40147  21590792.642    21590792.1614   21590792.3494
        47.2004         44.4004
  -3076179.89143  -2372839.39846  23908110.133    23908111.1594   23908116.8414
        39.2004         36.7004
  -9243207.61245  -7183670.22446  22354326.798    22354326.3284   22354329.1064
        43.9004         41.2004
  -9024183.32145  -7015897.17447  22344680.505    22344679.1254   22344681.2444
        44.8004         42.1004
 -21860024.00247 -17010036.68548  20215477.281    20215477.1524   20215481.6064
        51.0004         48.2004
 16  6 10  1 59 30.0000000  0  8G19G 6G30G23G 3G 7G 2G 9
   1797650.53943   1434265.34545  25314339.238    25314338.9134   25314342.2674
        38.2004         35.9004
 -11816991.11846  -9194882.82647  20820126.911    20820127.4344   20820132.3844
        49.3004         46.5004
  -4064582.43542  -3132372.64745  24292486.045    24292485.6284   24292491.9464
        36.8004         35.0004
 -17336798.88646 -13225674.90947  21602427.442    21602427.1534   21602427.0984
        47.2004         44.4004
  -2980909.03943  -2298602.36846  23926241.524    23926241.5584   23926246.9364
        39.0004         36.6004
  -9332330.01345  -7253116.23746  22337367.490    22337367.2014   22337369.6044
        43.9004         41.2004
  -9085940.07945  -7064019.32347  22332928.289    22332927.7134   22332929.1934
        44.8004         42.1004
 -21841794.16247 -16995831.61148  20218946.520    20218946.3634   20218950.3584
        51.0004         48.2004
 16  6 10  2  0  0.0000000  0  8G19G 6G30G23G 3G 7G 2G 9
   1898285.59643   1512682.25645  25333490.011    25333489.2544   25333491.3884
        38.2004         35.7004
 -11782912.37246  -9168327.96347  20826612.254    20826612.7324   20826617.8414
        49.3004         46.5004
  -4178052.80542  -3220791.11745  24270895.952    24270894.6914   24270899.7254
        37.1004         35.3004
 -17275383.22946 -13177818.55647  21614113.882    21614113.4764   21614114.0164
        47.2004         44.2004
  -2885497.92243  -2224256.05846  23944396.000    23944397.4074   23944402.2974
        39.2004         37.1004
  -9421141.01545  -7322319.60946  22320467.438    22320466.7244   22320469.7104
        44.1004         41.4004
  -9147264.34545  -7111804.45847  22321258.848    22321258.3694   22321259.2924
        45.1004         42.5004
 -21823141.13847 -16981296.78548  20222495.746    20222495.8234   20222500.0484
        51.0004         48.2004
 16  6 10  2  0 30.0000000  0  8G19G 6G30G23G 3G 7G 2G 9
   1998933.64543   1591109.27345  25352641.988    25352641.3904   25352644.2124
        37.8004         35.7004
 -11748252.86446  -9141320.55947  20833207.930    20833208.1984   20833212.7134
        49.3004         46.5004
  -4291464.99342  -3309164.25345  24249314.842    24249313.8724   24249320.8934
        37.5004         35.5004
 -17213693.15246 -13129748.37247  21625852.319    21625852.6604   21625853.6334
        47.0004         44.0004
  -2789947.37343  -2149801.08246  23962579.002    23962579.1564   23962587.2904
        39.2004         36.7004
  -9509638.39045  -7391278.59646  22303626.879    22303626.6644   22303630.1454
        44.2004         41.6004
  -9208153.87245  -7159250.84547  22309671.943    22309671.1734   22309672.5004
        45.1004         42.5004
 -21804065.93947 -16966432.99148  20226125.678    20226125.6644   20226129.7794
        51.0004         48.2004
 16  6 10  2  1  0.0000000  0  8G19G 6G30G23G 3G 7G 2G 9
   2099591.81143   1669544.17345  25371798.609    25371796.6524   25371799.8464
        37.6004         35.5004
 -11713013.54746  -9113861.36247  20839913.087    20839913.5774   20839918.8614
        49.1004         46.3004
  -4404816.43443  -3397490.04945  24227744.065    24227743.0334   24227750.5044
        37.6004         35.5004
 -17151730.20946 -13081465.55247  21637643.911    21637643.7734   21637644.6704
        46.9004         44.0004
  -2694258.23543  -2075238.15346  23980789.839    23980788.6074   23980795.7544
        39.0004         36.9004
  -9597819.23145  -7459990.92146  22286846.827    22286846.5984   22286848.9044
        44.4004         41.8004
  -9268606.70845  -7206356.94547  22298169.222    22298167.9784   22298167.9954
        45.3004         42.6004
 -21784569.62647 -16951241.06048  20229835.620    20229835.6564   20229839.8834
        51.0004         48.2004
 16  6 10  2  1 30.0000000  0  8G19G 6G30G23G 3G 7G 2G 9
   2200257.09542   1747984.69445  25390953.751    25390953.5614   25390955.3434
        37.1004         35.0004
 -11677195.43246  -9085951.14847  20846728.686    20846729.4704   20846734.8104
        49.1004         46.3004
  -4518104.52443  -3485766.49745  24206185.038    24206183.8874   24206189.6184
        37.6004         35.5004
 -17089495.80246 -13032971.21847  21649487.862    21649486.8284   21649487.7344
        47.0004         44.0004
  -2598431.42243  -2000567.91646  23999023.700    23999023.7284   23999029.7844
        39.0004         36.6004
  -9685681.14645  -7528454.73046  22270126.598    22270126.7064   22270129.2924
        44.4004         41.8004
  -9328620.68645  -7253121.07447  22286748.331    22286747.7704   22286747.8394
        45.3004         42.5004
 -21764653.25247 -16935721.80748  20233625.665    20233625.6914   20233629.7204
        51.0004         48.2004
 16  6 10  2  2  0.0000000  0  8G19G 6G30G23G 3G 7G 2G 9
   2300926.61542   1826428.46945  25410111.343    25410109.5104   25410112.2104
        36.3004         34.3004
 -11640799.49146  -9057590.68347  20853654.925    20853655.4644   20853660.8514
        49.1004         46.3004
  -4631326.80942  -3573991.66245  24184639.430    24184638.1024   24184644.1794
        37.5004         35.3004
 -17026991.21146 -12984266.36247  21661381.989    21661381.2344   21661381.7434
        46.9004         43.9004
  -2502467.92243  -1925791.20746  24017279.239    24017284.7804   24017289.9814
        38.9004         36.6004
  -9773221.80745  -7596668.22646  22253468.693    22253468.4014   22253471.0504
        44.6004         41.8004
  -9388193.93845  -7299541.78547  22275412.267    22275411.7644   22275411.9884
        45.3004         42.8004
 -21744317.88047 -16919876.06348  20237495.214    20237495.3734   20237499.4944
        51.0004         48.2004
 16  6 10  2  2 30.0000000  0  8G19G 6G30G23G 3G 7G 2G 9
   2401597.28442   1904873.11745  25429267.914    25429265.0664   25429268.6284
        35.9004         34.1004
 -11603826.77346  -9028780.78447  20860690.727    20860691.2264   20860696.2404
        49.1004         46.3004
  -4744480.61542  -3662163.49045  24163107.289    24163106.4994   24163112.1554
        37.5004         35.5004
 -16964217.97046 -12935352.14747  21673326.838    21673326.2704   21673326.4644
        46.7004         43.9004
  -2406368.44643  -1850908.49746  24035573.342    24035573.4404   24035576.9274
        38.7004         36.6004
  -9860438.96945  -7664629.63746  22236872.841    22236871.2714   22236874.2294
        44.6004         41.8004
  -9447324.32645  -7345617.40047  22264159.637    22264159.2894   22264159.7124
        45.5004         42.6004
 -21723564.53347 -16903704.61848  20241444.447    20241444.6254   20241448.7654
        51.0004         48.2004
 16  6 10  2  3  0.0000000  0  8G19G 6G30G23G 3G 7G 2G 9
   2502266.47642   1983316.67545  25448425.145    25448423.8714   25448424.5084
        35.2004         33.4004
 -11566278.32046  -8999522.25547  20867835.434    20867835.9604   20867841.3144
        48.9004         45.9004
  -4857563.41142  -3750279.96845  24141588.847    24141587.1824   24141593.5494
        37.5004         35.3004
 -16901177.45946 -12886229.67847  21685323.597    21685323.1824   21685323.5564
        46.9004         44.0004
  -2310133.96643  -1775920.63546  24053888.888    24053886.7684   24053889.4694
        38.9004         36.6004
  -9947330.32945  -7732337.18146  22220335.626    22220335.6634   22220338.7714
        44.6004         41.8004
  -9506009.82545  -7391346.34647  22252992.582    22252992.0504   22252991.9004
        45.5004         42.8004
 -21702394.33247 -16887208.35648  20245473.193    20245473.3034   20245477.4894
        51.0004         48.2004
 16  6 10  2  3 30.0000000  0  8G19G 6G30G23G 3G 7G 2G 9
   2602931.06542   2061756.60745  25467579.297    25467577.0704   25467581.1164
        34.5004         32.9004
 -11528155.31546  -8969816.02547  20875090.076    20875090.6844   20875096.1094
        48.9004         46.1004
  -4970572.70043  -3838339.14145  24120083.461    24120081.6974   24120089.6434
        37.6004         35.7004
 -16837870.92046 -12836899.91147  21697369.609    21697369.6804   21697370.4124
        46.9004         44.0004
  -2213765.36543  -1700828.23646  24072223.491    24072224.7404   24072228.2244
        38.7004         36.4004
 -10033892.97445  -7799788.57747  22203864.075    22203864.7834   22203866.8414
        44.8004         42.1004
  -9564248.22845  -7436726.90047  22241910.404    22241909.6474   22241909.9604
        45.6004         42.8004
 -21680808.32347 -16870388.08448  20249580.749    20249580.8394   20249585.2604
        51.0004         48.2004
 16  6 10  2  4  0.0000000  0  8G19G 6G30G23G 3G 7G 2G 9
   2703588.02541   2140190.61245  25486733.569    25486733.2294   25486731.6364
        33.8004         32.6004
 -11489458.67046  -8939662.80047  20882454.083    20882454.5814   20882459.6764
        48.8004         46.1004
  -5083505.85243  -3926338.99445  24098590.483    24098590.9844   24098598.3674
        37.8004         35.5004
 -16774300.07446 -12787364.19547  21709467.189    21709467.2504   21709466.8114
        46.9004         43.9004
  -2117263.57143  -1625632.01446  24090583.548    24090585.5794   24090594.0484
        38.5004         36.0004
 -10120124.60945  -7866982.04147  22187455.285    22187454.9924   22187457.7734
        44.9004         42.1004
  -9622037.69645  -7481757.64747  22230913.324    22230912.5114   22230913.1054
        45.6004         42.8004
 -21658807.59047 -16853244.65248  20253767.363    20253767.3714   20253772.0194
        51.0004         48.4004
 16  6 10  2  4 30.0000000  0  8G19G 6G30G23G 3G 7G 2G 9
   2804234.56851   2218616.49455  25505887.049    25505886.8054   25505890.1454
        32.8004         31.9004
 -11450189.59646  -8909063.52747  20889927.032    20889927.6384   20889932.4594
        48.9004         46.1004
  -5196360.34043  -4014277.53645  24077114.504    24077114.9224   24077124.6794
        38.0004         35.9004
 -16710466.02346 -12737623.38147  21721614.427    21721613.8104   21721614.6114
        46.9004         43.9004
  -2020629.33243  -1550332.62846  24108977.990    24108976.1154   24108982.0974
        38.3004         36.2004
 -10206022.95545  -7933915.82047  22171107.627    22171108.9814   22171111.8684
        44.9004         42.3004
  -9679376.08745  -7526436.91147  22220001.778    22220001.1634   22220001.1964
        45.6004         42.8004
 -21636393.24447 -16835778.93048  20258032.913    20258032.9314   20258037.4444
        51.0004         48.4004
 16  6 10  2  5  0.0000000  0  8G19G 6G30G23G 3G 7G 2G 9
   2904867.66051   2297031.89955  25525037.525    25525032.1124
        31.9004         31.2004
 -11410349.19546  -8878019.06547  20897508.545    20897508.7974   20897513.8714
        48.9004         46.1004
  -5309133.49443  -4102152.72646  24055658.064    24055656.1494   24055663.6974
        38.3004         36.2004
 -16646370.24846 -12687678.62347  21733811.338    21733810.6434   21733811.4184
        46.7004         43.9004
  -1923863.72343  -1474930.88846  24127389.501    24127390.3574   24127397.3214
        38.7004         36.4004
 -10291585.93545  -8000588.26547  22154826.922    22154827.7144   22154829.2584
        45.1004         42.3004
  -9736261.36445  -7570763.09547  22209176.992    22209176.5714   22209177.1154
        45.8004         43.0004
 -21613566.36447 -16817991.75148  20262376.724    20262376.5884   20262380.8334
        51.0004         48.2004
 16  6 10  2  5 30.0000000  0  8G19G 6G30G23G 3G 7G 2G 9
                   2375432.32155  25544184.130
                        30.1004
 -11369938.68046  -8846530.35547  20905197.739    20905198.5054   20905203.7514
        48.8004         45.8004
  -5421822.82443  -4189962.57446  24034214.399    24034213.6444   24034218.2144
        38.7004         36.6004
 -16582014.14146 -12637531.00647  21746057.154    21746057.3654   21746057.7824
        46.7004         43.7004
  -1826967.52543  -1399427.36346  24145830.259    24145829.1214   24145834.6804
        38.7004         36.2004
 -10376810.87745  -8066997.29747  22138608.515    22138609.6144   22138611.6484
        45.1004         42.3004
  -9792691.76945  -7614734.83047  22198439.005    22198438.4874   22198438.9924
        46.0004         43.2004
 -21590328.03947 -16799883.96648  20266798.568    20266798.5154   20266802.9334
        51.0004         48.2004
 16  6 10  2  6  0.0000000  0  8G19G 6G30G23G 3G 7G 2G 9
                   2453819.97555  25563329.985
                        30.1004
 -11328959.21846  -8814598.31347  20912996.594    20912996.8294   20913001.6024
        48.8004         45.9004
  -5534425.66843  -4277705.04246  24012786.664    24012787.1294   24012790.5904
        38.9004         36.7004
 -16517398.93546 -12587181.50047  21758352.960    21758353.0914   21758354.3944
        46.5004         43.7004
  -1729941.64743  -1323822.79546  24164290.927    24164290.7954   24164298.0404
        38.5004         36.2004
 -10461695.13345  -8133140.87247  22122455.188    22122455.9204   22122457.6634
        45.1004         42.1004
  -9848665.27545  -7658350.52747  22187787.259    22187786.4114   22187787.2114
        46.2004         43.3004
 -21566679.38347 -16781456.44048  20271298.831    20271298.7304   20271303.0074
        50.8004         48.0004
 16  6 10  2  6 30.0000000  0  8G19G 6G30G23G 3G 7G 2G 9
                     59470.90753  25582469.056
                        23.4004
 -11287412.00346  -8782223.85547  20920901.894    20920902.7884   20920907.8934
        48.8004         45.8004
  -5646939.55743  -4365378.19646  23991374.571    23991374.7784   23991378.9474
        39.0004         36.6004
 -16452526.18646 -12536631.30847  21770698.479    21770697.8354   21770698.8724
        46.5004         43.7004
  -1632787.06943  -1248117.95246  24182781.098    24182780.5234   24182785.2964
        38.3004         36.0004
 -10546236.93045  -8199017.57747  22106367.791    22106367.9004   22106371.1484
        45.1004         42.3004
  -9904179.61545  -7701608.46047  22177223.355    22177222.9994   22177223.0314
        46.2004         43.3004
 -21542621.51147 -16762710.04648  20275876.841    20275876.8984   20275880.9694
        50.8004         48.0004
 16  6 10  2  7  0.0000000  0  8G19G 6G30G23G 3G 7G 2G 9
                    137800.01055  25601596.233
                        30.1004
 -11245298.28246  -8749407.97047  20928916.056    20928916.5124   20928921.5574
        48.6004         45.6004
  -5759361.89043  -4452979.97446  23969979.850    23969980.5084   23969985.8154
        38.9004         36.4004
 -16387397.26346 -12485881.50247  21783092.157    21783091.8874   21783092.2404
        46.5004         43.5004
  -1535504.60743  -1172313.46445  24201293.627    24201291.4714   24201296.6014
        38.0004         35.7004
 -10630433.63545  -8264625.39247  22090344.980    22090345.9414   22090347.9424
        45.1004         42.3004
  -9959232.91245  -7744507.12647  22166747.006    22166746.3124   22166746.6704
        46.2004         43.3004
 -21518155.54947 -16743645.66748  20280532.907    20280532.6734   20280536.8054
        50.8004         48.0004
 16  6 10  2  7 30.0000000  0  8G19G 6G30G23G 3G 7G 2G 9
                    216105.43955  25620728.530
                        30.0004
 -11202619.29446  -8716151.62647  20937037.877    20937038.4254   20937043.3614
        48.6004         45.8004
  -5871690.04643  -4540508.35646  23948605.059    23948604.4334   23948611.1894
        38.7004         36.4004
 -16322013.50146 -12434933.11747  21795534.852    21795534.2484   21795534.6044
        46.5004         43.7004
  -1438095.20143  -1096410.05945  24219829.019    24219827.3904   24219834.2474
        37.6004         35.3004
 -10714282.85245  -8329962.43547  22074389.339    22074390.1304   22074392.1084
        45.1004         42.5004
 -10013823.26945  -7787045.06347  22156358.978    22156358.2974   22156358.3264
        46.0004         43.2004
 -21493282.59247 -16724264.14248  20285265.906    20285265.6474   20285269.9574
        50.8004         48.0004
 16  6 10  2  8  0.0000000  0  8G19G 6G30G23G 3G 7G 2G 9
                     52895.21853  25639854.685
                        23.4004
 -11159376.28746  -8682455.78547  20945266.924    20945267.5054   20945273.0724
        48.6004         45.8004
  -5983921.46243  -4627961.40746  23927247.722    23927248.2374   23927253.5124
        38.5004         36.2004
 -16256376.38345 -12383787.32147  21808024.367    21808024.1634   21808024.2004
        46.3004         43.3004
  -1340559.73442  -1020408.41145  24238384.291    24238388.4154   24238395.6404
        37.5004         35.5004
 -10797782.23545  -8395026.87147  22058502.026    22058501.3044   22058503.6584
        45.3004         42.6004
 -10067949.18245  -7829221.08847  22146058.413    22146058.2924   22146058.7484
        46.0004         43.0004
 -21468003.79647 -16704566.38048  20290075.738    20290075.9354   20290080.3204
        50.8004         48.0004
 16  6 10  2  8 30.0000000  0  7G 6G30G23G 3G 7G 2G 9
 -11115570.58646  -8648321.48447  20953602.872    20953603.2394   20953608.8054
        48.6004         45.8004
  -6096053.52843  -4715337.03246  23905911.280    23905910.7604   23905915.2564
        38.5004         36.2004
 -16190487.23745 -12332445.13247  21820562.638    21820562.7224   21820562.5484
        46.3004         43.3004
  -1242899.16643   -944309.27945  24256973.069    24256972.4114   24256979.3484
        37.6004         35.5004
 -10880929.74645  -8459817.11747  22042677.540    22042677.6924   22042681.3994
        45.5004         42.6004
 -10121608.34445  -7871033.42647  22135847.463    22135847.1414   22135847.8754
        45.6004         42.8004
 -21442320.28447 -16684553.25048  20294963.581    20294963.5844   20294967.9204
        50.8004         48.0004
 16  6 10  2  9  0.0000000  0  7G 6G30G23G 3G 7G 2G 9
 -11071203.50246  -8613749.73147  20962044.701    20962045.6774   20962051.5084
        48.6004         45.8004
  -6208083.63543  -4802633.20846  23884593.387    23884592.9734   23884597.2774
        38.5004         36.4004
 -16124347.44045 -12280907.63347  21833148.994    21833148.8984   21833148.6184
        46.2004         43.3004
  -1145114.44543   -868113.46645  24275585.454    24275579.4614   24275587.6254
        37.6004         35.5004
 -10963722.82645  -8524331.19547  22026922.284    22026923.0524   22026925.8844
        45.5004         42.6004
 -10174798.91745  -7912480.61647  22125725.534    22125725.1464   22125725.6484
        45.8004         43.0004
 -21416233.19347 -16664225.64148  20299927.783    20299927.8764   20299932.1994
        50.8004         48.2004
 16  6 10  2  9 30.0000000  0  7G 6G30G23G 3G 7G 2G 9
 -11026276.35746  -8578741.57347  20970595.148    20970595.5094   20970601.1454
        48.8004         45.9004
  -6320009.26043  -4889847.94346  23863295.293    23863294.2624   23863296.9214
        38.5004         36.4004
 -16057958.15745 -12229175.72147  21845782.857    21845782.2544   21845782.2384
        46.2004         43.2004
  -1047206.46243   -791821.59445  24294208.132    24294211.5344   24294218.8034
        37.8004         35.7004
 -11046159.08945  -8588567.23047  22011236.282    22011236.7404   22011238.8744
        45.5004         42.6004
 -10227518.77945  -7953561.02347  22115693.630    22115692.7164   22115693.7354
        46.0004         43.2004
 -21389743.66747 -16643584.45648  20304968.608    20304968.7894   20304972.9794
        50.8004         48.2004
 16  6 10  2 10  0.0000000  0  7G 6G30G23G 3G 7G 2G 9
 -10980790.52246  -8543298.06847  20979250.549    20979251.2644   20979255.9654
        48.8004         45.9004
  -6431827.79643  -4976979.25646  23842015.889    23842014.4604   23842018.7944
        38.5004         36.2004
 -15991321.00745 -12177250.68347  21858463.184    21858462.8164   21858462.8544
        46.2004         43.3004
   -949176.05043   -715434.25545  24312863.909    24312866.6204   24312872.4534
        38.0004         35.9004
 -11128236.26945  -8652523.45547  21995617.155    21995617.6834   21995619.7394
        45.5004         42.8004
 -10279766.23645  -7994273.31547  22105751.238    22105750.0274   22105750.8294
        45.8004         43.0004
 -21362852.83647 -16622630.56648  20310085.880    20310085.9234   20310090.0934
        51.0004         48.2004
 16  6 10  2 10 30.0000000  0  7G 6G30G23G 3G 7G 2G 9
 -10934747.36946  -8507420.29547  20988012.036    20988012.7624   20988017.4124
        48.8004         45.8004
  -6543536.61343  -5064025.07546  23820758.992    23820757.5054   23820761.8544
        38.9004         36.6004
 -15924437.46845 -12125133.62847  21871190.093    21871190.1654   21871190.4744
        46.2004         43.2004
   -851024.12443   -638952.24545  24331545.158    24331544.5164   24331549.3954
        38.0004         35.9004
 -11209951.96545  -8716198.01747  21980066.701    21980066.9994   21980069.6414
        45.6004         42.6004
 -10331539.27445  -8034615.93447  22095898.795    22095898.2984   22095899.4124
        45.8004         43.2004
 -21335561.88447 -16601364.88548  20315279.168    20315279.2074   20315283.3834
        51.0004         48.2004
 16  6 10  2 11  0.0000000  0  7G 6G30G23G 3G 7G 2G 9
 -10888148.28146  -8471109.32947  20996879.997    20996880.6404   20996885.6624
        48.8004         45.9004
  -6655133.13143  -5150983.38346  23799522.794    23799522.1644   23799525.8374
        39.0004         36.6004
 -15857308.94745 -12072825.69947  21883964.427    21883964.4424   21883964.3724
        46.0004         43.0004
   -752751.69543   -562376.37245  24350249.351    24350246.5704   24350250.3704
        37.8004         35.5004
 -11291304.16045  -8779589.32547  21964585.699    21964586.1844   21964589.0364
        45.6004         42.8004
 -10382836.31645  -8074587.65747  22086138.079    22086137.0854   22086137.9704
        46.0004         43.3004
 -21307871.96747 -16579788.32648  20320548.369    20320548.4974   20320552.7654
        51.0004         48.2004
 16  6 10  2 11 30.0000000  0  7G 6G30G23G 3G 7G 2G 9
 -10840994.68946  -8434366.27247  21005852.985    21005853.4284   21005858.5734
        48.8004         45.9004
  -6766614.81343  -5237852.20246  23778309.140    23778307.9464   23778312.1924
        39.0004         36.7004
 -15789936.56645 -12020327.74947  21896784.564    21896784.3844   21896784.8644
        45.8004         43.2004
   -654359.60242   -485707.24345  24368971.213    24368968.8584   24368973.1114
        37.5004         35.3004
 -11372290.35545  -8842695.44447  21949175.413    21949175.2834   21949177.9964
        45.8004         43.0004
 -10433655.27345  -8114186.84047  22076467.222    22076467.1424   22076467.2394
        46.0004         43.3004
 -21279784.22047 -16557901.76848  20325893.347    20325893.2634   20325897.5814
        51.0004         48.2004
 16  6 10  2 12  0.0000000  0  7G 6G30G23G 3G 7G 2G 9
 -10793288.04946  -8397192.27447  21014931.044    21014931.6604   21014936.2684
        48.8004         45.8004
  -6877979.01143  -5324629.46746  23757115.133    23757114.7824   23757120.7054
        39.2004         37.1004
 -15722321.85045 -11967640.95747  21909652.073    21909651.3134   21909652.2964
        46.0004         43.2004
   -555848.88542   -408945.61945  24387707.102    24387713.8984   24387719.4654
        37.3004         35.2004
 -11452908.36445  -8905514.65247  21933834.487    21933834.1484   21933837.1694
        46.0004         43.2004
 -10483994.42945  -8153412.14847  22066888.166    22066887.4994   22066887.8584
        46.0004         43.2004
 -21251299.88147 -16535706.18448  20331313.920    20331313.9184   20331317.8774
        51.0004         48.2004
 16  6 10  2 12 30.0000000  0  7G 6G30G23G 3G 7G 2G 9
 -10745029.78846  -8359588.44647  21024114.291    21024114.6824   21024120.0124
        48.6004         45.8004
  -6989223.12843  -5411313.15546  23735945.823    23735945.6974   23735951.7354
        39.6004         37.1004
 -15654465.92145 -11914766.21547  21922564.591    21922564.0964   21922564.7324
        46.0004         43.2004
   -457220.43442   -332092.30345  24406478.176    24406479.7244   24406489.5724
        37.1004         35.2004
 -11533155.99545  -8968045.26847  21918563.105    21918563.7754   21918566.6874
        46.0004         43.2004
 -10533851.71045  -8192261.97547  22057400.721    22057400.4474   22057400.6834
        45.8004         43.0004
 -21222420.04147 -16513202.41348  20336809.417    20336809.4964   20336813.4934
        51.0004         48.2004
 16  6 10  2 13  0.0000000  0  7G 6G30G23G 3G 7G 2G 9
 -10696221.40146  -8321555.94547  21033402.192    21033402.6354   21033408.1824
        48.6004         45.8004
  -7100344.60643  -5497901.30146  23714800.212    23714799.6804   23714806.1394
        39.6004         37.1004
 -15586370.21945 -11861704.63447  21935522.926    21935522.2814   21935522.9724
        46.0004         43.2004
   -358475.06042   -255147.89445  24425272.496    24425272.5264   24425278.9474
        37.0004         35.0004
 -11613031.11545  -9030285.61947  21903362.918    21903363.7074   21903366.8054
        46.0004         43.2004
 -10583225.44745  -8230735.02347  22048005.417    22048004.2964   22048004.9924
        45.6004         42.6004
 -21193145.88747 -16490391.38948  20342379.995    20342380.1414   20342384.2904
        51.0004         48.2004
 16  6 10  2 13 30.0000000  0  7G 6G30G23G 3G 7G 2G 9
 -10646864.40046  -8283095.94947  21042794.267    21042794.6754   21042800.5984
        48.6004         45.6004
  -7211340.80743  -5584391.82346  23693678.758    23693678.6204   23693683.2424
        39.6004         37.1004
 -15518036.05545 -11808457.24447  21948525.944    21948525.4004   21948526.5014
        46.2004         43.3004
   -259613.74942   -178113.13045  24444092.212    24444087.1504   24444092.6594
        37.0004         35.0004
 -11692531.32945  -9092233.82447  21888235.264    21888235.2994   21888237.9414
        46.0004         43.2004
 -10632114.03945  -8268830.00347  22038701.564    22038701.1084   22038701.2354
        45.3004         42.5004
 -21163478.62147 -16467274.03548  20348025.724    20348025.5304   20348029.7674
        51.0004         48.2004
 16  6 10  2 14  0.0000000  0  7G 6G30G23G 3G 7G 2G 9
 -10596960.28846  -8244209.64147  21052291.470    21052291.6444   21052297.1364
        48.6004         45.6004
  -7322209.12243  -5670782.69346  23672581.816    23672580.2734   23672585.8334
        39.4004         37.1004
 -15449464.95545 -11755025.22847  21961575.390    21961574.8144   21961574.5444
        46.2004         43.3004
   -160637.48442   -100988.79245  24462921.366    24462921.4144   24462928.2674
        37.1004         35.2004
 -11771654.39845  -9153888.15847  21873178.320    21873178.3154   21873181.2794
        46.0004         43.0004
 -10680515.20345  -8306545.19147  22029491.435    22029491.2924   22029490.9534
        45.3004         42.6004
 -21133419.43647 -16443851.29548  20353745.176    20353745.4754   20353749.6614
        50.8004         48.0004
 16  6 10  2 14 30.0000000  0  7G 6G30G23G 3G 7G 2G 9
 -10546510.61946  -8204898.21547  21061891.563    21061892.1464   21061896.9484
        48.6004         45.8004
  -7432946.99143  -5757071.94746  23651507.820    23651507.6944   23651513.1644
        39.4004         36.7004
 -15380658.25845 -11701409.62847  21974668.774    21974668.1964   21974667.9334
        46.0004         43.2004
    -61547.30242    -23775.64745  24481772.067    24481776.0144   24481781.9374
        37.3004         35.3004
 -11850398.44345  -9215247.14447  21858193.935    21858194.4984   21858196.6414
        46.0004         43.3004
 -10728427.63545  -8343879.55147  22020374.245    22020373.2294   22020373.5894
        45.3004         42.3004
 -21102969.52547 -16420124.09348  20359539.559    20359539.6174   20359544.0014
        50.8004         48.0004
 16  6 10  2 15  0.0000000  0  7G 6G30G23G 3G 7G 2G 9
 -10495516.94646  -8165162.89347  21071595.047    21071595.7044   21071600.5734
        48.4004         45.6004
  -7543551.83443  -5843257.52646  23630460.127    23630460.6274   23630465.1864
        39.2004         36.7004
 -15311617.41445 -11647611.57247  21987806.910    21987806.3314   21987806.4504
        46.0004         43.0004
     37656.04342     53525.65945  24500652.036    24500653.7464   24500659.9974
        37.5004         35.3004
 -11928760.72945  -9276308.65147  21843283.379    21843283.2064   21843284.8554
        46.2004         43.5004
 -10775849.60645  -8380831.72347  22011349.574    22011349.3644   22011349.7774
        45.1004         42.1004
 -21072130.05247 -16396093.33348  20365408.597    20365408.3984   20365413.1154
        50.8004         48.0004
 16  6 10  2 15 30.0000000  0  7G 6G30G23G 3G 7G 2G 9
 -10443980.87446  -8125004.92047  21081401.887    21081402.6454   21081408.0184
        48.2004         45.4004
  -7654020.99843  -5929337.39046  23609438.830    23609439.2904   23609442.8924
        39.0004         36.6004
 -15242343.45345 -11593631.86347  22000988.272    22000988.4824   22000988.3754
        45.8004         43.0004
    136971.51742    130914.31645  24519556.160    24519554.6454   24519560.2854
        37.5004         35.2004
 -12006739.32645  -9337071.18047  21828444.057    21828443.8624   21828446.0914
        46.3004         43.7004
 -10822779.05145  -8417400.11547  22002419.672    22002419.1854   22002419.0224
        45.1004         42.5004
 -21040902.23947 -16371759.97048  20371350.609    20371350.5694   20371355.3394
        50.8004         48.0004
 16  6 10  2 16  0.0000000  0  7G 6G30G23G 3G 7G 2G 9
 -10391903.95746  -8084425.51547  21091311.893    21091312.1114   21091317.6754
        48.2004         45.4004
  -7764351.88143  -6015309.51146  23588443.015    23588444.0174   23588448.9204
        38.9004         36.6004
 -15172837.67945 -11539471.52947  22014215.979    22014215.5564   22014215.6114
        45.8004         43.2004
    236398.27542    208389.67245  24538481.812    24538476.2584   24538481.0064
        37.5004         35.3004
 -12084331.94146  -9397532.95747  21813678.290    21813678.0424   21813681.1534
        46.5004         43.7004
 -10869214.47945  -8453583.55747  21993582.951    21993582.2694   21993583.2414
        45.3004         42.5004
 -21009287.26947 -16347124.92747  20377366.883    20377366.8294   20377371.3904
        50.7004         47.8004
 16  6 10  2 16 30.0000000  0  8G 6G30G16G23G 3G 7G 2G 9
 -10339287.83946  -8043425.95447  21101324.307    21101324.8144   21101330.1054
        48.1004         45.2004
  -7874541.90443  -6101171.86546  23567475.817    23567475.3804   23567480.3894
        39.0004         36.7004
                   -111268.58155  24388605.964                    24388604.1654
                        34.1004
 -15103101.81445 -11485131.90947  22027485.051    22027485.1744   22027485.3864
        45.8004         43.0004
    335935.28443    285950.97245  24557414.773    24557417.6074   24557421.5214
        37.6004         35.5004
 -12161536.34046  -9457692.22247  21798986.496    21798987.0894   21798989.0734
        46.5004         43.7004
 -10915154.19745  -8489380.72747  21984840.243    21984839.9284   21984840.5084
        45.3004         42.5004
 -20977286.36147 -16322189.15747  20383456.779    20383456.6124   20383461.1544
        50.7004         47.8004
 16  6 10  2 17  0.0000000  0  8G 6G30G16G23G 3G 7G 2G 9
 -10286134.18646  -8002007.52747  21111438.929    21111439.4864   21111445.2614
        48.1004         45.2004
  -7984588.51643  -6186922.44446  23546534.515    23546534.1224   23546539.9714
        39.2004         36.9004
   -197544.95042   -144380.67645  24380514.938    24380511.8044   24380514.6484
        35.6004         34.1004
 -15033136.97645 -11430613.85847  22040800.117    22040799.8914   22040799.5824
        45.8004         43.0004
    435581.50442    363597.45245  24576371.620    24576376.5664   24576382.7864
        37.5004         35.2004
 -12238350.56646  -9517547.45147  21784368.270    21784369.7384   21784372.1984
        46.5004         43.5004
 -10960596.35345  -8524790.19847  21976193.459    21976192.5674   21976193.4424
        45.3004         42.8004
 -20944900.73147 -16296953.60547  20389619.179    20389619.2104   20389624.0614
        50.7004         47.8004
 16  6 10  2 17 30.0000000  0  8G 6G30G16G23G 3G 7G 2G 9
 -10232444.63146  -7960171.51547  21121655.900    21121656.5414   21121661.9824
        48.1004         45.2004
  -8094489.02343  -6272559.19446  23525621.871    23525621.4514   23525625.4944
        39.6004         37.3004
   -239523.34842   -177091.12745  24372522.143    24372524.3934   24372528.9334
        36.1004         34.5004
 -14962944.46045 -11375918.40147  22054156.877    22054156.7604   22054156.2344
        45.6004         42.6004
    535336.21542    441328.35845  24595359.863    24595360.3534   24595365.2074
        37.3004         35.2004
 -12314772.22745  -9577096.77847  21769826.311    21769827.2704   21769829.4024
        46.3004         43.5004
 -11005539.22245  -8559810.61147  21967641.270    21967640.9464   21967641.2784
        45.6004         42.8004
 -20912131.59847 -16271419.21247  20395855.237    20395855.3484   20395859.4894
        50.7004         47.8004
 16  6 10  2 18  0.0000000  0  8G 6G30G16G23G 3G 7G 2G 9
 -10178220.86046  -7917919.23647  21131974.754    21131975.0584   21131979.9694
        48.1004         45.2004
  -8204240.90543  -6358080.10346  23504735.821    23504734.4594   23504739.7244
        39.6004         37.1004
   -280984.32652   -209398.38255  24364630.413    24364632.0224   24364637.2864
        36.1004         34.3004
 -14892525.58645 -11321046.55247  22067558.075    22067557.2174   22067556.9464
        45.6004         42.8004
    635198.26242    519142.90745  24614362.534    24614362.5194   24614368.8294
        37.3004         35.3004
 -12390799.22245  -9636338.56647  21755360.341    21755359.7194   21755362.2724
        46.3004         43.7004
 -11049981.16045  -8594440.69247  21959184.724    21959183.7624   21959183.9914
        45.8004         42.8004
 -20878980.14747 -16245586.91247  20402163.810    20402163.8434   20402167.9704
        50.7004         47.8004
 16  6 10  2 18 30.0000000  0  8G 6G30G16G23G 3G 7G 2G 9
 -10123464.55246  -7875251.99547  21142394.249    21142394.9344   21142399.5154
        47.9004         45.1004
  -8313841.46643  -6443483.11846  23483879.460    23483878.3864   23483884.4264
        39.6004         37.3004
   -321925.64942   -241300.70345  24356842.221    24356842.6014   24356844.5484
        35.9004         34.0004
 -14821881.69145 -11265999.37147  22080999.703    22080999.5294   22081000.4254
        45.6004         42.8004
    735166.77843    597040.46045  24633391.055    24633387.4444   24633392.9504
        37.6004         35.7004
 -12466429.48446  -9695271.22147  21740967.024    21740967.2104   21740970.5354
        46.5004         43.7004
 -11093920.72045  -8628679.29747  21950822.864    21950822.4884   21950822.2154
        45.6004         42.6004
 -20845447.61747 -16219457.66547  20408544.512    20408544.7944   20408549.0474
        50.7004         47.8004
 16  6 10  2 19  0.0000000  0  8G 6G30G16G23G 3G 7G 2G 9
 -10068177.47646  -7832171.16047  21152914.694    21152915.3434   21152920.5714
        47.9004         45.1004
  -8423288.16943  -6528766.24746  23463049.920    23463051.2324   23463057.8054
        39.6004         37.3004
   -362345.07742   -272796.30245  24349154.668    24349152.6074   24349155.8034
        35.9004         34.1004
 -14751013.91645 -11210777.73947  22094486.145    22094485.8774   22094486.1684
        45.6004         42.8004
    835240.79443    675020.17145  24652430.628    24652431.1174   24652436.1514
        37.8004         35.7004
 -12541661.02946  -9753893.20047  21726651.797    21726651.4484   21726654.2514
        46.5004         43.7004
 -11137355.93445  -8662524.92047  21942557.781    21942557.2174   21942556.6934
        45.5004         42.6004
 -20811535.23947 -16193032.43147  20414998.236    20414998.1304   20415002.5844
        50.7004         47.8004
 16  6 10  2 19 30.0000000  0  8G 6G30G16G23G 3G 7G 2G 9
 -10012361.31146  -7788678.06047  21163536.965    21163537.6154   21163542.1734
        47.9004         45.2004
  -8532578.39443  -6613927.44046  23442253.165    23442253.4154   23442259.4784
        39.7004         37.4004
   -402240.50742   -303883.68445  24341561.697    24341558.0674   24341561.4544
        35.9004         34.3004
 -14679924.10445 -11155383.10247  22108014.371    22108013.6884   22108014.2034
        45.6004         42.8004
    935419.34643    753081.40946  24671490.429    24671493.3594   24671501.0484
        38.2004         36.2004
 -12616491.73245  -9812202.82347  21712411.646    21712411.4494   21712413.7364
        46.3004         43.5004
 -11180285.43245  -8695976.47847  21934388.350    21934388.0154   21934388.0904
        45.6004         43.0004
 -20777244.24547 -16166312.17848  20421523.535    20421523.6354   20421527.8044
        50.7004         48.0004
 16  6 10  2 20  0.0000000  0  8G 6G30G16G23G 3G 7G 2G 9
  -9956017.84846  -7744774.06547  21174258.259    21174258.8334   21174264.2294
        48.1004         45.2004
  -8641709.53043  -6698964.68246  23421488.330    23421488.2424   23421492.0384
        39.7004         37.4004
   -441609.65742   -334560.95245  24334069.877    24334070.0494   24334068.6214
        36.3004         34.6004
 -14608613.38045 -11099816.31047  22121583.465    22121583.5074   22121584.9764
        45.6004         42.8004
   1035701.48343    831223.30046  24690577.006    24690576.7374   24690584.6464
        38.3004         36.0004
 -12690919.24545  -9870198.27947  21698247.417    21698248.5924   21698250.7514
        46.3004         43.5004
 -11222707.47745  -8729032.61147  21926315.639    21926315.4544   21926315.8384
        45.8004         43.0004
 -20742575.86347 -16139297.85047  20428120.366    20428120.4694   20428124.9364
        50.7004         47.8004
 16  6 10  2 20 30.0000000  0  8G 6G30G16G23G 3G 7G 2G 9
  -9899148.84146  -7700460.56147  21185080.796    21185081.4014   21185085.7204
        48.2004         45.4004
  -8750679.01743  -6783875.94346  23400751.736    23400751.3154   23400755.7614
        39.9004         37.4004
   -480451.18142   -364827.05845  24326679.830    24326680.3574   24326680.2104
        36.8004         35.0004
 -14537082.89345 -11044078.28747  22135194.601    22135194.6974   22135196.2124
        45.5004         42.6004
   1136086.18343    909445.09845  24709679.915    24709680.2334   24709685.6744
        38.2004         35.9004
 -12764941.52846  -9927877.98647  21684162.264    21684162.8874   21684164.8064
        46.5004         43.7004
 -11264620.38945  -8761692.01947  21918339.631    21918339.2404   21918339.4744
        45.8004         43.0004
 -20707531.28647 -16111990.38647  20434789.255    20434789.1594   20434793.6884
        50.7004         47.8004
 16  6 10  2 21  0.0000000  0  8G 6G30G16G23G 3G 7G 2G 9
  -9841756.10146  -7655738.95447  21196001.718    21196002.0914   21196007.3734
        48.1004         45.2004
  -8859484.18343  -6868659.16846  23380047.754    23380047.3814   23380051.2294
        39.9004         37.6004
   -518762.62442   -394680.12745  24319389.275    24319389.0164   24319390.2764
        36.6004         34.5004
 -14465334.00045 -10988170.06547  22148848.324    22148848.5674   22148849.5314
        45.5004         42.6004
   1236572.54343    987746.13045  24728802.156    24728801.2144   24728807.7644
        38.0004         35.9004
 -12838556.40846  -9985240.21347  21670154.035    21670154.5724   21670156.0214
        46.5004         43.7004
 -11306022.79345  -8793953.63047  21910461.048    21910460.3654   21910460.6964
        45.6004         42.8004
 -20672111.81347 -16084390.79247  20441529.249    20441529.1914   20441533.8004
        50.7004         47.8004
 16  6 10  2 21 30.0000000  0  8G 6G30G16G23G 3G 7G 2G 9
  -9783841.40146  -7610610.62647  21207022.567    21207023.3134   21207028.3344
        48.1004         45.2004
  -8968122.46543  -6953312.37846  23359374.210    23359373.8764   23359378.4344
        40.1004         37.8004
   -556541.91542   -424118.54145  24312200.890    24312199.9514   24312202.5454
        36.4004         34.5004
 -14393368.02045 -10932092.69047  22162542.555    22162542.3384   22162544.4534
        45.5004         42.6004
   1337159.57343   1066125.54645  24747946.217    24747943.3914   24747948.1544
        37.8004         35.5004
 -12911762.21746 -10042283.68947  21656223.224    21656223.5884   21656225.8784
        46.5004         43.7004
 -11346912.91345  -8825816.06547  21902679.587    21902679.1174   21902680.2194
        45.6004         43.0004
 -20636318.64347 -16056500.01047  20448340.909    20448340.9374   20448344.8574
        50.7004         47.8004
 16  6 10  2 22  0.0000000  0  8G 6G30G16G23G 3G 7G 2G 9
  -9725406.60446  -7565077.03447  21218142.244    21218142.4804   21218148.0524
        48.1004         45.2004
  -9076591.28643  -7037833.51046  23338734.188    23338733.3544   23338737.8884
        40.3004         37.8004
   -593786.95342   -453140.64845  24305112.736    24305110.8824   24305114.0454
        36.4004         34.6004
 -14321186.27445 -10875847.17747  22176278.939    22176278.8184   22176280.1644
        45.5004         42.6004
   1437846.32743   1144582.74145  24767101.329    24767102.0214   24767107.4504
        37.6004         35.3004
 -12984556.90946 -10099006.81247  21642371.276    21642370.7814   21642373.4334
        46.5004         43.7004
 -11387289.33245  -8857278.20447  21894996.439    21894996.4184   21894996.2024
        46.0004         43.3004
 -20600153.05647 -16028319.03148  20455222.954    20455222.9784   20455227.1184
        50.7004         48.0004
 16  6 10  2 22 30.0000000  0  8G 6G30G16G23G 3G 7G 2G 9
  -9666453.56846  -7519139.60647  21229360.213    21229360.9954   21229366.4414
        48.1004         45.2004
  -9184888.00243  -7122220.54046  23318124.907    23318124.5124   23318129.9624
        40.3004         37.9004
   -630495.91342   -481744.99145  24298124.021    24298124.2844   24298127.0294
        36.3004         34.5004
 -14248790.05345 -10819434.55647  22190054.943    22190054.6884   22190056.3604
        45.3004         42.5004
   1538631.79243   1223116.84045  24786276.241    24786279.9264   24786287.8874
        38.0004         35.9004
 -13056937.83846 -10155407.52147  21628597.531    21628596.8454   21628599.9834
        46.5004         43.7004
 -11427150.57845  -8888338.90347  21887410.313    21887410.1864   21887410.9014
        46.2004         43.3004
 -20563616.26347 -15999848.79848  20462176.131    20462175.7834   20462180.0814
        50.8004         48.0004
 16  6 10  2 23  0.0000000  0  8G 6G30G16G23G 3G 7G 2G 9
  -9606984.11146  -7472799.78347  21240677.899    21240678.0824   21240682.8054
        48.1004         45.2004
  -9293010.02443  -7206471.45746  23297547.774    23297548.9804   23297554.9564
        40.4004         37.9004
   -666666.96242   -509930.19545  24291243.501    24291243.5134   24291247.0074
        36.3004         34.6004
 -14176180.52445 -10762855.71347  22203873.180    22203872.1664   22203873.1314
        45.3004         42.5004
   1639515.03243   1301727.14845  24805475.674    24805476.3874   24805484.3944
        37.8004         35.5004
 -13128903.41746 -10211484.57847  21614902.088    21614902.6554   21614905.2244
        46.5004         43.7004
 -11466495.02145  -8918996.90647  21879924.135    21879923.3324   21879923.7984
        46.0004         43.2004
 -20526709.52447 -15971090.30048  20469199.174    20469199.1324   20469203.0684
        50.8004         48.0004
 16  6 10  2 23 30.0000000  0  8G 6G30G16G23G 3G 7G 2G 9
  -9547000.16946  -7426059.05947  21252092.218    21252092.4974   21252097.6174
        48.1004         45.2004
  -9400954.77644  -7290584.24646  23277005.758    23277007.4024   23277012.5964
        40.6004         38.1004
   -702297.53542   -537694.31645  24284463.133    24284460.7774   24284465.2584
        36.6004         34.8004
 -14103359.12145 -10706111.77947  22217729.526    22217729.5084   22217730.8494
        45.1004         42.3004
   1740495.06643   1380412.83646  24824700.977    24824695.0744   24824699.8424
        38.2004         36.0004
 -13200451.60846 -10267236.40847  21601286.645    21601287.5614   21601290.0714
        46.5004         43.7004
 -11505321.13545  -8949251.01447  21872535.587    21872535.1924   21872535.6374
        46.0004         43.2004
 -20489434.08347 -15942044.50448  20476292.046    20476292.1624   20476296.4424
        50.8004         48.0004
 16  6 10  2 24  0.0000000  0  8G 6G30G16G23G 3G 7G 2G 9
  -9486503.58946  -7378918.87447  21263604.703    21263605.1294   21263609.8364
        48.1004         45.2004
  -9508719.65844  -7374556.84846  23256502.035    23256500.8684   23256506.5384
        41.1004         38.6004
   -737386.41342   -565036.30745  24277784.091    24277784.7884   24277788.5084
        36.6004         34.6004
 -14030327.12945 -10649203.74347  22231628.000    22231627.5074   22231628.3344
        45.3004         42.3004
   1841570.95143   1459173.21446  24843934.626    24843929.9854   24843934.7014
        38.2004         36.2004
 -13271580.25546 -10322661.31547  21587752.600    21587752.7844   21587754.3044
        46.7004         43.9004
 -11543627.51745  -8979100.14547  21865246.317    21865246.0234   21865245.9844
        46.0004         43.2004
 -20451791.19947 -15912712.39047  20483454.796    20483455.1854   20483459.5264
        50.7004         47.8004
 16  6 10  2 24 30.0000000  0  8G 6G30G16G23G 3G 7G 2G 9
  -9425496.34046  -7331380.76547  21275213.640    21275213.9924   21275219.1344
        48.1004         45.1004
  -9616302.01244  -7458387.26146  23236030.929    23236029.6094   23236034.3124
        41.5004         39.0004
   -771931.29742   -591954.39345  24271209.159    24271211.4344   24271215.7674
        36.8004         34.8004
 -13957085.93045 -10592132.69747  22245565.357    22245564.8854   22245565.6054
        45.1004         42.3004
   1942741.67143   1538007.52345  24863182.690    24863181.8674   24863186.3544
        38.2004         35.9004
 -13342287.48646 -10377757.85147  21574297.416    21574297.4314   21574299.4214
        46.7004         44.0004
 -11581412.69445  -9008543.13947  21858056.088    21858054.9784   21858055.6114
        46.0004         43.2004
 -20413782.13647 -15883094.93947  20490687.481    20490687.6724   20490692.2754
        50.7004         47.7004
 16  6 10  2 25  0.0000000  0  9G 6G30G16G26G23G 3G 7G 2G 9
  -9363980.32646  -7283446.22147  21286920.301    21286920.3624   21286925.8304
        47.9004         45.1004
  -9723699.30044  -7542073.44946  23215591.328    23215592.3024   23215597.1714
        41.8004         39.2004
   -805930.39642   -618447.19545  24264739.780    24264741.5184   24264745.4774
        36.8004         34.8004
     64834.07852     46581.92555  25020430.816    25020432.2624   25020438.8094
        36.6004         35.5004
 -13883636.73645 -10534899.57147  22259543.013    22259542.1494   22259541.9204
        44.9004         42.3004
   2044006.18143   1616914.88445  24882451.385    24882451.6984   24882457.8994
        38.2004         35.9004
 -13412571.10946 -10432524.29847  21560922.142    21560922.3334   21560925.0034
        46.9004         44.0004
 -11618675.17445  -9037578.82547  21850964.867    21850964.5224   21850964.9744
        45.8004         43.0004
 -20375408.14247 -15853193.12947  20497989.981    20497990.1374   20497994.6194
        50.5004         47.7004
 16  6 10  2 25 30.0000000  0  9G 6G30G16G26G23G 3G 7G 2G 9
  -9301957.52046  -7235116.77347  21298721.433    21298722.0564   21298728.0324
        47.9004         45.1004
  -9830908.90544  -7625613.39746  23195189.956    23195190.7034   23195195.6214
        41.6004         39.2004
   -839382.10342   -644513.43945  24258375.648    24258374.4084   24258377.0914
        36.4004         34.5004
     83267.47742     60945.57945  25023938.943    25023939.1994   25023946.4874
        37.1004         35.2004
 -13809980.48845 -10477505.10747  22273557.901    22273558.3564   22273558.3004
        44.9004         42.1004
   2145363.56243   1695894.61446  24901739.616    24901738.3324   24901744.9244
        38.3004         36.2004
 -13482429.29646 -10486959.24447  21547628.606    21547628.8164   21547631.6784
        46.9004         44.0004
 -11655413.70145  -9066206.24947  21843974.461    21843972.8704   21843973.8914
        46.0004         43.0004
 -20336670.47347 -15823007.93547  20505361.459    20505361.4454   20505366.0264
        50.3004         47.5004
 16  6 10  2 26  0.0000000  0  9G 6G30G16G26G23G 3G 7G 2G 9
  -9239429.89346  -7186393.94447  21310620.049    21310620.9634   21310626.8914
        47.9004         45.1004
  -9937928.25544  -7709005.08746  23174826.539    23174825.8474   23174830.0824
        41.6004         39.2004
   -872284.35242   -670151.50345  24252112.876    24252111.5084   24252116.5684
        36.1004         34.3004
    102251.12752     75737.96455  25027549.512    25027550.7864   25027557.2874
        37.5004         35.3004
 -13736118.76445 -10419950.53347  22287613.847    22287614.0494   22287614.7924
        44.9004         42.1004
   2246812.80543   1774945.95046  24921037.693    24921042.2424   24921050.2384
        38.3004         36.0004
 -13551860.35146 -10541061.35347  21534416.628    21534416.7504   21534418.7554
        46.7004         43.9004
 -11691626.59745  -9094424.08147  21837082.386    21837082.0194   21837082.4564
        45.8004         43.0004
 -20297570.42547 -15792540.36647  20512801.443    20512801.5344   20512806.5064
        50.3004         47.5004
 16  6 10  2 26 30.0000000  0  9G 6G30G16G26G23G 3G 7G 2G 9
  -9176399.38246  -7137279.27447  21322615.552    21322616.0214   21322620.8884
        47.9004         45.2004
 -10044754.77844  -7792246.52246  23154498.970    23154497.4184   23154502.6244
        41.6004         39.2004
   -904635.30942   -695360.01945  24245957.118    24245956.5724   24245959.8214
        35.7004         34.1004
    121784.51342     90958.76345  25031269.904    25031269.6854   25031275.8914
        37.5004         35.3004
 -13662052.87245 -10362236.88446  22301709.183    22301707.6744   22301708.4284
        44.9004         41.9004
   2348352.93443   1854068.10746  24940362.954    24940364.8744   24940373.0654
        38.3004         36.2004
 -13620861.84546 -10594828.73847  21521286.137    21521285.6634   21521288.5504
        46.7004         44.0004
 -11727312.38345  -9122231.19347  21830292.014    21830291.4634   21830292.2494
        46.0004         43.3004
 -20258109.23147 -15761791.38547  20520311.046    20520311.3114   20520315.8894
        50.3004         47.5004
 16  6 10  2 27  0.0000000  0  9G 6G30G16G26G23G 3G 7G 2G 9
  -9112868.04146  -7087774.34547  21334704.626    21334705.3374   21334710.2854
        47.9004         45.1004
 -10151385.79544  -7875335.61846  23134207.672    23134206.8814   23134211.7394
        41.8004         39.2004
   -936433.34842   -720137.69145  24239908.118    24239906.6434   24239908.9074
        35.4004         33.8004
    141867.22543    106607.60245  25035090.441    25035091.6014   25035098.4704
        37.8004         35.7004
 -13587784.11345 -10304365.13146  22315839.836    22315840.2554   22315840.3644
        44.8004         41.8004
   2449982.99943   1933260.28946  24959711.110    24959706.8434   24959712.2974
        38.3004         36.2004
 -13689432.01246 -10648260.03147  21508237.774    21508237.6864   21508239.9564
        46.7004         43.9004
 -11762469.81545  -9149626.59447  21823601.980    21823601.2414   21823601.8044
        46.0004         43.2004
 -20218288.14547 -15730761.96747  20527888.788    20527888.9894   20527893.6264
        50.3004         47.5004
 16  6 10  2 27 30.0000000  0  9G 6G30G16G26G23G 3G 7G 2G 9
  -9048837.87946  -7037880.72347  21346889.718    21346890.1584   21346894.9814
        47.9004         44.9004
 -10257818.80544  -7958270.43946  23113953.719    23113953.3154   23113957.6804
        41.8004         39.2004
   -967676.24542   -744482.82545  24233962.029    24233963.4424   24233964.8414
        35.7004         34.3004
    162498.72943    122684.05845  25039017.980    25039018.7004   25039023.5124
        37.8004         35.7004
 -13513313.58045 -10246336.16346  22330012.616    22330012.1594   22330012.8224
        44.6004         41.8004
   2551701.89843   2012521.71045  24979065.428    24979062.5084   24979067.6604
        38.2004         35.5004
 -13757569.00046 -10701353.77547  21495271.966    21495271.8834   21495273.7944
        46.9004         44.0004
 -11797097.66745  -9176609.34147  21817012.981    21817012.1024   21817012.3714
        46.3004         43.5004
 -20178108.47447 -15699453.13047  20535534.906    20535534.9144   20535539.8884
        50.3004         47.7004
 16  6 10  2 28  0.0000000  0  9G 6G30G16G26G23G 3G 7G 2G 9
  -8984310.92046  -6987599.98347  21359168.191    21359168.4224   21359173.7754
        47.7004         44.9004
 -10364051.13744  -8041048.85746  23093738.914    23093737.8214   23093742.9224
        42.0004         39.3004
   -998362.81342   -768394.45145  24228123.113    24228124.0144   24228123.4844
        35.7004         34.1004
    183678.52143    139187.74745  25043048.081    25043048.2144   25043055.6144
        37.6004         35.5004
 -13438642.52945 -10188150.93946  22344220.751    22344220.7544   22344221.8374
        44.6004         41.8004
   2653508.73343   2091851.69245  24998433.122    24998436.6754   24998441.5224
        37.6004         35.3004
 -13825270.97446 -10754108.55247  21482388.360    21482388.3364   21482390.7074
        46.9004         44.0004
 -11831194.61346  -9203178.39147  21810524.708    21810524.1634   21810524.3214
        46.5004         43.9004
 -20137571.46647 -15667865.85747  20543249.107    20543249.0634   20543253.6494
        50.3004         47.7004
 16  6 10  2 28 30.0000000  0  9G 6G30G16G26G23G 3G 7G 2G 9
  -8919289.24446  -6936933.76147  21371541.952    21371542.1644   21371547.0914
        47.7004         44.9004
 -10470080.26244  -8123668.93746  23073561.362    23073560.1134   23073565.5164
        42.0004         39.3004
  -1028491.08542   -791871.01645  24222390.800    24222389.9684   24222392.4094
        35.9004         34.3004
    205406.10143    156118.26445  25047182.638    25047183.5044   25047189.2914
        37.6004         35.5004
 -13363772.50945 -10129810.68546  22358469.504    22358469.2734   22358469.9124
        44.6004         41.8004
   2755402.46442   2171249.43445  25017821.424    25017824.7514   25017833.8524
        37.0004         34.8004
 -13892535.90546 -10806522.76847  21469587.806    21469587.9934   21469590.8524
        46.9004         43.9004
 -11864758.99246  -9229332.46047  21804137.521    21804137.0204   21804137.2784
        46.5004         43.7004
 -20096678.40047 -15636001.13747  20551031.261    20551030.9964   20551035.5074
        50.5004         47.7004
 16  6 10  2 29  0.0000000  0  9G 6G30G16G26G23G 3G 7G 2G 9
  -8853774.91646  -6885883.64847  21384008.253    21384008.8444   21384014.0584
        47.5004         44.7004
 -10575903.56244  -8206128.65946  23053422.940    23053422.6034   23053428.5514
        42.0004         39.3004
  -1058059.27842   -814911.16145  24216764.152    24216764.1324   24216765.0264
        36.3004         34.5004
    227680.84943    173475.16145  25051422.322    25051421.8904   25051426.6914
        37.8004         35.7004
 -13288704.64145 -10071316.24846  22372754.209    22372754.1144   22372754.5754
        44.6004         41.9004
   2857382.15242   2250714.07545  25037229.954    25037232.4894   25037236.8294
        36.6004         34.5004
 -13959361.90746 -10858594.96747  21456871.081    21456871.6394   21456873.8964
        46.9004         44.0004
 -11897789.86046  -9255070.80147  21797851.700    21797850.8024   21797851.9794
        46.5004         43.7004
 -20055430.55447 -15603859.96147  20558880.070    20558880.1114   20558884.7444
        50.5004         47.8004
