     2.10           OBSERVATION DATA    G (GPS)             RINEX VERSION / TYPE
teqc  2006Dec12     IGN-RGP             20160613 11:10:02UTCPGM / RUN BY / DATE
Linux 2.4.20-8|Pentium IV|gcc|Linux|486/DX+                 COMMENT
     2.11           OBSERVATION DATA    G (GPS)             COMMENT
teqc  2013Mar15     Observatoire de Pari20160613 00:52:11UTCCOMMENT
Linux 2.4.21-27.ELsmp|Opteron|gcc|Linux x86_64|=+           COMMENT
BIT 2 OF LLI FLAGS DATA COLLECTED UNDER A/S CONDITION       COMMENT
OPMT                                                        MARKER NAME
10001S006                                                   MARKER NUMBER
Automatic           BNM-SYRTE                               OBSERVER / AGENCY
02942               ASHTECH Z-XII3T     1L01-1D04           REC # / TYPE / VERS
00019               3S-02-TSADM     NONE                    ANT # / TYPE
  4202777.6220   171367.7610  4778659.9840                  APPROX POSITION XYZ
        0.0000        0.0000        0.0000                  ANTENNA: DELTA H/E/N
     1     1                                                WAVELENGTH FACT L1/2
     7    L1    L2    C1    P1    P2    S1    S2            # / TYPES OF OBSERV
 SNR is mapped to RINEX snr flag value [0-9]                COMMENT
  L1 & L2: min(max(int(snr_dBHz/6), 0), 9)                  COMMENT
pseudorange smoothing corrections not applied               COMMENT
  2016     6    12     0     0    0.0000000     GPS         TIME OF FIRST OBS
                                                            END OF HEADER
 16  6 12  0  0  0.0000000  0 10G17G31G11G23G 6G 1G 3G22G19G 9
  -8374281.54245  -6510895.17446  22383112.758    22383112.8394   22383116.9634
        44.8004         41.9004
  -4807980.03544  -3734153.79646  23810964.849    23810964.9894   23810968.0234
        41.1004         38.5004
   8643298.76141   7002225.32445  25461068.814    25461073.6604   25461077.1084
        34.0004         32.7004
 -20336465.87246 -15832603.77847  20760585.880    20760585.6894   20760586.6124
        49.1004         46.5004
  -5171245.06945  -4018284.10747  22029861.310    22029861.5144   22029866.9314
        46.2004         43.3004
  -3570736.01844  -2770256.19846  23247372.150    23247372.6944   23247380.1204
        40.6004         38.1004
 -19246879.95147 -14973735.04047  20824367.833    20824368.2614   20824372.0844
        49.6004         46.6004
  -9543246.44245  -7166074.28246  22310187.431    22310186.2724   22310188.6104
        44.2004         41.4004
 -14811872.11245 -11529528.66947  22198565.351    22198564.6694   22198566.4704
        45.5004         42.6004
 -14290942.16346 -11109920.00047  21589816.190    21589816.1564   21589821.1014
        46.5004         43.7004
 16  6 12  0  0 30.0000000  0 10G17G31G11G23G 6G 1G 3G22G19G 9
  -8314289.23745  -6464147.95646  22394529.080    22394529.2614   22394532.6944
        44.6004         41.8004
  -4762460.13444  -3698683.78446  23819626.369    23819628.0134   23819630.2904
        41.1004         38.5004
   8763024.93141   7095518.29845  25483854.118    25483855.0104   25483857.2094
        34.3004         33.1004
 -20365725.33546 -15855403.34547  20755018.375    20755017.9814   20755018.5714
        49.3004         46.5004
  -5251084.87445  -4080496.92047  22014668.262    22014668.2534   22014674.0024
        46.2004         43.3004
  -3468285.97444  -2690425.00646  23266869.390    23266869.1884   23266874.9014
        40.6004         37.9004
 -19201720.61947 -14938545.96247  20832961.037    20832961.5234   20832965.7344
        49.6004         46.6004
  -9469380.37045  -7108516.32246  22324242.765    22324242.1554   22324244.4464
        44.2004         41.4004
 -14788358.38645 -11511206.29047  22203039.567    22203038.5444   22203040.7704
        45.5004         42.6004
 -14372333.74346 -11173341.99247  21574328.114    21574328.1284   21574332.9624
        46.7004         43.9004
 16  6 12  0  1  0.0000000  0 10G17G31G11G23G 6G 1G 3G22G19G 9
  -8253830.05845  -6417036.94046  22406035.344    22406035.3204   22406037.5854
        44.6004         41.9004
  -4716399.88144  -3662792.68646  23828393.654    23828392.7814   23828395.3174
        40.9004         38.5004
   8882726.68842   7188792.22145  25506631.750    25506634.4354   25506637.9844
        34.9004         33.3004
 -20394508.85246 -15877832.05247  20749541.341    20749540.9224   20749541.2124
        49.3004         46.5004
  -5330608.92445  -4142463.68147  21999534.794    21999535.9484   21999540.4484
        46.0004         43.2004
  -3365633.20144  -2610435.82246  23286401.086    23286402.6044   23286409.3234
        40.6004         37.9004
 -19156256.41447 -14903119.31447  20841612.747    20841612.9614   20841617.3284
        49.6004         46.8004
  -9395329.56045  -7050814.42246  22338335.665    22338334.1574   22338336.2514
        44.2004         41.4004
 -14764231.55545 -11492406.15947  22207630.137    22207628.8444   22207631.7664
        45.3004         42.1004
 -14453350.30846 -11236471.76347  21558910.520    21558910.3764   21558915.5404
        46.7004         43.9004
 16  6 12  0  1 30.0000000  0 10G17G31G11G23G 6G 1G 3G22G19G 9
  -8192906.47345  -6369564.02746  22417628.781    22417628.5984   22417630.5924
        44.6004         41.8004
  -4669800.47544  -3626481.47346  23837259.088    23837259.7534   23837261.9654
        40.9004         38.1004
   9002402.23642   7282045.73045  25529402.860    25529405.0384   25529413.2524
        34.5004         32.9004
 -20422816.35246 -15899889.83247  20744154.163    20744153.9124   20744154.2524
        49.3004         46.5004
  -5409814.88845  -4204182.60547  21984462.626    21984463.1144   21984467.7534
        46.0004         43.2004
  -3262779.44143  -2530290.03346  23305973.920    23305975.3404   23305981.6454
        40.4004         37.9004
 -19110488.04047 -14867455.65647  20850321.961    20850322.9504   20850326.8804
        49.6004         46.8004
  -9321094.43045  -6992968.89746  22352461.591    22352461.6244   22352462.9334
        44.2004         41.8004
 -14739492.68645 -11473129.12447  22212338.710    22212338.0184   22212339.2744
        45.1004         42.3004
 -14533990.24846 -11299308.06147  21543566.075    21543566.0014   21543570.9174
        46.7004         43.9004
 16  6 12  0  2  0.0000000  0 10G17G31G11G23G 6G 1G 3G22G19G 9
  -8131521.35545  -6321731.49946  22429308.351    22429308.2884   22429311.5174
        44.4004         41.4004
  -4622663.49444  -3589751.37046  23846229.107    23846229.6514   23846233.8424
        40.6004         38.1004
   9122049.38942   7375277.13945  25552175.098    25552176.3094   25552181.4864
        34.9004         33.6004
 -20450647.80146 -15921576.65647  20738857.795    20738857.2874   20738858.2324
        49.1004         46.3004
  -5488700.48045  -4265651.88547  21969450.896    21969451.3974   21969456.2304
        45.8004         43.0004
  -3159726.30443  -2449988.89846  23325586.682    23325585.1534   23325591.6084
        40.3004         37.8004
 -19064416.18547 -14831555.52147  20859089.809    20859090.3754   20859094.2054
        49.6004         46.8004
  -9246676.17545  -6934980.68746  22366623.022    22366621.9094   22366624.0194
        44.2004         41.4004
 -14714143.02045 -11453376.14947  22217162.807    22217161.4784   22217163.2354
        45.3004         42.6004
 -14614252.02646 -11361849.68447  21528292.552    21528292.7204   21528296.7814
        46.7004         43.7004
 16  6 12  0  2 30.0000000  0 10G17G31G11G23G 6G 1G 3G22G19G 9
  -8069676.56245  -6273540.79346  22441077.948    22441078.5004   22441080.7724
        44.4004         41.8004
  -4574991.00644  -3552603.97546  23855302.329    23855301.6514   23855305.7314
        40.6004         37.9004
   9241666.37441   7468485.04845  25574941.170    25574937.6904   25574946.5974
        34.3004         33.1004
 -20478002.48546 -15942891.98147  20733652.007    20733651.9634   20733652.8494
        49.1004         46.5004
  -5567263.37045  -4326869.70047  21954501.085    21954501.2934   21954506.3354
        45.8004         43.2004
  -3056475.56043  -2369533.77046  23345233.362    23345233.4204   23345239.7314
        40.3004         37.6004
 -19018041.54747 -14795419.44747  20867914.610    20867914.9864   20867919.2104
        49.8004         47.0004
  -9172074.86245  -6876849.81346  22380820.279    22380819.1334   22380819.7084
        44.2004         41.6004
 -14688183.62645 -11433148.05547  22222102.157    22222101.5714   22222103.6654
        45.6004         43.0004
 -14694134.03246 -11424095.38947  21513091.809    21513091.5134   21513095.4944
        46.7004         43.9004
 16  6 12  0  3  0.0000000  0 10G17G31G11G23G 6G 1G 3G22G19G 9
  -8007374.61445  -6224993.84246  22452933.209    22452933.5434   22452936.7244
        44.6004         41.9004
  -4526784.27043  -3515040.27546  23864473.280    23864474.6554   23864477.7554
        40.3004         37.8004
   9361250.93041   7561667.64545  25597698.095    25597695.8264   25597698.6364
        34.2004         32.9004
 -20504880.50946 -15963835.88547  20728538.039    20728537.4944   20728538.2694
        49.3004         46.5004
  -5645501.25345  -4387834.27147  21939613.020    21939613.1604   21939618.0264
        46.0004         43.2004
  -2953028.79743  -2288925.92146  23364918.785    23364918.4224   23364924.6724
        40.1004         37.6004
 -18971364.80047 -14759047.96947  20876797.244    20876797.5114   20876801.8074
        49.8004         46.8004
  -9097291.33945  -6818576.96246  22395051.409    22395049.3964   22395050.6364
        44.4004         41.6004
 -14661615.96345 -11412445.98647  22227158.373    22227157.1494   22227158.9534
        46.0004         43.3004
 -14773634.74346 -11486043.97847  21497963.212    21497963.1724   21497966.8914
        46.7004         43.9004
 16  6 12  0  3 30.0000000  0 10G17G31G11G23G 6G 1G 3G22G19G 9
  -7944617.80845  -6176092.46547  22464876.808    22464876.9584   22464878.9724
        44.8004         42.1004
  -4478044.69643  -3477061.39646  23873749.675    23873749.4154   23873752.2394
        40.3004         37.9004
   9480801.20141   7654823.55045  25620446.573    25620444.1954   25620450.7304
        34.3004         32.9004
 -20531281.44146 -15984408.02747  20723513.798    20723513.5774   20723514.1654
        49.3004         46.5004
  -5723411.80045  -4448543.78347  21924787.024    21924787.6974   21924792.4784
        46.2004         43.3004
  -2849387.72843  -2208166.65846  23384639.820    23384640.3084   23384647.3894
        39.9004         37.4004
 -18924386.67647 -14722441.64447  20885735.901    20885736.4144   20885741.4994
        49.6004         46.8004
  -9022326.49145  -6760162.83446  22409315.728    22409315.0874   22409316.0414
        44.2004         41.4004
 -14634441.28045 -11391270.92147  22232329.782    22232329.1854   22232329.8994
        46.0004         43.2004
 -14852752.59546 -11547694.24447  21482907.179    21482907.1374   21482912.1144
        46.9004         44.2004
 16  6 12  0  4  0.0000000  0  9G17G31G23G 6G 1G 3G22G19G 9
  -7881408.61445  -6126838.58647  22476905.335    22476904.8504   22476907.3514
        44.8004         42.1004
  -4428774.15044  -3438668.75746  23883126.724    23883127.1194   23883128.9664
        40.6004         38.3004
 -20557205.04446 -16004608.22147  20718580.535    20718580.0224   20718580.9834
        49.3004         46.5004
  -5800992.70445  -4508996.42347  21910023.927    21910024.2544   21910029.2864
        46.2004         43.5004
  -2745554.05443  -2127257.29346  23404398.448    23404398.7924   23404405.7324
        39.7004         37.3004
 -18877107.82647 -14685600.99447  20894733.183    20894733.1324   20894738.2354
        49.6004         46.6004
  -8947181.10545  -6701608.02746  22423615.836    22423614.8794   22423615.8544
        44.1004         41.2004
 -14606660.54945 -11369623.59647  22237616.471    22237615.1374   22237616.7374
        46.0004         43.0004
 -14931486.07646 -11609044.99547  21467924.503    21467925.1004   21467929.8474
        47.0004         44.2004
 16  6 12  0  4 30.0000000  0  9G17G31G23G 6G 1G 3G22G19G 9
  -7817749.48445  -6077234.09346  22489017.451    22489018.2914   22489022.3784
        44.8004         41.9004
  -4378974.29844  -3399863.68146  23892604.542    23892603.6644   23892605.9364
        40.8004         38.1004
 -20582651.37346 -16024436.51847  20713738.452    20713737.7804   20713738.6154
        49.3004         46.5004
  -5878241.66645  -4569190.40947  21895324.193    21895324.7834   21895329.2674
        46.2004         43.5004
  -2641529.39443  -2046199.15146  23424195.283    23424194.9894   23424201.3144
        39.6004         37.1004
 -18829528.97046 -14648526.56947  20903786.597    20903787.1904   20903791.9904
        49.5004         46.5004
  -8871855.64345  -6642912.89346  22437948.929    22437948.6994   22437949.5134
        43.9004         41.2004
 -14578275.47945 -11347505.34647  22243017.402    22243016.5754   22243018.7014
        45.8004         42.8004
 -15009833.61646 -11670095.00647  21453015.503    21453015.7864   21453020.5804
        47.0004         44.0004
 16  6 12  0  5  0.0000000  0  9G17G31G23G 6G 1G 3G22G19G 9
  -7753642.66045  -6027280.75147  22501217.594    22501218.1394   22501221.0844
        44.9004         42.1004
  -4328646.92944  -3360647.57946  23902179.546    23902180.7254   23902182.6764
        40.6004         37.9004
 -20607620.04146 -16043892.61047  20708986.590    20708986.6804   20708987.1254
        49.3004         46.6004
  -5955156.36945  -4629123.94147  21880687.317    21880687.8064   21880693.3354
        46.2004         43.3004
  -2537315.52043  -1964993.54046  23444025.417    23444025.2684   23444033.7914
        39.4004         37.1004
 -18781650.79146 -14611218.91847  20912897.976    20912898.1604   20912902.6864
        49.3004         46.3004
  -8796350.90045  -6584078.05346  22452318.021    22452316.3654   22452317.3154
        43.9004         41.1004
 -14549286.99845 -11324916.93547  22248534.130    22248532.8174   22248534.9494
        45.8004         43.0004
 -15087793.73946 -11730843.14347  21438179.907    21438180.3174   21438185.0754
        47.0004         44.2004
 16  6 12  0  5 30.0000000  0  9G17G31G23G 6G 1G 3G22G19G 9
  -7689090.52845  -5976980.43546  22513502.464    22513502.2974   22513504.6634
        44.8004         41.8004
  -4277793.48043  -3321021.55046  23911856.983    23911857.3304   23911858.7354
        40.3004         37.6004
 -20632111.21846 -16062976.62247  20704326.832    20704326.3494   20704326.6114
        49.3004         46.6004
  -6031734.49345  -4688795.20347  21866114.688    21866115.4754   21866120.1864
        46.2004         43.3004
  -2432914.08443  -1883641.78646  23463892.635    23463892.6554   23463900.7674
        39.4004         37.1004
 -18733474.00746 -14573678.58047  20922065.652    20922066.1394   20922070.6664
        49.3004         46.5004
  -8720667.47545  -6525103.99446  22466720.813    22466719.6214   22466720.9534
        44.1004         41.2004
 -14519696.71645 -11301859.59847  22254164.230    22254163.4574   22254165.7984
        45.8004         43.0004
 -15165364.93346 -11791288.20947  21423419.326    21423419.7784   21423423.0804
        47.0004         44.2004
 16  6 12  0  6  0.0000000  0  9G17G31G23G 6G 1G 3G22G19G 9
  -7624095.89345  -5926335.30046  22525869.887    22525869.5934   22525872.7444
        44.6004         41.6004
  -4226415.60143  -3280986.82846  23921634.574    23921634.3684   23921636.0824
        40.1004         37.8004
 -20656124.73146 -16081688.43347  20699757.084    20699756.4944   20699757.0034
        49.3004         46.6004
  -6107973.74445  -4748202.41447  21851606.587    21851607.2544   21851612.6784
        46.0004         43.2004
  -2328326.79343  -1802145.21546  23483796.547    23483796.4054   23483801.9814
        39.4004         37.1004
 -18684999.30346 -14535906.10647  20931289.648    20931290.2814   20931295.0104
        49.3004         46.3004
  -8644806.34745  -6465991.43546  22481155.722    22481154.8594   22481155.8964
        44.1004         41.1004
 -14489506.19745 -11278334.54147  22259909.177    22259908.6974   22259911.1844
        45.6004         42.8004
 -15242545.66446 -11851429.02047  21408732.903    21408732.4214   21408736.7834
        47.0004         44.2004
 16  6 12  0  6 30.0000000  0  9G17G31G23G 6G 1G 3G22G19G 9
  -7558661.04745  -5875347.13046  22538321.179    22538321.5614   22538323.5594
        44.2004         41.4004
  -4174515.05943  -3240544.84346  23931510.732    23931511.4034   23931512.2404
        40.1004         37.6004
 -20679660.17846 -16100027.73447  20695278.435    20695277.9384   20695278.4394
        49.3004         46.6004
  -6183871.78645  -4807343.73347  21837163.706    21837164.2574   21837169.9544
        46.2004         43.3004
  -2223555.36843  -1720505.12546  23503732.222    23503732.8184   23503740.0504
        39.6004         37.1004
 -18636227.35746 -14497902.00547  20940570.991    20940571.3914   20940575.8394
        49.1004         46.3004
  -8568768.02445  -6406740.81746  22495626.259    22495624.4284   22495626.6524
        44.1004         41.2004
 -14458716.56645 -11254342.63847  22265767.586    22265766.9824   22265769.7754
        45.6004         42.8004
 -15319334.48246 -11911264.44647  21394119.321    21394119.9444   21394124.6074
        47.0004         44.4004
 16  6 12  0  7  0.0000000  0  9G17G31G23G 6G 1G 3G22G19G 9
  -7492788.61845  -5824018.01146  22550856.347    22550856.4254   22550859.3644
        44.1004         41.1004
  -4122093.67043  -3199697.01846  23941487.112    23941486.3384   23941487.9844
        40.3004         37.9004
 -20702717.66146 -16117994.59047  20690890.382    20690890.2404   20690890.7924
        49.3004         46.5004
  -6259426.32845  -4866217.39947  21822786.356    21822787.3984   21822792.2024
        46.3004         43.9004
  -2118601.48543  -1638722.90146  23523705.046    23523704.8364   23523711.6784
        39.7004         37.3004
 -18587158.87946 -14459666.84547  20949908.724    20949909.0374   20949913.3194
        49.3004         46.5004
  -8492553.20445  -6347352.67846  22510127.631    22510126.7044   22510129.9154
        43.9004         41.1004
 -14427329.44145 -11229885.14847  22271741.398    22271740.5724   22271743.1434
        45.6004         42.8004
 -15395729.89746 -11970793.33047  21379581.739    21379582.0064   21379586.4044
        47.2004         44.2004
 16  6 12  0  7 30.0000000  0  9G17G31G23G 6G 1G 3G22G19G 9
  -7426480.91945  -5772349.70246  22563473.263    22563474.0114   22563477.3364
        43.7004         41.1004
  -4069153.16143  -3158444.67646  23951559.527    23951559.6474   23951562.5264
        40.3004         37.8004
 -20725296.94846 -16135588.82747  20686593.613    20686593.1844   20686594.0524
        49.3004         46.5004
  -6334635.04046  -4924821.60147  21808474.839    21808475.6294   21808480.7224
        46.7004         44.0004
  -2013466.85043  -1556799.83846  23543712.748    23543712.0214   23543718.3794
        39.7004         37.4004
 -18537794.54846 -14421201.15447  20959302.066    20959302.4064   20959307.0084
        49.1004         46.3004
  -8416162.77745  -6287827.68646  22524664.780    22524664.0154   22524665.6514
        43.7004         40.9004
 -14395346.09245 -11204963.07447  22277827.668    22277826.5864   22277828.3094
        45.5004         42.6004
 -15471730.47746 -12030014.54247  21365118.943    21365118.8684   21365124.3464
        47.0004         44.2004
 16  6 12  0  8  0.0000000  0  9G17G31G23G 6G 1G 3G22G19G 9
  -7359740.68145  -5720344.34146  22576173.902    22576174.4054   22576178.1064
        43.9004         41.2004
  -4015695.38743  -3116789.29046  23961732.063    23961732.8724   23961733.3484
        39.9004         37.3004
 -20747398.01746 -16152810.43247  20682387.999    20682387.8544   20682388.0844
        49.3004         46.5004
  -6409495.61346  -4983154.50647  21794229.188    21794229.7164   21794235.4234
        46.7004         43.7004
  -1908153.17243  -1474737.25146  23563752.219    23563751.7324   23563759.7834
        39.9004         37.4004
 -18488135.07046 -14382505.47347  20968751.690    20968752.0824   20968757.1254
        49.1004         46.3004
  -8339597.27845  -6228166.30046  22539234.592    22539233.3794   22539235.1044
        43.7004         40.9004
 -14362768.16445 -11179577.69247  22284026.973    22284025.3104   22284028.4284
        45.6004         42.8004
 -15547334.75746 -12088926.95047  21350732.020    21350732.1644   21350737.6304
        47.2004         44.4004
 16  6 12  0  8 30.0000000  0  9G17G31G23G 6G 1G 3G22G19G 9
  -7292570.19145  -5668003.72446  22588956.525    22588957.0084   22588959.8284
        43.9004         41.2004
  -3961722.06843  -3074732.16146  23972003.227    23972003.1194   23972004.4414
        39.9004         37.4004
 -20769020.83146 -16169659.36147  20678273.875    20678273.2354   20678273.2904
        49.3004         46.6004
  -6484005.77646  -5041214.36547  21780050.332    21780050.4944   21780056.6924
        46.5004         43.7004
  -1802662.26143  -1392536.56846  23583823.742    23583826.3404   23583833.5494
        39.7004         37.3004
 -18438181.15646 -14343580.36547  20978257.894    20978258.1574   20978262.9444
        49.1004         46.3004
  -8262857.33145  -6168368.97646  22553837.425    22553836.3754   22553839.7244
        43.6004         40.9004
 -14329596.95845 -11153730.00647  22290338.919    22290337.7814   22290340.6834
        45.6004         42.6004
 -15622541.29446 -12147529.43447  21336421.235    21336421.1844   21336426.1824
        47.4004         44.5004
 16  6 12  0  9  0.0000000  0  9G17G31G23G 6G 1G 3G22G19G 9
  -7224972.00545  -5615329.86146  22601820.907    22601820.9764   22601823.9314
        44.1004         41.4004
  -3907234.86143  -3032274.61346  23982372.533    23982371.6944   23982373.2174
        39.7004         37.4004
 -20790165.55946 -16186135.76047  20674250.028    20674249.4754   20674249.7434
        49.5004         46.6004
  -6558163.16446  -5098999.34147  21765938.438    21765939.1304   21765944.5344
        46.5004         43.9004
  -1696995.65943  -1310198.95246  23603932.826    23603933.2804   23603942.9664
        39.6004         37.3004
 -18387933.49846 -14304426.35247  20987820.296    20987820.2104   20987825.0614
        49.1004         46.3004
  -8185943.78344  -6108436.38346  22568474.445    22568473.5524   22568474.8234
        43.4004         40.6004
 -14295834.14145 -11127421.32247  22296763.262    22296762.8484   22296765.6694
        45.5004         42.6004
 -15697348.65646 -12205820.87747  21322186.171    21322186.0404   21322190.7014
        47.5004         44.5004
 16  6 12  0  9 30.0000000  0  9G17G31G23G 6G 1G 3G22G19G 9
  -7156948.62045  -5562324.65446  22614764.818    22614764.7944   22614768.6004
        44.2004         41.4004
  -3852235.96143  -2989418.34546  23992836.042    23992835.7184   23992838.2554
        39.6004         36.9004
 -20810831.89346 -16202239.38147  20670316.877    20670316.6894   20670317.1284
        49.5004         46.6004
  -6631965.51546  -5156507.65647  21751894.204    21751894.6224   21751900.4284
        46.5004         43.7004
  -1591155.25143  -1227725.94546  23624076.097    23624074.7274   23624081.5844
        39.6004         37.1004
 -18337392.78146 -14265043.99847  20997437.325    20997437.9134   20997442.6524
        49.1004         46.3004
  -8108857.27045  -6048368.99846  22583142.671    22583142.2234   22583143.9764
        43.6004         40.7004
 -14261481.17045 -11100652.78347  22303301.328    22303300.4734   22303302.8284
        45.5004         42.6004
 -15771755.41946 -12263800.15947  21308026.539    21308026.4414   21308031.5104
        47.5004         44.5004
 16  6 12  0 10  0.0000000  0  9G17G31G23G 6G 1G 3G22G19G 9
  -7088502.77945  -5508990.24746  22627789.679    22627789.4864   22627792.4424
        44.1004         41.2004
  -3796727.03843  -2946164.67146  24003398.644    24003400.1834   24003400.8214
        39.2004         36.9004
 -20831019.78546 -16217970.20147  20666475.176    20666474.8744   20666475.4484
        49.5004         46.6004
  -6705410.48046  -5213737.50247  21737918.747    21737918.8404   21737924.4714
        46.5004         43.9004
  -1485142.61443  -1145118.72346  23644249.139    23644248.2304   23644255.2704
        39.4004         36.9004
 -18286559.68846 -14225433.81147  21007110.957    21007111.0944   21007116.0834
        49.1004         46.3004
  -8031598.32944  -5988167.25846  22597844.758    22597843.9914   22597845.9924
        43.4004         40.7004
 -14226539.75745 -11073425.74247  22309950.815    22309949.2234   22309951.9864
        45.3004         42.3004
 -15845760.16846 -12321466.18147  21293943.894    21293944.2684   21293948.6244
        47.5004         44.7004
 16  6 12  0 10 30.0000000  0  9G17G31G23G 6G 1G 3G22G19G 9
  -7019637.04645  -5455328.65646  22640894.817    22640894.7304   22640897.1924
        44.2004         41.6004
  -3740709.78543  -2902514.87446  24014059.694    24014060.2784   24014060.5144
        39.2004         36.9004
 -20850729.25246 -16233328.21547  20662724.970    20662724.4654   20662724.7404
        49.5004         46.6004
  -6778495.77246  -5270687.08847  21724010.457    21724010.9124   21724016.5504
        46.7004         43.7004
  -1378959.63643  -1062378.73546  23664453.865    23664454.6814   23664461.3404
        39.2004         36.9004
 -18235434.94846 -14185596.36647  21016839.210    21016839.3044   21016844.5634
        49.1004         46.1004
  -7954167.71844  -5927831.75146  22612580.221    22612578.8014   22612579.8644
        43.4004         40.6004
 -14191011.44145 -11045741.35147  22316711.292    22316710.5614   22316711.7484
        45.1004         42.1004
 -15919361.52046 -12378817.85847  21279937.927    21279937.9794   21279943.1524
        47.5004         44.7004
 16  6 12  0 11  0.0000000  0  9G17G31G23G 6G 1G 3G22G19G 9
  -6950354.23145  -5401342.06746  22654078.471    22654078.3584   22654081.8564
        44.2004         41.4004
  -3684186.15143  -2858470.49446  24024817.109    24024817.0094   24024816.9244
        39.0004         36.7004
 -20869960.17846 -16248313.34547  20659065.033    20659064.9784   20659065.4984
        49.5004         46.8004
  -6851219.11646  -5327354.62247  21710171.500    21710171.8054   21710177.8154
        46.5004         43.7004
  -1272607.92943   -979507.30946  23684692.157    23684691.6834   23684699.1824
        39.2004         36.7004
 -18184019.21846 -14145532.18847  21026623.597    21026624.0344   21026628.8414
        49.1004         46.3004
  -7876566.34644  -5867363.16046  22627345.638    22627345.7454   22627348.0474
        43.4004         40.6004
 -14154897.96245 -11017600.97547  22323582.739    22323582.6334   22323584.6874
        45.1004         42.6004
 -15992558.09746 -12435854.13447  21266008.949    21266008.8964   21266014.4244
        47.5004         44.7004
 16  6 12  0 11 30.0000000  0  9G17G31G23G 6G 1G 3G22G19G 9
  -6880656.72145  -5347032.32046  22667341.212    22667341.2624   22667344.7554
        44.1004         41.2004
  -3627158.01443  -2814032.99846  24035667.857    24035668.3584   24035669.8354
        39.0004         36.6004
 -20888713.15246 -16262926.03747  20655496.434    20655495.9874   20655496.6304
        49.5004         46.6004
  -6923578.17946  -5383738.31047  21696402.302    21696403.2604   21696408.1314
        46.5004         43.9004
  -1166089.29843   -896505.78546  23704961.602    23704961.9764   23704968.8984
        39.2004         36.9004
 -18132313.24846 -14105241.83847  21036462.239    21036462.8994   21036468.1704
        49.1004         46.1004
  -7798794.87644  -5806762.05646  22642146.784    22642145.1284   22642146.9374
        43.2004         40.4004
 -14118200.73945 -10989005.76547  22330568.184    22330566.8974   22330568.3934
        45.6004         43.2004
 -16065348.49346 -12492573.91247  21252157.297    21252157.8134   21252162.6304
        47.7004         44.9004
 16  6 12  0 12  0.0000000  0  9G17G31G23G 6G 1G 3G22G19G 9
  -6810547.10645  -5292401.46746  22680682.942    22680683.0624   22680685.4564
        43.7004         40.7004
  -3569627.83443  -2769204.30146  24046615.690    24046615.1534   24046617.4534
        39.0004         36.7004
 -20906987.90846 -16277166.09447  20652018.944    20652018.5224   20652019.3734
        49.5004         46.8004
  -6995570.67346  -5439836.36847  21682702.349    21682702.9234   21682708.6824
        46.5004         43.7004
  -1059405.42043   -813375.49446  23725262.438    23725263.7044   23725270.1654
        39.2004         36.9004
 -18080317.67546 -14064725.82247  21046357.237    21046357.7804   21046362.7254
        48.9004         46.1004
  -7720853.90044  -5746028.84246  22656977.019    22656976.2434   22656978.7354
        43.0004         40.4004
 -14080921.82645 -10959957.26847  22337661.629    22337660.4964   22337661.4594
        45.8004         42.8004
 -16137731.37646 -12548976.14947  21238384.266    21238383.9174   21238388.5284
        47.9004         45.1004
 16  6 12  0 12 30.0000000  0  9G17G31G23G 6G 1G 3G22G19G 9
  -6740027.94945  -5237451.49646  22694101.872    22694101.7434   22694105.1744
        43.6004         40.7004
  -3511596.72243  -2723985.22446  24057657.182    24057658.0794   24057658.8864
        39.0004         36.7004
 -20924784.66947 -16291033.68647  20648632.262    20648632.0874   20648632.7834
        49.6004         46.8004
  -7067194.31446  -5495646.99447  21669072.388    21669073.4274   21669078.8844
        46.5004         43.7004
   -952558.07443   -730117.82946  23745596.585    23745595.3384   23745603.0124
        39.2004         36.7004
 -18028033.24846 -14023984.71847  21056306.428    21056306.8744   21056312.2014
        49.1004         46.1004
  -7642743.86444  -5685163.90646  22671842.579    22671840.5294   22671843.4704
        43.2004         40.6004
 -14043062.62845 -10930456.57147  22344864.922    22344863.8524   22344865.8684
        45.5004         42.3004
 -16209705.36746 -12605059.75747  21224687.282    21224687.1184   21224692.2224
        47.7004         44.9004
 16  6 12  0 13  0.0000000  0  9G17G31G23G 6G 1G 3G22G19G 9
  -6669101.92745  -5182184.47746  22707598.170    22707598.3054   22707602.6154
        43.6004         41.1004
  -3453066.91743  -2678377.59146  24068796.022    24068796.7374   24068798.8534
        39.2004         36.9004
 -20942103.12247 -16304528.57047  20645336.662    20645336.2864   20645337.0604
        49.6004         46.8004
  -7138446.78446  -5551168.39347  21655513.814    21655514.5214   21655520.6544
        46.7004         43.9004
   -845549.00043   -646734.14646  23765960.350    23765958.4014   23765965.8384
        39.0004         36.6004
 -17975460.63846 -13983019.07047  21066310.231    21066310.8754   21066316.3184
        48.9004         46.1004
  -7564465.69644  -5624167.95846  22686736.443    22686736.4894   22686738.7554
        43.2004         40.7004
 -14004624.89345 -10900505.09747  22352179.151    22352178.6664   22352180.6424
        45.3004         42.5004
 -16281269.17046 -12660823.74247  21211068.335    21211068.7454   21211073.9584
        47.7004         44.9004
 16  6 12  0 13 30.0000000  0  9G17G31G23G 6G 1G 3G22G19G 9
  -6597771.64245  -5126602.44446  22721172.374    22721172.0014   22721176.1214
        43.7004         41.1004
  -3394040.41643  -2632382.91246  24080029.423    24080029.2844   24080031.0644
        39.2004         36.9004
 -20958943.35646 -16317650.81947  20642131.547    20642131.3504   20642132.3164
        49.5004         46.8004
  -7209325.79246  -5606398.78647  21642026.188    21642026.5284   21642031.9624
        46.7004         43.7004
   -738379.95943   -563225.78646  23786350.702    23786351.9544   23786359.1264
        38.9004         36.4004
 -17922600.55846 -13941829.41747  21076369.438    21076369.9584   21076375.3494
        48.9004         45.9004
  -7486020.06944  -5563041.52246  22701667.156    22701664.6824   22701666.5124
        43.4004         40.7004
 -13965610.29645 -10870104.13247  22359604.157    22359603.0894   22359604.7304
        45.3004         42.5004
 -16352421.41046 -12716267.03447  21197529.464    21197529.4434   21197534.2524
        47.7004         44.9004
 16  6 12  0 14  0.0000000  0  9G17G31G23G 6G 1G 3G22G19G 9
  -6526039.84645  -5070707.57346  22734822.115    22734822.3034   22734826.3434
        43.6004         40.9004
  -3334519.20443  -2586002.73446  24091356.010    24091355.0754   24091358.1764
        39.0004         36.7004
 -20975305.61646 -16330400.62647  20639018.355    20639018.0374   20639018.5344
        49.5004         46.6004
  -7279829.06146  -5661336.40347  21628609.549    21628610.1074   21628615.7244
        46.5004         43.7004
   -631052.66243   -479594.12346  23806775.003    23806775.2264   23806783.2914
        38.7004         36.2004
 -17869453.69446 -13900416.29047  21086483.256    21086483.6464   21086489.1104
        48.9004         45.9004
  -7407407.61044  -5501785.07646  22716624.931    22716624.1514   22716626.8384
        43.4004         40.7004
 -13926020.66145 -10839255.07347  22367137.470    22367136.4224   22367138.0614
        45.3004         42.1004
 -16423160.77446 -12771388.60447  21184068.206    21184068.4304   21184073.0294
        47.9004         45.2004
 16  6 12  0 14 30.0000000  0  9G17G31G23G 6G 1G 3G22G19G 9
  -6453908.80645  -5014501.59946  22748549.147    22748548.8664   22748551.8584
        43.6004         40.7004
  -3274505.34743  -2539238.68046  24102776.012    24102776.0184   24102778.1564
        39.0004         36.9004
 -20991190.16046 -16342778.18847  20635995.687    20635995.1264   20635995.7524
        49.5004         46.6004
  -7349954.30146  -5715979.45047  21615265.501    21615265.9404   21615271.4834
        46.5004         43.9004
   -523568.86943   -395840.56146  23827231.886    23827229.9074   23827235.8034
        38.3004         36.0004
 -17816020.73946 -13858780.24247  21096650.733    21096651.4534   21096656.7474
        48.9004         45.9004
  -7328628.99144  -5440399.16446  22731616.078    22731615.3434   22731617.3144
        43.4004         40.6004
 -13885857.93845 -10807959.43547  22374780.696    22374779.4304   22374780.7574
        44.9004         42.1004
 -16493485.97746 -12826187.46047  21170685.979    21170686.3004   21170690.3404
        48.1004         45.1004
 16  6 12  0 15  0.0000000  0  9G17G31G23G 6G 1G 3G22G19G 9
  -6381381.99045  -4957987.23846  22762349.502    22762349.7084   22762353.9554
        43.7004         41.1004
  -3214000.58543  -2492092.12846  24114287.283    24114288.5414   24114292.2284
        39.4004         37.3004
 -21006596.92746 -16354783.45147  20633063.980    20633063.5304   20633064.1774
        49.5004         46.8004
  -7419699.21146  -5770326.13847  21601993.636    21601993.7674   21601999.7964
        46.7004         44.0004
   -415930.33343   -311966.37346  23847713.962    23847712.0064   23847720.1604
        38.3004         36.2004
 -17762302.37746 -13816921.79347  21106873.516    21106873.7844   21106878.8814
        48.8004         45.9004
  -7249684.94244  -5378884.33946  22746638.576    22746637.9854   22746639.6214
        43.2004         40.6004
 -13845123.73745 -10776218.50647  22382532.501    22382531.2744   22382532.0964
        45.1004         42.5004
 -16563395.71546 -12880662.57047  21157382.085    21157382.2794   21157386.8454
        48.1004         45.1004
 16  6 12  0 15 30.0000000  0  9G17G31G23G 6G 1G 3G22G19G 9
  -6308461.82045  -4901166.33946  22776225.966    22776227.0224   22776230.0864
        43.7004         41.2004
  -3153007.08843  -2444564.75346  24125894.385    24125895.6154   24125898.5274
        39.4004         36.9004
 -21021526.07047 -16366416.53847  20630223.126    20630223.0224   20630223.0544
        49.6004         46.8004
  -7489061.51346  -5824374.69847  21588793.999    21588794.6984   21588800.5194
        46.9004         44.0004
   -308138.86943   -227973.04046  23868223.464    23868223.6094   23868231.7494
        38.5004         36.4004
 -17708299.33846 -13774841.51047  21117150.130    21117150.1924   21117155.2954
        48.8004         45.9004
  -7170576.30144  -5317241.27246  22761692.659    22761692.0344   22761693.6474
        43.2004         40.4004
 -13803819.83545 -10744033.65547  22390392.251    22390390.4654   22390392.8184
        45.3004         42.3004
 -16632888.69446 -12934812.93547  21144158.499    21144158.5284   21144163.0954
        48.1004         45.2004
 16  6 12  0 16  0.0000000  0  9G17G31G23G 6G 1G 3G22G19G 9
  -6235150.91645  -4844040.98546  22790178.035    22790178.5534   22790180.5764
        44.1004         41.8004
  -3091526.89943  -2396658.12346  24137595.076    24137594.4454   24137597.7664
        39.0004         36.6004
 -21035977.74447 -16377677.57247  20627472.912    20627472.7284   20627473.3044
        49.6004         47.0004
  -7558038.96146  -5878123.35547  21575667.993    21575668.9564   21575674.5264
        46.9004         44.0004
   -200196.22343   -143861.87346  23888760.187    23888764.4044   23888772.4494
        38.5004         36.4004
 -17654012.29746 -13732539.94447  21127480.561    21127480.8284   21127485.9334
        48.8004         45.9004
  -7091303.49444  -5255470.26146  22776776.875    22776777.2494   22776779.0644
        43.2004         40.6004
 -13761947.99345 -10711406.25446  22398358.930    22398358.5044   22398360.2074
        44.8004         41.8004
 -16701963.64346 -12988637.55547  21131013.526    21131013.7464   21131018.6234
        48.1004         45.2004
 16  6 12  0 16 30.0000000  0  9G17G31G23G 6G 1G 3G22G19G 9
  -6161451.95045  -4786613.25246  22804202.630    22804202.4274   22804205.3064
        44.4004         41.9004
  -3029562.03743  -2348373.83146  24149386.917    24149387.3694   24149388.6454
        38.7004         36.4004
 -21049952.19347 -16388566.74347  20624813.414    20624813.1414   20624813.6314
        49.6004         46.8004
  -7626629.25046  -5931570.33647  21562616.371    21562616.9164   21562622.6264
        47.0004         44.4004
    -92104.10643    -59634.23246  23909332.149    23909333.5014   23909341.9474
        38.5004         36.4004
 -17599441.98346 -13690017.63347  21137865.203    21137865.0984   21137870.2584
        48.8004         45.8004
  -7011867.29644  -5193571.95046  22791893.978    22791893.3244   22791894.5884
        43.2004         40.4004
 -13719510.33745 -10678337.96146  22406434.676    22406433.0294   22406436.2954
        44.4004         41.4004
 -16770619.31746 -13042135.46847  21117948.543    21117948.5284   21117953.8534
        48.1004         45.2004
 16  6 12  0 17  0.0000000  0  9G17G31G23G 6G 1G 3G22G19G 9
  -6087367.71245  -4728885.28146  22818298.874    22818299.3984   22818302.8264
        44.4004         41.4004
  -2967114.82043  -2299713.67445  24161269.544    24161269.7004   24161271.3124
        38.2004         35.7004
 -21063449.65047 -16399084.23347  20622244.905    20622244.7634   20622245.2654
        49.6004         47.0004
  -7694830.11046  -5984713.86847  21549637.974    21549638.5624   21549643.9784
        47.2004         44.2004
     16135.71143     24708.47146  23929932.348    23929932.0694   23929938.3424
        38.5004         36.2004
 -17544589.06646 -13647275.11147  21148302.490    21148303.1534   21148308.7114
        48.6004         45.8004
  -6932268.51644  -5131546.96346  22807040.902    22807039.9454   22807041.9164
        43.0004         40.2004
 -13676508.74245 -10644830.24346  22414617.891    22414617.1634   22414618.4254
        44.2004         41.8004
 -16838854.45646 -13095305.70047  21104963.969    21104964.1764   21104969.3824
        48.1004         45.2004
 16  6 12  0 17 30.0000000  0  9G17G31G23G 6G 1G 3G22G19G 9
  -6012900.95745  -4670859.26146  22832470.399    22832470.0824   22832472.6994
        44.1004         41.1004
  -2904186.98343  -2250679.00745  24173242.896    24173244.5134   24173246.2444
        38.0004         35.9004
 -21076470.25347 -16409230.15047  20619767.035    20619767.0684   20619767.7634
        49.6004         47.0004
  -7762639.28546  -6037552.18447  21536734.605    21536735.2614   21536740.2864
        47.0004         44.2004
    124521.43643    109164.85946  23950556.584    23950556.7964   23950564.7954
        38.3004         36.0004
 -17489454.22046 -13604312.90247  21158794.775    21158794.8884   21158800.2924
        48.6004         45.8004
  -6852507.58044  -5069395.60446  22822218.447    22822217.5974   22822219.4584
        42.9004         40.0004
 -13632944.74945 -10610884.28547  22422907.776    22422906.8194   22422909.2494
        44.8004         42.1004
 -16906667.86046 -13148147.29947  21092059.894    21092059.9354   21092065.0174
        48.2004         45.2004
 16  6 12  0 18  0.0000000  0  9G17G31G23G 6G 1G 3G22G19G 9
  -5938054.50145  -4612537.37846  22846712.361    22846712.5464   22846715.5974
        43.7004         40.9004
  -2840780.77543  -2201271.57946  24185311.531    24185311.1614   24185312.6414
        38.7004         36.6004
 -21089014.26147 -16419004.69247  20617380.686    20617380.2844   20617380.6414
        49.8004         47.0004
  -7830054.48846  -6090083.51747  21523906.240    21523906.8104   21523911.6714
        47.0004         44.2004
    233051.29543    193733.56845  23971210.222    23971209.9274   23971216.0594
        38.0004         35.7004
 -17434038.19446 -13561131.60147  21169339.711    21169340.5934   21169345.5704
        48.6004         45.8004
  -6772585.39444  -5007118.61946  22837426.659    22837426.5524   22837427.8404
        42.5004         39.9004
 -13588820.91845 -10576502.11046  22431304.564    22431303.4514   22431305.0424
        44.8004         41.9004
 -16974058.26446 -13200659.29147  21079235.924    21079235.5814   21079240.7754
        48.1004         45.2004
 16  6 12  0 18 30.0000000  0  9G17G31G23G 6G 1G 3G22G19G 9
  -5862830.73445  -4553921.47546  22861027.074    22861027.1994   22861030.8914
        43.7004         40.9004
  -2776898.23943  -2151492.95046  24197467.082    24197466.9384   24197468.8374
        38.9004         36.6004
 -21101081.84047 -16428407.99047  20615084.261    20615083.6474   20615084.3484
        49.8004         47.0004
  -7897073.48646  -6142306.10747  21511152.371    21511152.6084   21511158.7124
        47.0004         44.4004
    341723.50143    278413.21045  23991888.957    23991889.4294   23991895.3364
        38.0004         35.7004
 -17378341.69346 -13517731.74847  21179938.918    21179939.2704   21179944.5434
        48.6004         45.9004
  -6692502.58344  -4944716.43546  22852666.564    22852665.6124   22852667.7204
        42.5004         40.0004
 -13544138.99445 -10541685.03646  22439806.755    22439805.3794   22439807.6964
        44.6004         41.8004
 -17041024.46746 -13252840.71947  21066492.437    21066492.2944   21066497.5374
        48.1004         45.1004
 16  6 12  0 19  0.0000000  0  9G17G31G23G 6G 1G 3G22G19G 9
  -5787232.93944  -4495014.11646  22875412.204    22875413.0714   22875416.1534
        43.4004         40.4004
  -2712541.33143  -2101344.69746  24209713.810    24209714.5414   24209716.8544
        39.4004         37.1004
 -21112673.06747 -16437440.10847  20612878.101    20612877.7674   20612878.1734
        49.6004         46.8004
  -7963693.98446  -6194218.17147  21498475.105    21498475.7114   21498481.0804
        47.4004         44.7004
    450536.30543    363202.39445  24012595.131    24012595.4314   24012601.9834
        37.8004         35.7004
 -17322365.35646 -13474113.83947  21190590.836    21190591.0624   21190596.2584
        48.6004         45.8004
  -6612259.52444  -4882189.42246  22867936.492    22867936.7214   22867937.6874
        42.5004         40.0004
 -13498900.81945 -10506434.52147  22448415.804    22448414.8294   22448416.7814
        44.8004         42.1004
 -17107565.29446 -13304690.70747  21053830.046    21053829.9504   21053835.1814
        48.1004         45.2004
 16  6 12  0 19 30.0000000  0  9G17G31G23G 6G 1G 3G22G19G 9
  -5711263.67844  -4435817.30746  22889870.005    22889869.9824   22889872.1854
        43.0004         40.2004
  -2647712.41643  -2050828.68546  24222049.832    24222050.5724   24222052.8574
        39.0004         36.6004
 -21123788.27047 -16446101.30347  20610763.446    20610762.8094   20610763.1034
        49.6004         47.0004
  -8029913.74446  -6245817.98647  21485874.053    21485874.2194   21485879.7624
        47.4004         44.5004
    559487.90243    448099.75445  24033326.711    24033328.3304   24033335.4124
        37.8004         35.7004
 -17266109.92546 -13430278.45547  21201295.839    21201296.1684   21201301.3694
        48.6004         45.8004
  -6531857.21644  -4819538.31146  22883238.310    22883237.2524   22883237.6814
        42.7004         40.0004
 -13453108.37545 -10470752.11647  22457129.695    22457128.8844   22457130.8654
        44.9004         42.1004
 -17173679.50446 -13356208.25747  21041249.009    21041249.5294   21041253.8834
        48.2004         45.4004
 16  6 12  0 20  0.0000000  0  9G17G31G23G 6G 1G 3G22G19G 9
  -5634925.73344  -4376333.22246  22904397.116    22904397.5654   22904398.9074
        43.0004         40.6004
  -2582413.73343  -1999946.59746  24234476.227    24234477.2724   24234478.8024
        38.5004         36.0004
 -21134427.84047 -16454391.87147  20608738.800    20608738.4084   20608738.5504
        49.8004         47.2004
  -8095730.53646  -6297103.78147  21473348.830    21473349.6884   21473355.1514
        47.2004         44.5004
    668576.52743    533103.87845  24054083.490    24054087.0324   24054094.9684
        38.0004         35.7004
 -17209576.06346 -13386226.11347  21212053.701    21212053.8834   21212059.4224
        48.4004         45.6004
  -6451296.27844  -4756763.56346  22898566.360    22898566.8174   22898566.8934
        42.7004         40.0004
 -13406763.63745 -10434639.34346  22465948.339    22465947.2624   22465949.7864
        44.8004         41.9004
 -17239365.98746 -13407392.51047  21028750.011    21028749.6734   21028754.3524
        48.4004         45.6004
 16  6 12  0 20 30.0000000  0  9G17G31G23G 6G 1G 3G22G19G 9
  -5558221.84344  -4316563.94746  22918993.146    22918992.7874   22918995.3394
        43.0004         40.2004
  -2516647.46043  -1948700.14446  24246992.268    24246991.7624   24246994.6274
        38.7004         36.4004
 -21144591.90947 -16462311.91947  20606804.941    20606804.0434   20606804.6494
        50.0004         47.2004
  -8161142.10046  -6348073.81647  21460901.536    21460902.0274   21460907.6744
        47.4004         44.5004
    777800.43743    618213.40045  24074874.167    24074871.9424   24074878.9894
        37.8004         35.5004
 -17152764.52546 -13341957.39847  21222863.976    21222864.7934   21222870.3014
        48.2004         45.4004
  -6370577.27644  -4693865.66346  22913928.998    22913927.7234   22913927.7864
        42.5004         39.7004
 -13359868.66745 -10398097.82546  22474872.296    22474871.5334   22474873.2144
        44.6004         41.8004
 -17304623.53146 -13458242.54247  21016331.148    21016331.3694   21016335.9924
        48.4004         45.6004
 16  6 12  0 21  0.0000000  0  9G17G31G23G 6G 1G 3G22G19G 9
  -5481155.16644  -4256512.04446  22933658.026    22933658.6274   22933660.4494
        42.7004         40.0004
  -2450415.47543  -1897090.84746  24259594.995    24259595.7214   24259596.9824
        38.5004         36.4004
 -21154280.80247 -16469861.70047  20604961.008    20604960.5004   20604960.8724
        50.0004         47.2004
  -8226146.17746  -6398726.33847  21448531.778    21448532.4944   21448537.5094
        47.4004         44.5004
    887157.81743    703426.89845  24095686.590    24095682.2524   24095689.2314
        37.8004         35.7004
 -17095675.92346 -13297472.79347  21233727.996    21233728.4504   21233733.5634
        48.2004         45.4004
  -6289700.91244  -4630845.15246  22929316.482    22929316.0144   22929318.1474
        42.3004         39.3004
 -13312425.61845 -10361129.23146  22483900.925    22483900.3474   22483901.3334
        44.6004         41.8004
 -17369450.99646 -13508757.43247  21003994.944    21003994.9134   21003999.8284
        48.6004         45.6004
 16  6 12  0 21 30.0000000  0  9G17G31G23G 6G 1G 3G22G19G 9
  -5403728.23144  -4196179.36646  22948392.220    22948391.8254   22948395.6984
        42.9004         40.4004
  -2383720.02543  -1845120.34246  24272286.723    24272285.7764   24272288.5724
        38.3004         36.0004
 -21163495.09147 -16477041.65847  20603207.455    20603207.1344   20603207.4524
        50.0004         47.2004
  -8290740.56446  -6449059.62247  21436240.385    21436241.0974   21436245.6304
        47.5004         44.7004
    996646.83343    788742.98545  24116519.063    24116517.9734   24116524.2754
        37.8004         35.7004
 -17038311.03146 -13252772.88447  21244644.809    21244645.0654   21244649.5844
        48.2004         45.4004
  -6208667.98444  -4567702.62546  22944735.938    22944734.8624   22944737.7814
        42.0004         39.2004
 -13264436.67345 -10323735.26746  22493033.203    22493032.6284   22493032.8474
        44.6004         41.9004
 -17433847.29046 -13558936.34647  20991741.120    20991740.5004   20991745.8004
        48.6004         45.8004
 16  6 12  0 22  0.0000000  0  9G17G31G23G 6G 1G 3G22G19G 9
  -5325943.76944  -4135568.11946  22963194.275    22963194.2314   22963197.2814
        43.0004         40.4004
  -2316563.52243  -1792790.61346  24285065.318    24285065.8944   24285070.5284
        38.2004         36.0004
 -21172234.94647 -16483851.92647  20601544.146    20601543.8284   20601544.1474
        50.0004         47.2004
  -8354923.01746  -6499071.90647  21424026.943    21424027.4874   21424032.5334
        47.7004         44.9004
   1106265.73443    874160.29845  24137374.102    24137377.2564   24137383.4944
        37.6004         35.5004
 -16980670.52646 -13207858.21847  21255613.682    21255614.0854   21255618.6244
        48.2004         45.4004
  -6127479.20244  -4504438.65546  22960185.962    22960184.3064   22960188.6794
        41.8004         39.0004
 -13215903.84645 -10285917.48946  22502268.273    22502266.9644   22502269.3154
        44.6004         41.8004
 -17497811.21746 -13608778.35747  20979569.252    20979568.9994   20979573.8364
        48.6004         45.8004
 16  6 12  0 22 30.0000000  0  9G17G31G23G 6G 1G 3G22G19G 9
  -5247804.33144  -4074680.28546  22978063.962    22978063.5214   22978066.4834
        43.0004         40.4004
  -2248947.97343  -1740103.21546  24297934.472    24297933.5964   24297936.6454
        38.3004         36.0004
 -21180500.57947 -16490292.67247  20599971.552    20599970.9754   20599971.2064
        50.0004         47.2004
  -8418691.30546  -6548761.47147  21411891.910    21411892.4824   21411898.0144
        47.7004         44.9004
   1216012.71642    959677.41445  24158258.295    24158261.2634   24158267.1504
        37.5004         35.3004
 -16922755.07946 -13162729.30647  21266635.096    21266635.4764   21266639.5234
        48.4004         45.6004
  -6046135.04644  -4441053.64946  22975665.811    22975664.5414   22975666.6904
        41.8004         38.8004
 -13166828.86845 -10247677.24446  22511607.047    22511605.9684   22511608.2454
        44.6004         41.8004
 -17561341.71546 -13658282.62547  20967479.767    20967479.7804   20967483.9164
        48.6004         45.8004
 16  6 12  0 23  0.0000000  0  9G17G31G23G 6G 1G 3G22G19G 9
  -5169313.32344  -4013518.49846  22992998.764    22992999.0804   22993003.1964
        42.9004         40.4004
  -2180875.68843  -1687059.87046  24310887.356    24310887.2674   24310888.8814
        38.5004         36.4004
 -21188292.38247 -16496364.19647  20598488.422    20598488.3224   20598488.4024
        50.0004         47.2004
  -8482043.22746  -6598126.58447  21399836.016    21399836.7674   21399842.2124
        47.5004         44.9004
   1325886.02342   1045292.95945  24179173.707    24179170.0764   24179176.4914
        37.5004         35.3004
 -16864565.43246 -13117386.73047  21277707.641    21277707.8774   21277713.0684
        48.4004         45.6004
  -5964636.25044  -4377548.09746  22991173.762    22991173.3494   22991175.9974
        41.8004         39.2004
 -13117214.16345 -10209016.45947  22521048.150    22521047.9704   22521049.3374
        44.9004         42.3004
 -17624437.67946 -13707448.29747  20955472.801    20955472.6354   20955477.2784
        48.8004         45.8004
 16  6 12  0 23 30.0000000  0  9G17G31G23G 6G 1G 3G22G19G 9
  -5090473.48244  -3952084.87846  23008002.033    23008002.2394   23008005.8194
        42.9004         40.0004
  -2112349.08543  -1633662.51646  24323926.351    24323926.8474   24323928.8334
        38.5004         36.4004
 -21195610.90847 -16502066.93547  20597095.609    20597095.4064   20597096.0294
        50.0004         47.2004
  -8544976.55846  -6647165.52247  21387860.539    21387860.7944   21387866.6304
        47.7004         44.9004
   1435883.83742   1131005.46845  24200110.116    24200102.9494   24200106.4144
        37.5004         35.3004
 -16806102.27346 -13071831.03647  21288832.430    21288833.2524   21288838.0464
        48.4004         45.6004
  -5882983.47744  -4313922.61646  23006713.022    23006711.7384   23006714.4784
        41.8004         39.0004
 -13067062.07945 -10169936.94247  22530592.589    22530592.0074   22530593.7384
        45.3004         42.6004
 -17687098.01246 -13756274.51447  20943549.004    20943548.6604   20943553.6134
        48.8004         45.9004
 16  6 12  0 24  0.0000000  0  9G17G31G23G 6G 1G 3G22G19G 9
  -5011287.71144  -3890381.72246  23023070.368    23023071.0964   23023074.2884
        42.9004         40.2004
  -2043370.17243  -1579912.73046  24337054.021    24337053.2924   24337055.6354
        38.7004         36.6004
 -21202456.44247 -16507401.10747  20595792.810    20595792.6084   20595793.1094
        50.0004         47.2004
  -8607489.08846  -6695876.57147  21375964.488    21375964.8884   21375970.6964
        47.7004         44.9004
   1546004.37642   1216813.64545  24221063.660    24221058.3384   24221061.3854
        37.1004         35.2004
 -16747366.30446 -13026062.76047  21300010.043    21300010.1744   21300015.3284
        48.4004         45.6004
  -5801177.30544  -4250177.55546  23022279.052    23022277.9984   23022281.4824
        41.8004         39.2004
 -13016374.66745 -10130440.28547  22540237.486    22540236.6484   22540239.2874
        45.3004         42.3004
 -17749321.63146 -13804760.43247  20931707.864    20931707.7734   20931713.1594
        48.8004         45.9004
 16  6 12  0 24 30.0000000  0  9G17G31G23G 6G 1G 3G22G19G 9
  -4931758.87744  -3828411.22646  23038204.617    23038205.2084   23038207.7634
        42.9004         40.2004
  -1973941.26043  -1525812.24846  24350265.564    24350265.6644   24350267.0284
        38.9004         36.6004
 -21208829.20147 -16512366.88447  20594580.496    20594580.0574   20594580.5314
        50.0004         47.2004
  -8669578.61846  -6744258.01147  21364149.612    21364150.1734   21364155.3914
        47.9004         45.2004
   1656245.78842   1302716.00945  24242036.995    24242035.9344   24242040.4244
        37.1004         34.8004
 -16688358.19646 -12980082.43647  21311238.578    21311238.8464   21311244.3024
        48.4004         45.6004
  -5719218.65844  -4186313.72246  23037875.952    23037875.4594   23037877.9084
        41.8004         39.2004
 -12965153.96245 -10090528.06647  22549984.757    22549983.8294   22549986.4434
        44.9004         42.1004
 -17811107.48346 -13852905.24647  20919950.330    20919950.5274   20919955.3224
        48.8004         45.8004
 16  6 12  0 25  0.0000000  0  9G17G31G23G 6G 1G 3G22G19G 9
  -4851889.77044  -3766175.58846  23053403.833    23053404.3024   23053406.1674
        42.9004         40.2004
  -1904064.66243  -1471362.95546  24363562.833    24363561.9024   24363564.5994
        38.7004         36.4004
 -21214729.55547 -16516964.54347  20593457.569    20593457.2594   20593457.5474
        50.0004         47.2004
  -8731242.94046  -6792308.12447  21352415.226    21352415.9064   21352421.0484
        48.1004         45.4004
   1766606.30742   1388711.19245  24263031.889    24263035.9074   24263042.6634
        36.8004         34.8004
 -16629078.67346 -12933890.61347  21322518.968    21322519.3914   21322524.7844
        48.4004         45.6004
  -5637108.01344  -4122331.43346  23053501.417    23053500.4364   23053502.7044
        41.6004         38.8004
 -12913402.36445 -10050202.17247  22559832.603    22559831.3214   22559833.5384
        44.9004         42.1004
 -17872454.51746 -13900708.11947  20908276.758    20908276.6774   20908280.9734
        48.8004         45.8004
 16  6 12  0 25 30.0000000  0  9G17G31G23G 6G 1G 3G22G19G 9
  -4771683.12044  -3703676.93646  23068667.504    23068667.1044   23068668.9994
        42.7004         39.9004
  -1833742.78043  -1416566.70946  24376943.206    24376943.3964   24376946.7964
        38.9004         36.6004
 -21220158.04047 -16521194.52547  20592424.355    20592424.1244   20592424.4234
        49.8004         47.0004
  -8792479.88146  -6840025.20947  21340762.641    21340762.8654   21340767.9794
        48.2004         45.4004
   1877084.14042   1474797.78945  24284056.511    24284059.2854   24284066.1194
        36.8004         34.6004
 -16569528.41646 -12887487.82347  21333851.076    21333851.6434   21333856.5024
        48.4004         45.6004
  -5554846.05644  -4058231.24546  23069156.847    23069154.4654   23069157.3594
        41.5004         38.8004
 -12861122.04645 -10009464.27446  22569780.689    22569779.6594   22569782.8724
        44.8004         41.8004
 -17933361.67646 -13948168.22947  20896686.630    20896686.6934   20896690.9994
        48.8004         45.9004
 16  6 12  0 26  0.0000000  0  9G17G31G23G 6G 1G 3G22G19G 9
  -4691141.90244  -3640917.56346  23083991.777    23083992.3434   23083996.4034
        42.2004         39.2004
  -1762977.68643  -1361425.07446  24390409.965    24390409.6104   24390412.1884
        38.9004         36.6004
 -21225115.19447 -16525057.24247  20591480.934    20591480.8954   20591481.3934
        49.8004         47.0004
  -8853287.23546  -6887407.55147  21329190.980    21329191.4204   21329196.8584
        48.2004         45.4004
   1987677.50342   1560974.38945  24305105.055    24305104.6264   24305113.0734
        36.4004         34.6004
 -16509708.14346 -12840874.63147  21345234.491    21345234.9494   21345239.9284
        48.4004         45.4004
  -5472433.51344  -3994013.71046  23084836.874    23084836.8034   23084839.4464
        41.5004         38.8004
 -12808315.26945  -9968316.15546  22579829.494    22579828.4424   22579830.8804
        44.4004         41.6004
 -17993827.97146 -13995284.81247  20885180.406    20885180.4314   20885184.8914
        48.9004         46.3004
 16  6 12  0 26 30.0000000  0  9G17G31G23G 6G 1G 3G22G19G 9
  -4610269.13244  -3577899.84646  23099383.188    23099383.4594   23099385.1174
        42.2004         39.5004
  -1691771.87043  -1305940.03946  24403959.453    24403959.8794   24403961.8804
        38.7004         36.4004
 -21229601.31447 -16528552.91547  20590627.560    20590627.1174   20590627.9484
        49.8004         47.2004
  -8913662.82046  -6934453.44047  21317701.996    21317702.4164   21317708.0254
        48.2004         45.6004
   2098384.57742   1647239.59445  24326172.605    24326170.9044   24326176.9814
        36.4004         34.5004
 -16449618.53546 -12794051.56247  21356669.126    21356669.5784   21356674.7574
        48.4004         45.4004
  -5389870.85244  -3929679.18846  23100550.953    23100548.8764   23100551.4514
        41.5004         39.0004
 -12754984.09745  -9926759.40746  22589978.118    22589977.2514   22589979.8864
        44.2004         41.4004
 -18053852.38446 -14042057.07547  20873758.383    20873758.3494   20873762.7724
        49.1004         46.3004
 16  6 12  0 27  0.0000000  0  9G17G31G23G 6G 1G 3G22G19G 9
  -4529067.85344  -3514626.16146  23114834.325    23114834.9114   23114837.5174
        41.8004         39.2004
  -1620127.48343  -1250113.22646  24417593.292    24417594.3424   24417595.1344
        38.9004         36.7004
 -21233616.91947 -16531681.95647  20589863.164    20589862.8044   20589863.6544
        49.8004         47.2004
  -8973604.49546  -6981161.22547  21306295.597    21306296.0284   21306301.6364
        48.4004         45.6004
   2209203.49542   1733591.95745  24347262.617    24347259.2614   24347263.8664
        36.1004         34.3004
 -16389260.31246 -12747019.20047  21368154.778    21368155.1264   21368160.5964
        48.2004         45.4004
  -5307159.01644  -3865228.44946  23116290.047    23116288.5384   23116290.4614
        41.5004         38.6004
 -12701131.08745  -9884796.05146  22600225.395    22600225.0744   22600227.6174
        44.1004         41.2004
 -18113433.92446 -14088484.23547  20862419.696    20862419.8964   20862424.6254
        49.1004         46.3004
 16  6 12  0 27 30.0000000  0  9G17G31G23G 6G 1G 3G22G19G 9
  -4447540.88944  -3451098.67546  23130348.923    23130349.1984   23130351.9624
        42.0004         39.5004
  -1548047.00443  -1193946.64646  24431310.682    24431311.3134   24431313.0634
        39.2004         36.9004
 -21237162.39047 -16534444.65247  20589188.285    20589188.2574   20589189.1234
        49.8004         47.2004
  -9033110.05346  -7027529.17447  21294971.347    21294972.2524   21294977.8894
        48.4004         45.4004
   2320132.51442   1820030.10745  24368371.839    24368369.5434   24368375.9894
        35.9004         34.3004
 -16328634.16746 -12699778.06447  21379691.780    21379692.0944   21379697.5704
        48.2004         45.4004
  -5224298.32044  -3800661.71046  23132056.779    23132056.8914   23132057.3704
        41.3004         38.6004
 -12646758.47145  -9842427.81646  22610572.242    22610571.7224   22610574.5164
        44.1004         41.1004
 -18172571.59546 -14134565.52947  20851166.422    20851166.3744   20851171.0734
        49.1004         46.3004
 16  6 12  0 28  0.0000000  0  9G17G31G23G 6G 1G 3G22G19G 9
  -4365691.21344  -3387319.75046  23145923.818    23145923.2654   23145926.5464
        41.8004         39.0004
  -1475532.77943  -1137442.11646  24445108.797    24445110.0034   24445111.7704
        39.0004         36.7004
 -21240238.28947 -16536841.44747  20588602.839    20588602.7234   20588603.7504
        49.8004         47.2004
  -9092177.37946  -7073555.64247  21283731.595    21283732.2314   21283737.5864
        48.2004         45.4004
   2431169.74342   1906552.57345  24389499.638    24389497.9104   24389505.0304
        36.3004         34.5004
 -16267740.83046 -12652328.72947  21391279.129    21391279.4534   21391285.3574
        48.1004         45.2004
  -5141289.75244  -3735979.74346  23147853.334    23147853.3174   23147854.4264
        41.5004         39.0004
 -12591868.66545  -9799656.55846  22621018.167    22621016.7544   22621019.5474
        43.9004         40.9004
 -18231264.41046 -14180300.17147  20839997.073    20839997.3894   20840002.3794
        49.3004         46.5004
 16  6 12  0 28 30.0000000  0  9G17G31G23G 6G 1G 3G22G19G 9
  -4283521.46344  -3323291.41146  23161559.405    23161560.0504   23161563.0334
        41.3004         38.6004
  -1402587.03343  -1080601.29146  24458991.781    24458992.7664   24458993.6164
        39.2004         36.9004
 -21242845.20147 -16538872.80047  20588107.246    20588106.8614   20588107.4644
        49.8004         47.2004
  -9150804.28546  -7119238.93947  21272575.607    21272576.0894   21272581.0844
        48.2004         45.4004
   2542313.41642   1993157.98545  24410647.158    24410646.5514   24410654.5254
        36.3004         34.3004
 -16206580.91246 -12604671.67447  21402917.364    21402917.8124   21402923.4774
        48.1004         45.1004
  -5058133.79644  -3671182.93546  23163679.232    23163677.7704   23163677.8814
        41.5004         39.2004
 -12536463.93945  -9756484.07846  22631561.902    22631561.0034   22631563.1784
        44.1004         41.6004
 -18289511.43246 -14225687.45047  20828913.850    20828913.7184   20828918.3354
        49.3004         46.6004
 16  6 12  0 29  0.0000000  0  9G17G31G23G 6G 1G 3G22G19G 9
  -4201034.14844  -3259015.60846  23177257.201    23177256.9654   23177261.0474
        41.5004         39.0004
  -1329212.26343  -1023426.16146  24472955.061    24472954.8024   24472954.1654
        39.2004         37.1004
 -21244983.40147 -16540538.92847  20587700.711    20587700.1934   20587700.8884
        49.8004         47.2004
  -9208988.63146  -7164577.37447  21261503.048    21261503.7524   21261508.9364
        48.2004         45.2004
   2653561.80842   2079845.02045  24431817.445    24431817.7624   24431823.9564
        35.9004         34.1004
 -16145155.19246 -12556807.50047  21414606.812    21414606.8344   21414612.7534
        48.1004         45.2004
  -4974831.19344  -3606271.83746  23179528.929    23179528.9494   23179530.7014
        41.5004         39.0004
 -12480546.57545  -9712912.14146  22642203.173    22642202.2384   22642203.5494
        44.6004         41.9004
 -18347311.70246 -14270726.60547  20817914.428    20817913.9404   20817919.3774
        49.5004         46.5004
 16  6 12  0 29 30.0000000  0  9G17G31G23G 6G 1G 3G22G19G 9
  -4118233.49744  -3194495.62546  23193012.748    23193013.4634   23193017.4644
        41.5004         38.6004
  -1255410.65343   -965918.42246  24486997.760    24486997.8464   24486998.7214
        39.4004         36.9004
 -21246653.32847 -16541840.17047  20587382.551    20587382.0554   20587382.8744
        49.8004         47.2004
  -9266728.29646  -7209569.30147  21250515.559    21250515.9424   21250521.4444
        48.1004         45.2004
   2764912.96942   2166612.10145  24453010.290    24453007.7514   24453015.1224
        36.1004         34.3004
 -16083464.35946 -12508736.74047  21426345.431    21426346.2694   21426351.9884
        47.9004         45.2004
  -4891382.59144  -3541246.98846  23195409.760    23195409.6074   23195410.4604
        41.5004         39.0004
 -12424119.04045  -9668942.65146  22652940.119    22652938.8694   22652941.4424
        44.6004         41.9004
 -18404664.31046 -14315416.93247  20807000.441    20807000.4494   20807004.7784
        49.5004         46.5004
 16  6 12  0 30  0.0000000  0  9G17G31G23G 6G 1G 3G22G19G 9
  -4035121.82744  -3129733.30946  23208829.527    23208829.1094   23208832.5294
        41.1004         38.5004
  -1181184.69143   -908080.02446  24501122.251    24501122.9084   24501124.4514
        39.2004         36.7004
 -21247855.74447 -16542777.11347  20587153.983    20587153.4454   20587153.9204
        49.8004         47.2004
  -9324021.15646  -7254213.07647  21239613.059    21239613.5164   21239618.7164
        48.1004         45.2004
   2876365.13342   2253457.89245  24474216.541    24474217.2924   24474223.1904
        35.6004         33.8004
 -16021509.07746 -12460459.91347  21438136.045    21438135.9644   21438141.6374
        47.9004         45.1004
  -4807788.58944  -3476108.81646  23211315.883    23211315.6954   23211317.5354
        41.3004         38.3004
 -12367183.76045  -9624577.50546  22663773.844    22663772.9524   22663776.2514
        44.2004         41.4004
 -18461568.30746 -14359757.69247  20796172.206    20796172.2084   20796176.7164
        49.5004         46.5004
 16  6 12  0 30 30.0000000  0  9G17G31G23G 6G 1G 3G22G19G 9
  -3951702.08344  -3064730.94946  23224703.279    23224704.0024   23224706.4574
        41.1004         38.5004
  -1106536.93343   -849912.92746  24515327.626    24515328.5274   24515329.0554
        39.2004         37.1004
 -21248591.11547 -16543350.12947  20587013.805    20587013.6884   20587014.0544
        49.8004         47.2004
  -9380865.06846  -7298507.01447  21228795.814    21228796.3334   21228801.8664
        48.2004         45.4004
   2987916.46742   2340381.00245  24495445.597    24495444.1104   24495450.6274
        35.6004         34.0004
 -15959290.07246 -12411977.58347  21449975.073    21449976.0994   21449981.0244
        47.9004         44.9004
  -4724050.07844  -3410858.06846  23227252.090    23227250.6674   23227252.9644
        41.1004         38.6004
 -12309742.57745  -9579818.17446  22674705.281    22674704.4084   22674706.1964
        44.1004         41.2004
 -18518022.80146 -14403748.19847  20785429.037    20785429.0504   20785433.8934
        49.5004         46.5004
 16  6 12  0 31  0.0000000  0  9G17G31G23G 6G 1G 3G22G19G 9
  -3867976.98344  -2999490.61646  23240635.769    23240635.4104   23240638.5994
        41.3004         38.6004
  -1031469.63543   -791418.93246  24529612.659    24529612.6344   24529614.4444
        39.6004         37.3004
 -21248860.12347 -16543559.73947  20586962.767    20586962.4754   20586962.8514
        49.8004         47.2004
  -9437257.90346  -7342449.47647  21218065.192    21218065.2904   21218070.4384
        48.2004         45.4004
   3099565.17042   2427379.92945  24516692.116    24516692.1804   24516696.7864
        35.6004         33.8004
 -15896808.04246 -12363290.31147  21461866.562    21461866.8064   21461871.4524
        47.9004         45.1004
  -4640167.49244  -3345495.03946  23243214.298    23243213.2974   23243214.3614
        40.9004         38.6004
 -12251798.77145  -9534667.20446  22685731.805    22685730.7454   22685733.2464
        44.1004         41.6004
 -18574026.89946 -14447387.74347  20774771.695    20774771.7594   20774776.9334
        49.5004         46.5004
 16  6 12  0 31 30.0000000  0  9G17G31G23G 6G 1G 3G22G19G 9
  -3783949.58744  -2934014.73246  23256624.972    23256625.6694   23256629.0764
        41.3004         38.6004
   -955985.27743   -732599.93846  24543977.233    24543977.3534   24543978.0964
        39.4004         36.7004
 -21248663.23247 -16543406.31147  20587000.252    20586999.8474   20587000.4994
        50.0004         47.2004
  -9493197.58346  -7386038.82247  21207419.783    21207420.6334   21207425.4304
        48.2004         45.4004
   3211309.40242   2514453.30345  24537955.388    24537956.9234   24537958.8074
        35.0004         33.4004
 -15834063.68946 -12314398.62247  21473805.689    21473806.0704   21473810.6544
        47.9004         44.9004
  -4556141.52544  -3280020.28046  23259202.599    23259202.4874   23259203.7704
        40.9004         38.3004
 -12193354.28245  -9489126.07046  22696853.273    22696852.9184   22696854.4374
        44.2004         41.6004
 -18629579.72046 -14490675.64347  20764200.085    20764200.1774   20764205.1154
        49.3004         46.5004
 16  6 12  0 32  0.0000000  0  9G17G31G23G 6G 1G 3G22G19G 9
  -3699623.18744  -2868305.86946  23272672.983    23272673.1894   23272675.1134
        41.3004         38.6004
   -880086.10243   -673457.70146  24558419.941    24558419.6854   24558420.1914
        38.9004         36.4004
 -21248001.12547 -16542890.37647  20587126.221    20587125.8004   20587126.6524
        50.0004         47.2004
  -9548682.02146  -7429273.44047  21196861.762    21196862.1224   21196866.8954
        48.1004         45.2004
   3323147.30542   2601599.70045  24559237.335    24559237.4544   24559243.0134
        35.2004         33.4004
 -15771057.69746 -12265303.06147  21485795.429    21485795.9184   21485800.4974
        47.7004         44.9004
  -4471972.94144  -3214434.40946  23275220.854    23275219.9154   23275221.9454
        40.9004         38.5004
 -12134411.89345  -9443196.94646  22708070.552    22708068.7354   22708069.9254
        44.2004         41.6004
 -18684680.41146 -14533611.23647  20753715.039    20753715.1494   20753719.3964
        49.3004         46.5004
 16  6 12  0 32 30.0000000  0  9G17G31G23G 6G 1G 3G22G19G 9
  -3615000.55044  -2802366.16746  23288774.954    23288775.8604   23288778.9534
        41.5004         38.8004
   -803774.84143   -613994.38546  24572941.475    24572941.8074   24572943.5834
        39.0004         36.7004
 -21246874.29047 -16542012.31547  20587340.887    20587340.4524   20587340.8584
        50.0004         47.3004
  -9603709.11246  -7472151.67747  21186390.042    21186390.9654   21186395.9364
        48.1004         45.4004
   3435077.09842   2688817.70445  24580538.318    24580536.3624   24580542.9684
        35.4004         34.0004
 -15707790.78046 -12216004.17947  21497835.011    21497834.9864   21497839.8904
        47.7004         44.9004
  -4387662.51944  -3148737.98346  23291263.332    23291262.4964   23291265.0454
        40.9004         38.3004
 -12074973.67045  -9396881.47946  22719379.990    22719378.9474   22719381.1224
        44.1004         41.2004
 -18739328.09846 -14576193.84047  20743316.205    20743316.0034   20743320.2244
        49.3004         46.5004
 16  6 12  0 33  0.0000000  0  9G17G31G23G 6G 1G 3G22G19G 9
  -3530084.61644  -2736197.93346  23304934.595    23304934.7794   23304938.4444
        41.5004         39.2004
   -727053.88843   -554211.83146  24587541.067    24587540.8764   24587542.2704
        38.9004         36.4004
 -21245283.28047 -16540772.56847  20587643.558    20587642.9584   20587643.5414
        50.0004         47.2004
  -9658276.74746  -7514671.90247  21176006.694    21176007.1024   21176012.2624
        48.2004         45.6004
   3547097.02042   2776105.93345  24601855.363    24601852.9434   24601860.4804
        35.2004         33.6004
 -15644263.65146 -12166502.54347  21509923.035    21509923.8254   21509928.5254
        47.5004         44.7004
  -4303210.68044  -3082931.37746  23307334.585    23307332.6094   23307335.2064
        40.6004         37.9004
 -12015042.44145  -9350181.84646  22730784.782    22730783.8904   22730784.5774
        44.1004         41.1004
 -18793521.97746 -14618422.82847  20733003.179    20733002.9944   20733007.9984
        49.3004         46.5004
 16  6 12  0 33 30.0000000  0  9G17G31G23G 6G 1G 3G22G19G 9
  -3444878.45944  -2669803.54046  23321149.516    23321149.6764   23321152.3084
        41.8004         39.2004
   -649925.43043   -494111.70345  24602218.411    24602218.2084   24602217.8044
        38.2004         35.7004
 -21243228.66647 -16539171.57247  20588034.630    20588034.0754   20588034.2894
        50.0004         47.2004
  -9712382.88546  -7556832.51847  21165710.481    21165711.0464   21165715.6124
        48.4004         45.6004
   3659205.10742   2863462.82945  24623190.370    24623186.4524   24623192.9614
        35.6004         34.1004
 -15580477.00246 -12116798.67547  21522061.292    21522061.5064   21522066.8824
        47.5004         44.5004
  -4218618.01043  -3017015.04646  23323430.157    23323430.3954   23323433.2444
        40.4004         37.9004
 -11954620.16845  -9303099.56946  22742283.937    22742283.1334   22742283.7494
        44.1004         41.2004
 -18847261.17246 -14660297.51147  20722776.987    20722777.0834   20722782.3374
        49.5004         46.6004
 16  6 12  0 34  0.0000000  0  9G17G31G23G 6G 1G 3G22G19G 9
  -3359385.18344  -2603185.43846  23337418.023    23337417.7044   23337421.4854
        41.5004         38.6004
   -572392.26443   -433696.26646  24616973.337    24616973.1374   24616974.1274
        38.3004         36.4004
 -21240711.13847 -16537209.85747  20588513.386    20588513.0874   20588513.3614
        50.0004         47.2004
  -9766025.58146  -7598632.01547  21155502.622    21155502.9424   21155508.4004
        48.6004         45.8004
   3771399.58042   2950887.06445  24644534.751    24644535.8954   24644542.0204
        35.4004         33.6004
 -15516431.51446 -12066893.11147  21534249.018    21534249.0174   21534254.3434
        47.4004         44.5004
  -4133885.21843  -2950989.53446  23339556.579    23339554.2894   23339557.2094
        40.4004         37.8004
 -11893710.11545  -9255637.19946  22753874.065    22753872.9504   22753874.1294
        44.1004         41.2004
 -18900544.90647 -14701817.28547  20712637.568    20712637.5794   20712642.5614
        49.6004         46.6004
 16  6 12  0 34 30.0000000  0  9G17G31G23G 6G 1G 3G22G19G 9
  -3273607.24744  -2536345.50546  23353740.128    23353740.8664   23353744.9104
        41.5004         39.0004
   -494456.64143   -372967.24746  24631802.812    24631802.4704   24631804.4494
        38.7004         36.4004
 -21237731.37547 -16534887.95847  20589080.310    20589079.7904   20589080.4704
        49.8004         47.2004
  -9819202.52946  -7640068.58947  21145383.403    21145383.7824   21145388.8424
        48.6004         45.8004
   3883678.63742   3038377.21145  24665894.584    24665901.4824   24665905.6394
        35.0004         33.6004
 -15452127.91346 -12016786.43647  21546485.332    21546486.0904   21546491.0224
        47.4004         44.4004
  -4049013.07943  -2884855.43946  23355705.304    23355704.7814   23355707.6964
        40.4004         37.8004
 -11832314.43945  -9207796.43446  22765558.479    22765556.9504   22765557.8884
        43.9004         41.1004
 -18953372.37547 -14742981.53247  20702584.742    20702584.6124   20702589.2644
        49.6004         46.6004
 16  6 12  0 35  0.0000000  0  9G17G31G23G 6G 1G 3G22G19G 9
  -3187548.57444  -2469286.81346  23370117.652    23370116.9724   23370120.4364
        41.3004         38.5004
   -416121.00943   -311926.56246  24646710.483    24646711.0404   24646709.8774
        38.3004         36.0004
 -21234290.19847 -16532206.51247  20589735.683    20589735.1574   20589735.4054
        50.0004         47.2004
  -9871911.87146  -7681140.80547  21135352.587    21135353.0724   21135358.5384
        48.6004         45.8004
   3996040.41842   3125931.85045  24687272.868    24687280.6444   24687291.0354
        35.4004         34.0004
 -15387566.88246 -11966479.16747  21558770.519    21558771.1904   21558776.8464
        47.2004         44.4004
  -3964002.16343  -2818613.19746  23371882.713    23371882.4964   23371884.9264
        40.3004         37.8004
 -11770435.75145  -9159579.29146  22777330.837    22777330.9064   22777333.2724
        43.6004         40.4004
 -19005742.77446 -14783789.61847  20692618.563    20692618.8634   20692623.1524
        49.5004         46.6004
 16  6 12  0 35 30.0000000  0  9G17G31G23G 6G 1G 3G22G19G 9
  -3101211.74444  -2402011.38446  23386546.196    23386546.7424   23386550.5124
        41.3004         38.8004
   -337388.11043   -250576.20146  24661692.960    24661692.7984   24661693.4914
        38.7004         36.6004
 -21230387.93347 -16529165.77647  20590477.673    20590477.3574   20590477.9534
        50.0004         47.2004
  -9924151.40646  -7721846.92547  21125411.296    21125412.0984   21125417.6734
        48.6004         45.8004
   4108483.13242   3213549.51645  24708673.537    24708679.3184   24708688.7264
        35.0004         33.6004
 -15322749.13546 -11915971.85647  21571105.779    21571105.7584   21571111.1394
        47.2004         44.4004
  -3878853.20443  -2752263.38146  23388087.371    23388086.1494   23388087.6714
        40.1004         37.8004
 -11708076.75044  -9110987.88746  22789198.764    22789197.7314   22789199.0214
        43.2004         40.6004
 -19057655.36246 -14824240.97947  20682740.239    20682740.2984   20682744.7744
        49.5004         46.6004
 16  6 12  0 36  0.0000000  0  9G17G31G23G 6G 1G 3G22G19G 9
  -3014599.65144  -2334521.47646  23403029.067    23403029.0864   23403031.8654
        41.1004         38.5004
   -258260.15743   -188918.08046  24676749.961    24676750.5194   24676750.4284
        38.5004         36.0004
 -21226025.64747 -16525766.58947  20591307.800    20591307.6154   20591307.9484
        50.0004         47.2004
  -9975919.21246  -7762185.47247  21115560.784    21115561.2424   21115566.0974
        48.6004         45.8004
   4221004.95042   3301228.76345  24730093.332    24730092.1754   24730101.8254
        35.4004         34.0004
 -15257675.37046 -11865265.03947  21583487.563    21583488.1304   21583494.3644
        47.0004         44.2004
  -3793566.83243  -2685806.49446  23404314.241    23404314.5514   23404318.0334
        39.9004         37.3004
 -11645239.80045  -9062024.06146  22801157.597    22801156.4324   22801156.7984
        43.7004         41.4004
 -19109109.37046 -14864334.99947  20672949.267    20672948.9494   20672953.3054
        49.5004         46.6004
 16  6 12  0 36 30.0000000  0  9G17G31G23G 6G 1G 3G22G19G 9
  -2927715.15644  -2266819.31046  23419562.400    23419562.6424   23419566.0544
        41.3004         38.8004
   -178739.81443   -126954.18245  24691882.503    24691881.9444   24691882.3394
        38.3004         35.9004
 -21221203.75347 -16522009.25947  20592225.556    20592225.1024   20592225.7064
        50.0004         47.2004
 -10027213.29246  -7802154.87547  21105799.950    21105800.3844   21105805.3354
        48.6004         45.8004
   4333603.99542   3388968.28045  24751522.486    24751520.3454   24751526.2704
        35.4004         33.6004
 -15192346.31246 -11814359.30547  21595920.319    21595920.7014   21595925.9684
        47.0004         44.2004
  -3708143.85743  -2619243.15746  23420571.601    23420570.4134   23420573.6624
        39.7004         37.4004
 -11581927.40945  -9012689.74846  22813203.734    22813202.9754   22813205.4614
        44.1004         41.2004
 -19160104.04446 -14904071.09047  20663245.149    20663244.9224   20663249.5914
        49.5004         46.6004
 16  6 12  0 37  0.0000000  0  9G17G31G23G 6G 1G 3G22G19G 9
  -2840561.45344  -2198907.33946  23436146.900    23436146.8104   23436150.0514
        41.1004         38.3004
    -98829.41143    -64686.31245  24707087.980    24707088.1244   24707088.6234
        38.2004         35.9004
 -21215923.06847 -16517894.44047  20593229.753    20593229.7334   20593230.5644
        49.8004         47.0004
 -10078031.59946  -7841753.54947  21096129.873    21096130.4844   21096135.2134
        48.8004         46.1004
   4446278.41942   3476766.52045  24772964.835    24772961.5214   24772967.1484
        35.4004         34.0004
 -15126762.61646 -11763255.14747  21608400.832    21608401.1844   21608405.8884
        47.0004         44.4004
  -3622584.70143  -2552573.70246  23436854.199    23436853.2954   23436854.8524
        39.9004         37.4004
 -11518142.33245  -8962987.08946  22825341.281    22825340.1154   22825343.3834
        43.6004         40.6004
 -19210638.67046 -14943448.70147  20653627.698    20653628.0804   20653633.3514
        49.5004         46.6004
 16  6 12  0 37 30.0000000  0  9G17G31G23G 6G 1G 3G22G19G 9
  -2753141.58444  -2130787.97946  23452781.732    23452781.8334   23452784.0774
        40.8004         37.9004
    -18531.75143     -2116.72846  24722367.818    24722367.9564   24722369.2414
        38.3004         36.0004
 -21210183.98347 -16513422.42647  20594322.564    20594322.1054   20594322.8124
        49.8004         47.2004
 -10128372.16446  -7880979.95747  21086550.630    21086550.8194   21086555.8274
        48.9004         46.1004
   4559026.42042   3564622.05845  24794420.173    24794414.7124   24794421.1064
        35.2004         33.6004
 -15060925.00646 -11711953.13947  21620928.836    21620929.4914   21620934.4634
        47.0004         44.4004
  -3536890.13143  -2485798.74546  23453161.865    23453160.8004   23453161.6484
        39.9004         37.4004
 -11453887.23444  -8912918.19446  22837569.335    22837568.2104   22837570.6154
        43.4004         40.9004
 -19260712.52646 -14982467.27847  20644099.588    20644099.3814   20644104.7984
        49.5004         46.8004
 16  6 12  0 38  0.0000000  0  9G17G31G23G 6G 1G 3G22G19G 9
  -2665458.61143  -2062463.62946  23469468.479    23469468.3154   23469469.9294
        40.4004         37.8004
     62150.86043     60752.84646  24737722.521    24737722.5254   24737725.9704
        38.5004         36.4004
 -21203987.42847 -16508593.93847  20595501.485    20595501.1634   20595501.6404
        49.8004         47.0004
 -10178232.99646  -7919832.55047  21077062.017    21077062.7874   21077067.5164
        48.9004         46.3004
   4671846.09942   3652533.47945  24815888.492    24815885.0354   24815890.4284
        35.0004         33.6004
 -14994834.21846 -11660453.85047  21633505.713    21633505.9254   21633511.3044
        47.0004         44.2004
  -3451060.69243  -2418918.68546  23469492.336    23469492.1514   23469495.4394
        39.7004         37.3004
 -11389164.85545  -8862485.20546  22849886.048    22849885.1194   22849887.0284
        43.7004         41.1004
 -19310324.89747 -15021126.25847  20634658.620    20634658.9784   20634663.6144
        49.6004         46.8004
 16  6 12  0 38 30.0000000  0  9G17G31G23G 6G 1G 3G22G19G 9
  -2577515.76844  -1993936.76346  23486202.731    23486203.2124   23486206.8654
        40.6004         38.1004
    143215.80543    123920.32846  24753148.266    24753148.2624   24753148.9054
        38.5004         36.0004
 -21197334.04247 -16503409.47647  20596767.838    20596767.2854   20596767.5574
        49.8004         47.0004
 -10227612.08646  -7958309.76147  21067665.749    21067666.2814   21067671.0874
        49.1004         46.3004
   4784735.68942   3740499.39645  24837370.032    24837370.1524   24837374.7364
        34.9004         33.6004
 -14928490.89646 -11608757.77247  21646129.985    21646130.5554   21646136.7014
        47.0004         44.2004
  -3365097.22443  -2351934.16846  23485851.390    23485850.2484   23485853.5454
        39.9004         37.4004
 -11323977.74445  -8811690.08446  22862290.770    22862289.6794   22862292.2034
        43.9004         41.1004
 -19359475.10047 -15059425.09647  20625305.682    20625305.7584   20625310.2644
        49.6004         46.8004
 16  6 12  0 39  0.0000000  0  9G17G31G23G 6G 1G 3G22G19G 9
  -2489315.82844  -1925209.56646  23502988.848    23502989.2354   23502991.2174
        40.9004         38.6004
    224660.39543    187383.65345  24768646.967    24768645.7704   24768647.9174
        38.2004         35.7004
 -21190224.84147 -16497869.83447  20598120.424    20598119.7884   20598120.5644
        49.6004         47.0004
 -10276507.48246  -7996410.07147  21058361.156    21058361.8564   21058366.6204
        49.1004         46.3004
   4897693.33842   3828518.30245  24858864.347    24858860.6894   24858871.1524
        34.9004         33.4004
 -14861895.79746 -11556865.50847  21658802.805    21658803.2474   21658809.2784
        47.0004         44.2004
  -3279000.25043  -2284845.64646  23502236.790    23502235.3634   23502236.4654
        39.7004         37.3004
 -11258328.51645  -8760534.84646  22874783.727    22874782.2354   22874784.6694
        43.9004         41.1004
 -19408162.45447 -15097363.28747  20616040.851    20616040.8124   20616045.2204
        49.6004         46.6004
 16  6 12  0 39 30.0000000  0  9G17G31G23G 6G 1G 3G22G19G 9
  -2400861.97644  -1856284.51846  23519819.100    23519818.0684   23519822.1674
        40.8004         38.1004
    306482.32643    251140.98745  24784215.742    24784214.7094   24784217.1944
        38.0004         35.7004
 -21182660.77847 -16491975.75747  20599559.577    20599559.2484   20599560.3934
        49.8004         47.0004
 -10324917.24846  -8034131.96347  21049148.957    21049149.5924   21049154.8224
        49.1004         46.3004
   5010717.21342   3916588.84045  24880371.381    24880372.3654   24880376.7484
        35.0004         33.4004
 -14795049.59746 -11504777.58847  21671522.756    21671523.2804   21671529.9094
        46.9004         44.0004
  -3192770.47343  -2217653.61346  23518643.601    23518644.0474   23518645.1014
        39.7004         37.4004
 -11192219.75545  -8709021.54546  22887363.822    22887362.0044   22887364.5514
        43.9004         41.1004
 -19456386.29647 -15134940.29347  20606863.913    20606864.0484   20606868.6394
        49.6004         46.8004
 16  6 12  0 40  0.0000000  0  9G17G31G23G 6G 1G 3G22G19G 9
  -2312157.53043  -1787164.17446  23536696.962    23536698.2594   23536703.1224
        40.3004         37.8004
    388678.99743    315190.33845  24799857.852    24799858.1524   24799859.1354
        37.6004         35.5004
 -21174641.97747 -16485727.33647  20601085.354    20601085.1884   20601086.0754
        49.8004         47.0004
 -10372839.43146  -8071473.92247  21040029.931    21040030.3514   21040035.1074
        49.1004         46.1004
   5123805.40142   4004709.49445  24901890.634    24901889.4974   24901894.7514
        35.0004         33.4004
 -14727953.01146 -11452494.56747  21684291.310    21684291.8534   21684297.0194
        46.9004         43.9004
  -3106408.54543  -2150358.64146  23535079.752    23535079.0454   23535078.2414
        39.7004         37.1004
 -11125654.29345  -8657152.37746  22900029.553    22900029.0714   22900031.2824
        43.6004         40.6004
 -19504145.99247 -15172155.63247  20597775.945    20597775.8234   20597780.7574
        49.8004         47.0004
 16  6 12  0 40 30.0000000  0  9G17G31G23G 6G 1G 3G22G19G 9
  -2223204.87544  -1717850.45446  23553625.657    23553625.3954   23553631.6684
        40.6004         38.1004
    471248.11942    379529.91145  24815570.837    24815570.2114   24815572.9394
        37.5004         35.3004
 -21166169.67947 -16479125.54247  20602697.541    20602697.4844   20602698.1254
        49.8004         47.0004
 -10420272.11646  -8108434.45447  21031003.596    21031004.0574   21031009.3184
        48.9004         45.9004
   5236956.09242   4092878.83945  24923423.084    24923424.0984   24923429.9684
        35.0004         33.6004
 -14660606.70346 -11400016.94247  21697107.308    21697108.0344   21697112.2484
        46.7004         43.9004
  -3019914.94843  -2082961.03546  23551538.891    23551537.5884   23551538.1474
        39.6004         37.3004
 -11058634.76744  -8604929.36346  22912783.104    22912782.4634   22912785.2354
        43.2004         40.4004
 -19551440.87647 -15209008.76747  20588775.670    20588775.9294   20588780.3694
        49.8004         46.8004
 16  6 12  0 41  0.0000000  0  9G17G31G23G 6G 1G 3G22G19G 9
  -2134007.42343  -1648345.97646  23570599.845    23570599.2814   23570603.4194
        40.3004         37.6004
    554186.52943    444157.20945  24831352.291    24831352.3704   24831355.6204
        37.8004         35.9004
 -21157244.44547 -16472170.80947  20604396.662    20604396.3164   20604396.5694
        49.8004         47.0004
 -10467213.33846  -8145012.02647  21022071.105    21022071.5644   21022076.4744
        48.9004         46.1004
   5350167.50042   4181095.49345  24944964.940    24944964.2214   24944971.4074
        35.4004         33.8004
 -14593011.42246 -11347345.31547  21709969.908    21709970.7504   21709975.3234
        46.7004         43.9004
  -2933290.65443  -2015461.59246  23568021.534    23568021.1514   23568022.4444
        39.6004         37.1004
 -10991164.07044  -8552354.80746  22925623.571    22925622.5004   22925624.2004
        43.4004         40.9004
 -19598270.36547 -15245499.26547  20579864.593    20579864.4614   20579869.0284
        49.8004         46.8004
 16  6 12  0 41 30.0000000  0  9G17G31G23G 6G 1G 3G22G19G 9
  -2044568.19643  -1578653.13346  23587618.951    23587619.8684   23587621.4944
        39.9004         37.3004
    637491.89643    509070.44045  24847203.904    24847203.7854   24847206.9084
        37.8004         35.7004
 -21147866.85047 -16464863.58647  20606181.405    20606180.7814   20606181.1054
        49.8004         47.0004
 -10513661.20846  -8181205.16747  21013231.931    21013232.7234   21013237.6274
        48.9004         46.1004
   5463437.65442   4269357.88345  24966518.196    24966518.7884   24966528.5734
        35.4004         33.6004
 -14525167.85346 -11294480.21747  21722880.959    21722881.0914   21722885.9974
        46.7004         43.9004
  -2846536.04543  -1947860.61246  23584531.215    23584529.9274   23584532.9244
        39.4004         37.1004
 -10923244.62044  -8499430.59646  22938547.529    22938546.5964   22938547.2204
        43.2004         40.2004
 -19644633.86047 -15281626.65047  20571041.653    20571041.6764   20571046.4734
        49.8004         46.8004
 16  6 12  0 42  0.0000000  0  9G17G31G23G 6G 1G 3G22G19G 9
  -1954890.38843  -1508774.34246  23604684.331    23604684.0444   23604688.0994
        39.9004         37.4004
    721161.60743    574267.60045  24863125.990    24863127.2174   24863128.3384
        37.8004         35.7004
 -21138038.08447 -16457204.80347  20608051.607    20608050.8654   20608051.3184
        49.8004         47.0004
 -10559613.80646  -8217012.39347  21004487.293    21004488.0374   21004493.0374
        48.9004         46.1004
   5576764.83742   4357664.74145  24988083.621    24988087.5534   24988092.5654
        35.2004         33.6004
 -14457076.69646 -11241422.18747  21735836.910    21735837.6644   21735843.6424
        46.7004         44.0004
  -2759652.08143  -1880158.83546  23601063.572    23601062.5604   23601066.3264
        39.4004         37.1004
 -10854879.62144  -8446159.16046  22951556.275    22951555.1964   22951557.4884
        42.7004         39.7004
 -19690530.72947 -15317390.43447  20562307.979    20562307.8154   20562312.7594
        49.8004         47.2004
 16  6 12  0 42 30.0000000  0  9G17G31G23G 6G 1G 3G22G19G 9
  -1864977.01143  -1438712.00846  23621794.663    23621795.3304   23621798.7604
        40.1004         37.8004
    805193.19043    639746.76545  24879117.009    24879117.2184   24879120.6444
        37.8004         35.9004
 -21127759.06647 -16449195.17047  20610007.390    20610006.8174   20610007.4484
        49.8004         47.0004
 -10605069.27846  -8252432.23447  20995837.420    20995838.4164   20995843.5064
        48.9004         46.1004
   5690147.18642   4446014.53945  25009661.918    25009662.8034   25009672.0534
        35.0004         33.6004
 -14388738.67846 -11188171.81447  21748842.735    21748842.5554   21748847.9834
        46.7004         44.0004
  -2672639.36643  -1812356.70146  23617621.795    23617620.1874   23617623.5224
        39.4004         37.1004
 -10786071.65844  -8392542.55946  22964651.214    22964649.5944   22964651.8014
        42.7004         40.0004
 -19735960.41147 -15352790.18747  20553662.886    20553663.1524   20553668.0314
        50.0004         47.2004
 16  6 12  0 43  0.0000000  0  9G17G31G23G 6G 1G 3G22G19G 9
  -1774830.97643  -1368468.34746  23638947.843    23638947.9304   23638952.7074
        40.1004         37.4004
    889583.93343    705505.78945  24895176.295    24895177.1444   24895179.2204
        38.0004         35.9004
 -21117030.50147 -16440835.24447  20612049.209    20612048.6284   20612049.2084
        49.8004         47.0004
 -10650025.73146  -8287463.23747  20987282.590    20987283.1224   20987288.3954
        48.8004         45.9004
   5803582.80142   4534405.83945  25031248.286    25031247.5684   25031253.2374
        35.2004         34.0004
 -14320154.50246 -11134729.61647  21761892.957    21761893.6894   21761898.9634
        46.7004         44.0004
  -2585498.31543  -1744454.62546  23634206.047    23634205.2264   23634205.1144
        39.6004         37.1004
 -10716823.16544  -8338582.70846  22977827.648    22977827.1624   22977829.4574
        42.7004         39.9004
 -19780922.34847 -15387825.45447  20545107.325    20545107.0034   20545111.8604
        50.0004         47.2004
 16  6 12  0 43 30.0000000  0  9G17G31G23G 6G 1G 3G22G19G 9
  -1684455.45643  -1298045.92146  23656147.547    23656146.4784   23656149.3864
        39.9004         37.4004
    974331.29543    771542.67346  24911303.159    24911303.0824   24911305.7454
        38.2004         36.0004
 -21105853.12547 -16432125.60047  20614176.014    20614175.8424   20614176.2084
        49.8004         47.2004
 -10694481.29646  -8322103.95047  20978823.051    20978823.3144   20978828.5024
        48.8004         45.8004
   5917069.89342   4622837.26945  25052844.914    25052845.0314   25052849.5974
        35.4004         33.6004
 -14251324.86046 -11081096.15547  21774991.183    21774991.5164   21774997.3414
        46.9004         44.0004
  -2498229.79143  -1676453.16646  23650810.727    23650810.4614   23650812.7054
        39.6004         37.3004
 -10647137.07944  -8284281.87646  22991088.960    22991088.3074   22991090.5304
        42.3004         39.7004
 -19825415.96347 -15422495.78447  20536640.053    20536639.9904   20536644.4484
        50.0004         47.2004
 16  6 12  0 44  0.0000000  0  9G17G31G23G 6G 1G 3G22G19G 9
  -1593853.54743  -1227447.08546  23673387.579    23673387.5914   23673392.2204
        39.9004         37.6004
   1059432.84843    837855.55046  24927498.878    24927499.1364   24927498.8514
        38.3004         36.2004
 -21094227.56947 -16423066.71947  20616388.457    20616388.0204   20616388.3264
        49.8004         47.2004
 -10738434.14846  -8356352.92347  20970459.408    20970459.9314   20970464.8114
        48.8004         45.9004
   6030606.60442   4711307.33545  25074450.437    25074448.2064   25074455.5834
        35.4004         33.8004
 -14182250.45646 -11027271.98247  21788135.760    21788136.2104   21788141.4954
        46.9004         43.9004
  -2410834.27243  -1608352.81746  23667444.046    23667442.0014   23667442.7714
        39.7004         37.4004
 -10577016.61844  -8229642.55546  23004432.478    23004431.0264   23004434.6124
        42.3004         39.7004
 -19869440.74147 -15456800.79347  20528262.259    20528262.2784   20528267.0954
        50.0004         47.2004
 16  6 12  0 44 30.0000000  0  9G17G31G23G 6G 1G 3G22G19G 9
  -1503028.23843  -1156674.17246  23690671.915    23690671.3904   23690675.5384
        40.1004         37.8004
   1144885.78743    904442.22646  24943758.865    24943759.1744   24943761.0654
        38.3004         36.0004
 -21082155.11047 -16413659.60447  20618685.790    20618685.3684   20618685.4964
        49.8004         47.0004
 -10781882.41646  -8390208.72847  20962191.555    20962191.9744   20962196.9884
        48.9004         46.3004
   6144191.06942   4799814.61645  25096064.458    25096062.5744   25096069.9904
        35.2004         33.6004
 -14112931.98346 -10973257.60447  21801325.753    21801326.1854   21801331.6724
        46.7004         43.7004
  -2323312.65743  -1540154.14946  23684096.439    23684096.1614   23684099.6854
        39.6004         37.3004
 -10506464.28344  -8174666.72246  23017857.777    23017856.4384   23017859.1764
        42.7004         40.2004
 -19912996.15247 -15490740.06747  20519974.220    20519974.2014   20519978.9624
        50.2004         47.3004
 16  6 12  0 45  0.0000000  0  9G17G31G23G 6G 1G 3G22G19G 9
  -1411982.44843  -1085729.45146  23707995.989    23707996.1304   23708000.8804
        40.1004         37.6004
   1230687.43543    971300.63246  24960086.450    24960086.4354   24960088.2534
        38.3004         36.0004
 -21069636.29747 -16403904.68247  20621067.831    20621067.3874   20621068.0334
        49.8004         47.0004
 -10824824.28746  -8423669.92647  20954019.924    20954020.3604   20954025.7054
        49.1004         46.3004
   6257821.48142   4888357.71245  25117684.722    25117685.5054   25117693.5254
        35.2004         33.8004
 -14043370.19345 -10919053.64347  21814562.984    21814563.6264   21814569.0024
        46.3004         43.5004
  -2235665.38143  -1471857.59046  23700774.993    23700773.3724   23700777.1934
        39.6004         36.9004
 -10435482.69144  -8119356.41946  23031364.901    23031364.5874   23031366.6854
        42.7004         39.9004
 -19956081.70047 -15524313.21247  20511775.517    20511775.5094   20511779.9144
        50.2004         47.3004
 16  6 12  0 45 30.0000000  0  9G17G31G23G 6G 1G 3G22G19G 9
  -1320719.43343  -1014615.46046  23725362.484    23725363.4854   23725367.0054
        40.1004         37.8004
   1316835.00943   1038428.59745  24976480.283    24976480.3144   24976480.8244
        38.2004         35.9004
 -21056672.33747 -16393802.89247  20623534.696    20623534.5324   20623534.6114
        49.6004         46.8004
 -10867257.95946  -8456735.12247  20945945.187    20945945.3754   20945950.1264
        49.1004         46.1004
   6371495.96442   4976935.11645  25139315.201    25139317.0094   25139327.1064
        35.7004         34.3004
 -13973565.76445 -10864660.60247  21827845.704    21827846.3744   21827852.6174
        46.2004         43.5004
  -2147893.69243  -1403464.06746  23717476.693    23717477.0594   23717478.3284
        39.4004         36.9004
 -10364075.01344  -8063714.08346  23044954.466    23044952.9124   23044955.7434
        42.9004         40.4004
 -19998696.87447 -15557519.83347  20503666.071    20503666.1674   20503670.5004
        50.2004         47.3004
 16  6 12  0 46  0.0000000  0  9G17G31G23G 6G 1G 3G22G19G 9
  -1229242.69243   -943334.96146  23742770.328    23742770.3574   23742774.2794
        40.3004         37.6004
   1403326.36843   1105824.44446  24992940.024    24992940.8994   24992940.0944
        38.3004         36.2004
 -21043264.07947 -16383354.89047  20626086.178    20626085.9024   20626086.2854
        49.6004         46.8004
 -10909181.61946  -8489402.91147  20937966.882    20937967.3984   20937972.4564
        48.9004         45.9004
   6485212.71342   5065545.46945  25160953.323    25160958.0634   25160965.7874
        35.6004         33.6004
 -13903519.37545 -10810079.03647  21841176.066    21841176.6204   21841181.8744
        46.2004         43.3004
  -2059997.62443  -1334973.65446  23734204.124    23734202.8514   23734204.4944
        39.4004         36.9004
 -10292243.87744  -8007741.79146  23058624.249    23058622.4104   23058624.9394
        43.4004         40.7004
 -20040841.19147 -15590359.54447  20495645.923    20495645.8004   20495650.7954
        50.2004         47.3004
 16  6 12  0 46 30.0000000  0  9G17G31G23G 6G 1G 3G22G19G 9
  -1137554.41643   -871889.56546  23760217.586    23760217.4604   23760222.9224
        39.9004         37.6004
   1490158.65643   1173485.95545  25009461.461    25009462.2304   25009463.3204
        38.2004         35.9004
 -21029412.27547 -16372561.26647  20628722.089    20628721.5014   20628722.1924
        49.6004         46.8004
 -10950593.49446  -8521671.90747  20930086.836    20930087.1634   20930092.0464
        48.8004         46.1004
   6598969.86142   5154187.28545  25182603.010    25182605.3654   25182611.5624
        35.9004         34.5004
 -13833231.78145 -10755309.48847  21854551.429    21854552.3334   21854557.5374
        46.3004         43.5004
  -1971977.84443  -1266386.80246  23750954.982    23750953.5404   23750956.1934
        39.6004         37.1004
 -10219992.10544  -7951441.71946  23072371.994    23072370.8524   23072373.2734
        43.0004         39.9004
 -20082514.16747 -15622831.97347  20487715.603    20487715.5714   20487720.5584
        50.2004         47.3004
 16  6 12  0 47  0.0000000  0  9G17G31G23G 6G 1G 3G22G19G 9
  -1045658.18843   -800282.17446  23777706.199    23777705.8824   23777710.2604
        40.1004         37.6004
   1577329.68543   1241411.37445  25026050.066    25026048.9124   25026051.1004
        38.0004         35.7004
 -21015117.80047 -16361422.70847  20631442.380    20631441.9384   20631442.3084
        49.6004         47.0004
 -10991491.78746  -8553540.70947  20922304.372    20922305.0034   20922309.4644
        48.9004         46.3004
   6712765.46942   5242859.06945  25204257.844    25204261.6404   25204265.0344
        36.1004         34.3004
 -13762703.68046 -10700352.55747  21867973.952    21867973.7214   21867978.4804
        46.5004         43.7004
  -1883834.92443  -1197704.01246  23767725.819    23767725.2654   23767728.0144
        39.6004         37.1004
 -10147322.28044  -7894815.87646  23086198.948    23086199.3844   23086201.3124
        42.3004         39.3004
 -20123715.37947 -15654936.79447  20479874.713    20479874.9704   20479880.0864
        50.2004         47.3004
 16  6 12  0 47 30.0000000  0  9G17G31G23G 6G 1G 3G22G19G 9
   -953557.26943   -728515.27946  23795231.735    23795232.1564   23795236.0294
        40.1004         37.6004
   1664836.17543   1309598.22345  25042703.106    25042702.9204   25042703.4554
        37.6004         35.5004
 -21000381.50547 -16349939.88247  20634246.861    20634246.6464   20634246.5074
        49.6004         47.0004
 -11031874.73646  -8585007.94847  20914619.637    20914620.2264   20914624.8844
        49.1004         46.3004
   6826597.91542   5331559.57945  25225920.018    25225921.8044   25225926.2934
        35.7004         34.0004
 -13691935.75146 -10645208.73847  21881440.223    21881441.1084   21881445.3254
        46.5004         43.7004
  -1795569.83443  -1128926.02346  23784524.040    23784522.6934   23784524.8874
        39.6004         37.1004
 -10074237.69944  -7837866.90246  23100108.208    23100106.9334   23100108.5494
        42.2004         39.5004
 -20164444.38747 -15686673.66747  20472124.597    20472124.9264   20472129.5914
        50.2004         47.3004
 16  6 12  0 48  0.0000000  0  9G17G31G23G 6G 1G 3G22G19G 9
   -861254.55243   -656591.10346  23812795.619    23812796.5454   23812800.5994
        39.9004         37.6004
   1752675.40642   1378044.36745  25059417.915    25059418.5364   25059418.6384
        37.5004         35.3004
 -20985204.53947 -16338113.66747  20637135.242    20637134.6804   20637134.7854
        49.6004         46.8004
 -11071740.62846  -8616072.27647  20907033.119    20907033.6884   20907038.6934
        49.1004         46.5004
   6940465.19542   5420287.20745  25247591.130    25247589.3264   25247598.1394
        35.6004         34.0004
 -13620928.74845 -10589878.62747  21894951.778    21894952.4844   21894957.1274
        46.3004         43.5004
  -1707183.28543  -1060053.39546  23801343.650    23801341.7134   23801343.5084
        39.7004         37.4004
 -10000741.22244  -7780596.94046  23114093.654    23114093.0894   23114094.9364
        42.3004         39.5004
 -20204700.76347 -15718042.26047  20464464.742    20464464.6634   20464469.1694
        50.2004         47.3004
 16  6 12  0 48 30.0000000  0  9G17G31G23G 6G 1G 3G22G19G 9
   -768753.08343   -584512.09046  23830400.625    23830400.4204   23830403.6134
        40.3004         37.8004
   1840845.03042   1446747.95345  25076196.353    25076196.0244   25076196.8484
        37.3004         35.3004
 -20969587.84847 -16325944.81547  20640105.853    20640105.6834   20640106.2094
        49.6004         46.8004
 -11111087.68146  -8646732.31747  20899545.875    20899546.3194   20899551.2914
        49.3004         46.5004
   7054365.51742   5509040.60545  25269266.521    25269267.0884   25269273.0194
        36.1004         34.1004
 -13549683.34245 -10534362.74347  21908509.546    21908509.2594   21908514.7044
        46.2004         43.3004
  -1618675.77943   -991086.50546  23818184.973    23818184.3924   23818186.0344
        39.6004         37.1004
  -9926835.67744  -7723008.19546  23128156.914    23128156.7414   23128157.7954
        42.2004         39.5004
 -20244484.08247 -15749042.24047  20456894.497    20456894.3634   20456898.8574
        50.3004         47.5004
 16  6 12  0 49  0.0000000  0  9G17G31G23G 6G 1G 3G22G19G 9
   -676055.92543   -512280.57646  23848038.422    23848038.8234   23848043.0304
        40.3004         37.8004
   1929342.42042   1515706.95145  25093035.550    25093036.7954   25093037.2804
        37.1004         35.0004
 -20953532.23646 -16313433.94347  20643161.519    20643161.1484   20643161.5304
        49.5004         46.6004
 -11149914.23146  -8676986.77747  20892157.098    20892157.6224   20892162.6574
        49.1004         46.3004
   7168297.06542   5597818.29845  25290946.569    25290946.7524   25290952.6434
        36.1004         34.5004
 -13478200.26745 -10478661.66147  21922111.954    21922112.3734   21922117.4704
        46.0004         43.2004
  -1530047.79543   -922025.74646  23835050.996    23835050.3334   23835051.4894
        39.4004         36.9004
  -9852524.08344  -7665103.08446  23142300.646    23142298.6764   23142299.7974
        42.5004         40.0004
 -20283793.93847 -15779673.29347  20449413.790    20449413.9124   20449418.1464
        50.3004         47.5004
 16  6 12  0 49 30.0000000  0  9G17G31G23G 6G 1G 3G22G19G 9
   -583166.29843   -439899.08946  23865713.514    23865714.3314   23865717.7574
        39.7004         37.3004
   2018164.89142   1584919.20045  25109938.794    25109938.7554   25109939.4684
        37.3004         35.2004
 -20937038.76246 -16300581.88447  20646299.891    20646299.9804   20646299.9734
        49.5004         46.6004
 -11188218.53246  -8706834.29347  20884868.017    20884868.6074   20884873.8944
        49.1004         46.3004
   7282257.97242   5686618.91745  25312630.891    25312632.7994   25312637.6774
        35.9004         34.1004
 -13406480.22145 -10422775.92747  21935759.549    21935760.1104   21935764.8734
        46.0004         43.2004
  -1441300.34443   -852871.89146  23851938.508    23851937.8074   23851938.2894
        39.0004         36.7004
  -9777809.23244  -7606883.75846  23156517.383    23156516.7144   23156517.6134
        42.7004         40.0004
 -20322629.98347 -15809935.13547  20442023.309    20442023.5614   20442027.8324
        50.3004         47.5004
 16  6 12  0 50  0.0000000  0  9G17G31G23G 6G 1G 3G22G19G 9
   -490087.20043   -367369.97646  23883429.056    23883428.3164   23883431.6914
        39.7004         37.4004
   2107309.75142   1654382.69745  25126903.579    25126903.7694   25126903.2574
        37.1004         35.2004
 -20920108.52246 -16287389.49047  20649522.361    20649521.6964   20649521.7474
        49.5004         46.6004
 -11225998.90046  -8736273.55547  20877679.435    20877679.6104   20877684.4084
        49.1004         46.3004
   7396246.36542   5775440.92945  25334322.000    25334321.8764   25334329.4234
        35.7004         34.0004
 -13334523.89945 -10366706.08347  21949453.155    21949453.0064   21949458.3694
        46.0004         43.3004
  -1352434.03243   -783625.43246  23868849.332    23868849.1954   23868850.7214
        38.9004         36.6004
  -9702694.05044  -7548352.43546  23170809.872    23170808.9684   23170812.3954
        42.3004         39.5004
 -20360991.81047 -15839827.45147  20434723.180    20434723.2354   20434727.8264
        50.3004         47.5004
 16  6 12  0 50 30.0000000  0  9G17G31G23G 6G 1G 3G22G19G 9
   -396821.69043   -294695.58946  23901175.815    23901175.9494   23901180.7974
        40.1004         37.8004
   2196774.37042   1724095.35645  25143925.799    25143926.4394   25143929.4214
        37.1004         35.0004
 -20902742.23446 -16273857.31447  20652827.165    20652826.6874   20652826.6274
        49.5004         46.8004
 -11263253.67846  -8765303.26047  20870589.572    20870590.0714   20870595.1024
        49.1004         46.3004
   7510260.46842   5864282.94845  25356018.141    25356019.1314   25356027.3114
        35.6004         33.8004
 -13262332.04145 -10310452.70647  21963189.658    21963190.5664   21963195.3784
        46.0004         43.2004
  -1263449.57443   -714286.87646  23885782.129    23885781.1964   23885782.8844
        38.5004         36.2004
  -9627181.14044  -7489511.20646  23185180.832    23185180.4364   23185180.7314
        42.2004         39.5004
 -20398879.09247 -15869349.98947  20427513.491    20427513.4624   20427518.2324
        50.3004         47.3004
 16  6 12  0 51  0.0000000  0  9G17G31G23G 6G 1G 3G22G19G 9
   -303372.94343   -221878.43546  23918957.442    23918957.3144   23918961.2074
        39.9004         37.4004
   2286555.99842   1794055.03945  25161011.201    25161012.5894   25161014.5774
        37.0004         34.8004
 -20884941.06747 -16259986.27147  20656214.461    20656213.8424   20656213.9944
        49.6004         46.8004
 -11299981.18346  -8793922.10447  20863600.338    20863600.8884   20863606.1204
        49.1004         46.3004
   7624298.44542   5953143.59045  25377718.899    25377720.0634   25377728.3934
        35.4004         33.8004
 -13189905.36045 -10254016.36447  21976973.335    21976973.2684   21976977.9234
        46.0004         43.2004
  -1174347.40443   -644856.63546  23902737.997    23902736.3724   23902739.9034
        38.7004         36.4004
  -9551274.05844  -7430362.87646  23199626.040    23199624.7744   23199625.3414
        42.2004         39.2004
 -20436291.45447 -15898502.45747  20420394.092    20420394.0294   20420398.7414
        50.2004         47.3004
 16  6 12  0 51 30.0000000  0  8G17G31G23G 6G 3G22G19G 9
   -209744.14043   -148920.94046  23936774.247    23936774.0804   23936779.5474
        39.6004         37.1004
   2376652.03042   1864259.71445  25178155.865    25178155.0044   25178157.9704
        36.8004         34.6004
 -20866705.93147 -16245777.06947  20659683.824    20659683.4434   20659684.3744
        49.6004         46.8004
 -11336179.81046  -8822128.81847  20856711.870    20856712.4954   20856717.4574
        49.1004         46.5004
 -13117244.53745 -10197397.54247  21990800.061    21990799.8874   21990804.8814
        46.0004         43.2004
  -1085128.46043   -575335.38446  23919716.488    23919713.8174   23919717.2554
        38.7004         36.4004
  -9474975.55744  -7370909.51046  23214142.465    23214141.8904   23214144.4004
        41.5004         38.5004
 -20473228.58547 -15927284.62647  20413365.162    20413365.1734   20413369.6554
        50.2004         47.3004
 16  6 12  0 52  0.0000000  0  8G17G31G23G 6G 3G22G19G 9
   -115938.20043    -75825.47346  23954626.355    23954626.5614   23954630.9424
        39.9004         37.6004
   2467059.90642   1934707.40445  25195360.753    25195361.6374   25195363.2504
        36.8004         34.8004
 -20848037.74047 -16231230.42147  20663236.835    20663236.3794   20663236.4784
        49.6004         46.8004
 -11371847.87146  -8849922.11547  20849925.126    20849925.4304   20849930.0544
        49.3004         46.5004
 -13044350.34245 -10140596.89647  22004670.773    22004671.3924   22004677.2004
        46.2004         43.3004
   -995793.06343   -505723.39046  23936713.131    23936713.7484   23936714.9024
        38.5004         36.2004
  -9398288.48044  -7311153.34046  23228737.502    23228736.8644   23228738.4324
        41.3004         39.0004
 -20509690.19447 -15955696.26047  20406426.653    20406426.6264   20406431.4764
        50.2004         47.3004
 16  6 12  0 52 30.0000000  0  8G17G31G23G 6G 3G22G19G 9
    -21958.05543     -2594.21446  23972509.801    23972509.5054   23972513.8424
        39.6004         36.7004
   2557776.75042   2005395.82645  25212623.582    25212622.0924   25212624.6344
        36.3004         34.3004
 -20828937.59447 -16216347.18347  20666871.346    20666871.0904   20666870.9904
        49.6004         46.8004
 -11406983.78146  -8877300.75547  20843238.643    20843239.2394   20843243.8994
        49.3004         46.5004
 -12971223.43845 -10083614.91947  22018586.770    22018587.6394   22018592.2374
        46.2004         43.5004
   -906342.35443   -436021.53146  23953737.088    23953737.6254   23953739.5264
        38.9004         36.7004
  -9321215.61944  -7251096.59446  23243404.684    23243403.3854   23243403.8484
        41.6004         39.2004
 -20545675.97547 -15983737.11647  20399578.429    20399578.7534   20399583.6984
        50.2004         47.3004
 16  6 12  0 53  0.0000000  0  8G17G31G23G 6G 3G22G19G 9
     72192.80943     70770.07546  23990427.440    23990427.5684   23990431.4394
        39.6004         37.1004
   2648799.97742   2076322.98845  25229943.022    25229943.7574   25229945.6754
        36.3004         34.3004
 -20809406.57447 -16201128.20047  20670588.072    20670587.6124   20670587.5294
        49.6004         46.8004
 -11441585.91546  -8904263.46347  20836653.860    20836654.2074   20836659.6754
        49.3004         46.5004
 -12897864.54045 -10026452.16847  22032547.302    22032547.6164   22032552.0654
        46.2004         43.3004
   -816776.55843   -366230.03346  23970784.499    23970782.3284   23970783.2534
        39.2004         36.9004
  -9243760.22644  -7190741.75646  23258142.721    23258141.0004   23258143.9534
        41.1004         38.3004
 -20581185.61447 -16011406.96547  20392821.697    20392821.5694   20392826.3714
        50.2004         47.3004
 16  6 12  0 53 30.0000000  0  8G17G31G23G 6G 3G22G19G 9
    166511.16443    144264.86346  24008376.612    24008375.9994   24008377.9874
        39.7004         37.4004
   2740127.05442   2147486.90545  25247322.868    25247323.0354   25247325.7694
        36.3004         34.5004
 -20789445.58046 -16185574.17347  20674386.274    20674385.7184   20674386.0964
        49.5004         46.6004
 -11475652.73146  -8930809.03547  20830171.035    20830171.5214   20830176.4964
        49.1004         46.5004
 -12824274.37145  -9969109.19947  22046550.892    22046550.9354   22046555.6584
        46.2004         43.3004
   -727096.25443   -296349.29146  23987847.945    23987847.5014   23987848.7174
        39.4004         37.1004
  -9165925.22244  -7130091.10646  23272955.105    23272954.0364   23272955.3514
        41.1004         39.0004
 -20616218.86547 -16038705.59647  20386155.278    20386155.1004   20386159.8764
        50.2004         47.3004
 16  6 12  0 54  0.0000000  0  8G17G31G23G 6G 3G22G19G 9
    260994.33543    217888.04346  24026354.731    24026355.0474   24026357.9444
        39.4004         36.7004
   2831755.17942   2218885.43845  25264759.042    25264758.6944   25264762.4724
        35.7004         33.8004
 -20769055.71146 -16169685.95847  20678265.952    20678265.9854   20678266.0774
        49.5004         46.6004
 -11509182.61646  -8956936.22647  20823790.721    20823791.3344   20823796.0424
        49.3004         46.5004
 -12750453.67445  -9911586.60547  22060598.683    22060598.2924   22060603.7574
        46.2004         43.3004
   -637302.85443   -226380.41346  24004933.744    24004933.2414   24004934.2734
        39.0004         36.4004
  -9087713.53044  -7069146.95546  23287838.590    23287837.7844   23287838.7974
        41.8004         39.5004
 -20650775.43347 -16065632.77947  20379579.783    20379579.2914   20379583.8074
        50.2004         47.5004
 16  6 12  0 54 30.0000000  0  8G17G31G23G 6G 3G22G19G 9
    355639.55943    291637.56646  24044363.722    24044363.8604   24044370.0404
        39.4004         37.1004
   2923681.53842   2290516.37645  25282252.885    25282254.5094   25282256.1004
        35.6004         34.0004
 -20748238.23046 -16153464.53847  20682228.040    20682227.8694   20682227.6194
        49.5004         46.6004
 -11542174.02846  -8982643.82847  20817512.943    20817513.2784   20817517.9144
        49.3004         46.5004
 -12676403.11145  -9853884.88947  22074689.042    22074689.8484   22074694.5184
        46.0004         43.2004
   -547396.19743   -156323.27846  24022044.444    24022043.5324   24022042.9044
        38.7004         36.4004
  -9009128.20044  -7007911.63946  23302791.902    23302791.2864   23302793.0664
        41.6004         38.8004
 -20684855.09247 -16092188.34347  20373094.135    20373094.3524   20373098.7594
        50.3004         47.5004
 16  6 12  0 55  0.0000000  0  7G17G23G 6G 3G22G19G 9
    450443.15643    365510.44946  24062406.595    24062406.0784   24062409.1734
        39.6004         37.3004
 -20726994.03746 -16136910.60747  20686270.826    20686270.2234   20686270.5334
        49.5004         46.8004
 -11574625.42546  -9007930.63147  20811337.187    20811337.9544   20811343.0824
        49.5004         46.6004
 -12602123.44045  -9796004.63247  22088824.420    22088824.4594   22088829.5364
        45.8004         43.0004
   -457377.18643    -86178.62745  24039174.361    24039172.1264   24039172.0754
        38.2004         35.9004
  -8930172.37644  -6946387.64246  23317818.020    23317817.2674   23317817.3394
        41.5004         38.8004
 -20718457.61447 -16118372.11447  20366699.796    20366699.7594   20366704.3954
        50.3004         47.5004
 16  6 12  0 55 30.0000000  0  7G17G23G 6G 3G22G19G 9
    545402.04843    439504.33846  24080476.407    24080476.3674   24080479.5654
        39.4004         37.1004
 -20705324.05846 -16120024.90847  20690393.700    20690393.3474   20690394.4874
        49.5004         46.8004
 -11606535.28846  -9032795.45947  20805264.871    20805265.7914   20805270.6964
        49.5004         46.6004
 -12527615.35345  -9737946.40247  22103002.665    22103002.7394   22103008.1364
        45.6004         42.8004
   -367246.54443    -15946.96246  24056323.240    24056321.0714   24056325.1734
        38.2004         36.0004
  -8850848.97044  -6884577.21246  23332912.048    23332911.3454   23332913.2124
        41.8004         39.3004
 -20751582.79547 -16144183.92947  20360395.874    20360395.9454   20360400.7744
        50.3004         47.5004
 16  6 12  0 56  0.0000000  0  7G17G23G 6G 3G22G19G 9
    640513.42243    513617.05346  24098574.178    24098573.3184   24098578.5084
        39.4004         37.1004
 -20683229.49046 -16102808.35347  20694598.696    20694598.2244   20694598.7464
        49.5004         46.8004
 -11637902.13246  -9057237.16147  20799296.370    20799296.7664   20799301.4444
        49.3004         46.5004
 -12452879.60045  -9679710.76347  22117224.055    22117224.7064   22117229.9174
        45.5004         42.6004
   -277005.10143     54371.02245  24073495.924    24073495.3684   24073497.4654
        38.0004         35.7004
  -8771160.91144  -6822482.63446  23348075.239    23348074.5554   23348077.2664
        41.8004         39.0004
 -20784230.42747 -16169623.63047  20354182.798    20354183.3364   20354188.1014
        50.3004         47.5004
 16  6 12  0 56 30.0000000  0  7G17G23G 6G 3G22G19G 9
    735774.35043    587846.30646  24116701.692    24116701.7624   24116706.2934
        39.4004         37.1004
 -20660711.43946 -16085261.81447  20698883.448    20698883.4044   20698883.3484
        49.5004         46.6004
 -11668724.44746  -9081254.55347  20793431.118    20793431.3964   20793436.6464
        49.5004         46.6004
 -12377916.87145  -9621298.27347  22131489.932    22131489.8334   22131494.2324
        45.5004         42.6004
   -186653.25243    124775.02945  24090688.706    24090687.3704   24090692.2074
        37.6004         35.5004
  -8691110.98144  -6760106.08446  23363309.057    23363308.3834   23363310.4334
        41.6004         39.0004
 -20816400.32847 -16194691.07747  20348061.765    20348061.8264   20348066.3584
        50.3004         47.7004
 16  6 12  0 57  0.0000000  0  7G17G23G 6G 3G22G19G 9
    831181.21543    662189.27146  24134858.699    24134857.6914   24134861.7274
        39.4004         37.1004
 -20637771.04246 -16067386.17447  20703248.732    20703248.1264   20703249.0334
        49.5004         46.5004
 -11699000.75546  -9104846.48247  20787669.481    20787670.1864   20787675.4204
        49.5004         46.6004
 -12302727.86445  -9562709.44547  22145796.961    22145797.4854   22145803.2454
        45.3004         42.6004
    -96191.82643    195264.41145  24107903.318    24107901.9404   24107906.7314
        37.8004         35.7004
  -8610702.64144  -6697450.27046  23378609.313    23378608.5164   23378611.1284
        41.5004         39.0004
 -20848092.31747 -16219386.12547  20342031.574    20342031.4194   20342035.8674
        50.5004         47.7004
 16  6 12  0 57 30.0000000  0  8G17G23G 6G 3G22G19G 9G 2
    926731.30843    736643.83546  24153039.767    24153040.2454   24153043.5844
        39.0004         36.6004
 -20614409.26046 -16049182.18647  20707694.412    20707693.8554   20707694.5524
        49.3004         46.5004
 -11728729.58746  -9128011.80547  20782011.906    20782012.4414   20782018.3154
        49.5004         46.6004
 -12227313.36145  -9503944.90747  22160148.515    22160148.9924   22160154.4944
        45.5004         42.6004
     -5621.62643    265838.56545  24125139.217    24125138.6684   24125141.1764
        37.8004         35.7004
  -8529939.03444  -6634517.60946  23393977.844    23393977.1954   23393979.3574
        41.5004         38.8004
 -20879306.22447 -16243708.63347  20336091.788    20336091.6874   20336096.1154
        50.7004         47.7004
                   -198230.76356  23973257.861                    23973256.4894
                        37.1004
 16  6 12  0 58  0.0000000  0  8G17G23G 6G 3G22G19G 9G 2
   1022421.33943    811207.45046  24171246.937    24171248.9674   24171252.4174
        38.7004         36.2004
 -20590627.14846 -16030650.66247  20712219.493    20712219.2084   20712220.1044
        49.3004         46.3004
 -11757909.42347  -9150749.34747  20776459.644    20776460.2424   20776465.5144
        49.6004         46.8004
 -12151674.01945  -9445005.18147  22174542.080    22174542.4464   22174547.6974
        45.5004         42.6004
     85056.82243    336497.04045  24142392.012    24142392.9484   24142396.2934
        38.0004         35.7004
  -8448822.98544  -6571310.33346  23409412.906    23409412.7644   23409415.6254
        41.5004         38.8004
 -20910041.91047 -16267658.50747  20330242.400    20330242.3344   20330247.1914
        50.5004         47.7004
   -378683.64543   -272056.96446  23955227.481    23955227.7764   23955228.0714
        38.9004         37.4004
 16  6 12  0 58 30.0000000  0  8G17G23G 6G 3G22G19G 9G 2
   1118248.38543    885877.84746  24189484.533    24189485.6384   24189488.9664
        38.5004         36.4004
 -20566425.96646 -16011792.58847  20716824.619    20716824.7324   20716825.5264
        49.1004         46.3004
 -11786539.02846  -9173058.13347  20771011.016    20771011.6274   20771017.4724
        49.5004         46.6004
 -12075810.58345  -9385890.82047  22188978.190    22188978.5404   22188984.7124
        45.5004         42.6004
    175842.74843    407239.27945  24159670.141    24159668.6334   24159673.4924
        37.6004         35.3004
  -8367357.46944  -6507830.72046  23424916.416    23424915.0094   23424918.4254
        41.3004         38.6004
 -20940299.24147 -16291235.63747  20324484.487    20324484.2134   20324489.1734
        50.5004         47.7004
   -473239.50543   -345736.85346  23937234.726    23937233.9104   23937235.5624
        39.6004         37.4004
 16  6 12  0 59  0.0000000  0  8G17G23G 6G 3G22G19G 9G 2
   1214209.25043    960652.52946  24207744.146    24207744.8254   24207749.3944
        38.7004         36.4004
 -20541807.01646 -15992608.98647  20721510.401    20721509.8414   20721510.4574
        49.1004         46.5004
 -11814616.92046  -9194937.01747  20765668.474    20765668.9174   20765674.1714
        49.5004         46.6004
 -11999723.81645  -9326602.44247  22203457.816    22203458.1034   22203462.5174
        45.3004         42.5004
    266735.57042    478064.79045  24176969.132    24176965.9344   24176969.3874
        37.3004         35.2004
  -8285545.62744  -6444081.27746  23440486.020    23440484.1694   23440486.8314
        41.5004         39.0004
 -20970078.07447 -16314439.91147  20318817.543    20318817.8204   20318822.2704
        50.5004         47.7004
   -567605.39153   -419268.69356  23919276.533    23919275.7144   23919278.0954
        39.9004         37.6004
 16  6 12  0 59 30.0000000  0  8G17G23G 6G 3G22G19G 9G 2
   1310301.16743   1035529.33246  24226032.448    24226032.6394   24226034.5034
        38.7004         36.6004
 -20516771.24346 -15973100.59347  20726274.199    20726273.7354   20726274.5884
        49.1004         46.3004
 -11842141.69746  -9216384.89547  20760430.936    20760431.1284   20760436.6794
        49.5004         46.8004
 -11923414.37645  -9267140.54747  22217978.580    22217978.4194   22217984.2734
        45.1004         42.3004
    357734.56542    548973.05045  24194281.206    24194280.0784   24194285.4214
        37.0004         34.8004
  -8203390.49944  -6380064.34346  23456118.653    23456117.7234   23456119.7914
        41.5004         38.6004
 -20999378.34047 -16337271.27847  20313242.475    20313242.4974   20313246.6744
        50.5004         47.7004
   -661778.85543   -492650.59746  23901357.119    23901355.8994   23901356.9054
        40.1004         37.8004
 16  6 12  1  0  0.0000000  0  8G17G23G 6G 3G22G19G 9G 2
   1406520.70243   1110505.53346  24244342.323    24244341.7534   24244345.1514
        38.7004         36.4004
 -20491319.68446 -15953268.20947  20731117.398    20731117.1024   20731117.4374
        49.1004         46.3004
 -11869111.98747  -9237400.69947  20755298.140    20755298.8694   20755304.3324
        49.6004         46.8004
 -11846883.03845  -9207505.74747  22232541.010    22232541.9804   22232546.8344
        45.1004         42.5004
    448839.17742    619963.64245  24211617.632    24211616.0494   24211621.3814
        36.4004         34.0004
  -8120895.32044  -6315782.37246  23471816.569    23471815.9274   23471818.3134
        41.3004         38.6004
 -21028199.91547 -16359729.64047  20307757.570    20307757.6434   20307762.1524
        50.5004         47.7004
   -755757.45843   -565880.65546  23883472.494    23883472.0744   23883474.3394
        40.4004         37.9004
 16  6 12  1  0 30.0000000  0  8G17G23G 6G 3G22G19G 9G 2
   1502864.67743   1185578.72046  24262676.200    24262675.8034   24262678.9484
        38.7004         36.4004
 -20465453.56046 -15933112.78447  20736039.145    20736039.0854   20736039.8964
        49.1004         46.3004
 -11895526.43047  -9257983.37947  20750271.708    20750272.3514   20750277.7654
        49.6004         46.8004
 -11770130.45745  -9147698.56547  22247147.126    22247147.4024   22247152.1574
        44.9004         42.1004
    540048.58042    691035.82245  24228978.541    24228975.2754   24228977.3844
        36.3004         34.5004
  -8038062.92444  -6251237.65146  23487580.449    23487579.0364   23487580.8244
        41.3004         38.8004
 -21056542.75847 -16381814.96747  20302364.234    20302364.2894   20302368.8274
        50.5004         47.7004
   -849539.70743   -638957.71146  23865626.640    23865626.0694   23865628.0454
        40.3004         37.8004
 16  6 12  1  1  0.0000000  0  8G17G23G 6G 3G22G19G 9G 2
   1599330.30243   1260746.70246  24281031.940    24281031.7224   24281035.5704
        38.3004         36.0004
 -20439173.91646 -15912635.14047  20741040.223    20741040.1724   20741040.9844
        49.1004         46.3004
 -11921383.68446  -9278131.89147  20745351.295    20745351.5964   20745356.7594
        49.5004         46.6004
 -11693157.41845  -9087719.57546  22261794.258    22261794.6324   22261800.2514
        44.9004         41.9004
    631362.04642    762189.13745  24246351.796    24246351.1424   24246352.7864
        36.1004         34.3004
  -7954896.53044  -6186432.70546  23503406.293    23503405.0844   23503407.0654
        41.3004         38.6004
 -21084406.77047 -16403527.17947  20297062.111    20297061.9694   20297066.6074
        50.5004         47.7004
   -943122.52143   -711879.38246  23847818.985    23847818.3654   23847819.3254
        40.4004         37.8004
 16  6 12  1  1 30.0000000  0  9G17G 7G23G 6G 3G22G19G 9G 2
   1695914.64443   1336007.18445  24299410.327    24299410.7844   24299415.5854
        38.2004         35.9004
   -381358.46852   -257021.98355  24236612.009    24236611.4014   24236612.1204
        37.1004         35.5004
 -20412482.20446 -15891836.40047  20746120.371    20746119.8114   20746120.3604
        49.1004         46.5004
 -11946682.45846  -9297845.22447  20740537.251    20740537.7684   20740542.6324
        49.5004         46.6004
 -11615964.62145  -9027569.36947  22276483.895    22276484.3804   22276490.2184
        44.9004         42.1004
    722779.04442    833423.11545  24263752.326    24263748.8994   24263750.4244
        36.4004         34.5004
  -7871399.32544  -6121369.95446  23519293.909    23519292.7004   23519295.4564
        40.6004         37.8004
 -21111791.94147 -16424866.26047  20291850.331    20291850.5184   20291855.1614
        50.5004         47.7004
  -1036503.82143   -784644.01746  23830047.797    23830047.8424   23830049.2354
        40.3004         37.8004
 16  6 12  1  2  0.0000000  0  9G17G 7G23G 6G 3G22G19G 9G 2
   1792614.31243   1411357.52945  24317813.820    24317811.6704   24317813.9434
        38.0004         35.9004
   -488526.29542   -340529.32645  24216218.832    24216218.4854   24216219.8284
        37.5004         35.5004
 -20385379.20546 -15870717.18047  20751277.285    20751277.0024   20751277.7764
        49.3004         46.5004
 -11971421.42946  -9317122.34247  20735829.839    20735830.2424   20735835.2364
        49.5004         46.6004
 -11538552.82645  -8967248.48546  22291213.337    22291213.7754   22291221.7504
        44.8004         41.9004
    814299.00742    904737.30445  24281169.614    24281163.6744   24281166.9144
        36.8004         34.8004
  -7787574.39244  -6056051.85446  23535246.298    23535245.9274   23535247.1454
        40.6004         38.3004
 -21138698.20247 -16445832.16847  20286730.588    20286730.3714   20286735.0434
        50.5004         47.7004
  -1129681.40243   -857249.92346  23812316.883    23812316.0934   23812318.9974
        40.3004         37.8004
 16  6 12  1  2 30.0000000  0  9G17G 7G23G 6G 3G22G19G 9G 2
   1889426.17443   1486795.29045  24336233.654    24336234.2634   24336238.6514
        37.8004         35.7004
   -595638.40253   -423993.25755  24195835.517    24195835.4654   24195838.9804
        37.8004         35.7004
 -20357866.14046 -15849278.42747  20756512.999    20756512.4924   20756513.2924
        49.3004         46.5004
 -11995599.33047  -9335962.26947  20731228.926    20731229.4644   20731234.3894
        49.6004         46.6004
 -11460922.71345  -8906757.50146  22305986.853    22305987.4764   22305993.4504
        44.8004         41.8004
    905920.96342    976131.00245  24298594.391    24298598.2544   24298599.3754
        36.6004         34.5004
  -7703424.73944  -5990480.71846  23551259.746    23551258.5364   23551260.6604
        40.9004         38.5004
 -21165125.51947 -16466424.87647  20281701.818    20281701.6984   20281706.0434
        50.5004         47.7004
  -1222652.93143   -929695.25446  23794625.720    23794624.4774   23794627.1064
        40.4004         38.1004
 16  6 12  1  3  0.0000000  0  9G17G 7G23G 6G 3G22G19G 9G 2
   1986347.24243   1562318.13045  24354678.514    24354678.8494   24354681.7724
        37.8004         35.7004
   -702692.60743   -507412.08645  24175463.940    24175462.9674   24175467.7554
        38.0004         35.7004
 -20329944.48446 -15827521.29247  20761825.898    20761825.9424   20761826.3784
        49.3004         46.5004
 -12019214.90146  -9354364.00747  20726734.613    20726734.9984   20726740.6994
        49.5004         46.6004
 -11383075.00645  -8846096.97346  22320800.596    22320801.1544   22320807.6194
        44.8004         41.9004
    997644.45742   1047603.84945  24316055.081    24316053.2174   24316057.3744
        37.0004         35.0004
  -7618953.36144  -5924658.86446  23567333.196    23567332.4004   23567334.6354
        40.6004         37.9004
 -21191073.88347 -16486644.36947  20276764.116    20276763.9184   20276768.2834
        50.7004         47.8004
  -1315416.04343  -1001978.18446  23776972.618    23776972.0604   23776974.1084
        40.4004         37.9004
 16  6 12  1  3 30.0000000  0  9G17G 7G23G 6G 3G22G19G 9G 2
   2083374.64243   1637923.84445  24373142.557    24373143.3724   24373145.3494
        37.6004         35.5004
   -809686.17643   -590783.64346  24155103.671    24155102.2334   24155105.8664
        38.2004         36.0004
 -20301615.27346 -15805446.58047  20767217.359    20767216.9484   20767217.3434
        49.3004         46.5004
 -12042266.89146  -9372326.59647  20722347.858    20722348.5994   20722353.5254
        49.5004         46.5004
 -11305010.48145  -8785267.50147  22335656.639    22335656.9924   22335662.7444
        44.8004         42.1004
   1089468.84342   1119155.24945  24333533.552    24333527.4444   24333529.7774
        37.0004         35.0004
  -7534163.53943  -5858588.90946  23583469.155    23583468.1994   23583468.6544
        40.3004         37.6004
 -21216543.33447 -16506490.68747  20271916.703    20271916.8054   20271921.5334
        50.7004         47.8004
  -1407968.49244  -1074096.97546  23759362.246    23759361.4954   23759361.9414
        40.6004         38.1004
 16  6 12  1  4  0.0000000  0  9G17G 7G23G 6G 3G22G19G 9G 2
   2180505.14143   1713609.89445  24391628.065    24391627.1874   24391630.1054
        37.6004         35.3004
   -916616.47443   -674105.92146  24134755.950    24134753.6964   24134759.4754
        38.3004         36.0004
 -20272879.52746 -15783055.08547  20772685.384    20772685.2534   20772685.7004
        49.3004         46.5004
 -12064754.07646  -9389849.07847  20718069.581    20718069.8254   20718074.1354
        49.5004         46.6004
 -11226729.84445  -8724269.63047  22350552.887    22350553.3834   22350559.0804
        44.8004         42.1004
   1181393.32242   1190784.66945  24351020.986    24351020.3504   24351023.4854
        37.3004         35.2004
  -7449058.42943  -5792273.27446  23599663.760    23599663.8404   23599664.8284
        40.4004         37.9004
 -21241533.86947 -16525963.82247  20267161.161    20267161.1454   20267165.9154
        50.7004         47.8004
  -1500307.91343  -1146049.74846  23741790.498    23741789.3474   23741789.8294
        40.4004         37.6004
 16  6 12  1  4 30.0000000  0  9G17G 7G23G 6G 3G22G19G 9G 2
   2277735.77142   1789373.94945  24410126.818    24410126.8824   24410131.9204
        37.3004         35.2004
  -1023481.25943   -757377.12146  24114418.617    24114417.2984   24114422.8954
        38.3004         36.2004
 -20243738.80546 -15760348.02647  20778230.622    20778230.4174   20778230.8684
        49.3004         46.5004
 -12086675.24546  -9406930.50447  20713897.535    20713898.2474   20713903.0504
        49.5004         46.6004
 -11148233.80645  -8663103.90347  22365488.950    22365490.5834   22365496.5544
        44.8004         42.1004
   1273417.17942   1262491.53645  24368532.110    24368530.9504   24368534.4804
        37.0004         35.0004
  -7363641.19643  -5725714.42046  23615918.498    23615917.3034   23615919.6464
        40.4004         37.8004
 -21266045.52447 -16545063.80647  20262496.688    20262496.7644   20262501.7504
        50.7004         47.8004
  -1592432.23943  -1217834.91546  23724259.293    23724258.0594   23724259.1794
        40.1004         37.4004
 16  6 12  1  5  0.0000000  0  9G17G 7G23G 6G 3G22G19G 9G 2
   2375063.37542   1865213.59245  24428649.518    24428650.2304   24428653.3724
        36.8004         35.0004
  -1130277.27443   -840594.75546  24094095.833    24094095.9054   24094099.8684
        38.5004         36.4004
 -20214194.04946 -15737326.13847  20783852.955    20783852.5484   20783852.9384
        49.1004         46.3004
 -12108029.20247  -9423569.94747  20709834.634    20709834.9264   20709839.6284
        49.6004         46.8004
 -11069523.13045  -8601770.93347  22380467.904    22380468.3804   22380474.7274
        44.8004         42.1004
   1365539.64542   1334275.27945  24386060.799    24386061.2554   24386065.3774
        36.8004         34.8004
  -7277914.61343  -5658914.48846  23632230.834    23632230.3504   23632232.5404
        40.4004         38.1004
 -21290078.34847 -16563790.68047  20257923.863    20257923.7904   20257928.3254
        50.7004         47.8004
  -1684338.95943  -1289450.51646  23706769.520    23706769.3194   23706770.2144
        39.9004         37.4004
 16  6 12  1  5 30.0000000  0  9G17G 7G23G 6G 3G22G19G 9G 2
   2472485.13142   1941126.56345  24447186.620    24447188.6234   24447192.5964
        37.0004         34.8004
  -1237002.25643   -923757.00446  24073788.027    24073787.2584   24073790.1574
        38.9004         36.6004
 -20184246.54046 -15713990.41847  20789552.093    20789551.4674   20789551.6584
        49.1004         46.3004
 -12128814.67247  -9439766.40947  20705879.055    20705879.3554   20705884.1244
        49.6004         46.8004
 -10990598.53645  -8540271.25447  22395486.699    22395487.5474   22395493.8624
        44.9004         42.1004
   1457760.19542   1406135.39745  24403614.171    24403611.1874   24403614.3774
        36.8004         34.8004
  -7191882.00244  -5591876.12546  23648603.654    23648602.1354   23648603.5724
        40.6004         38.1004
 -21313632.37047 -16582144.45547  20253441.645    20253441.4324   20253446.1354
        50.7004         47.8004
  -1776025.72443  -1360894.73046  23689323.008    23689321.8854   23689323.0204
        40.1004         37.8004
 16  6 12  1  6  0.0000000  0  9G17G 7G23G 6G 3G22G19G 9G 2
   2569997.72242   2017110.30845  24465741.168    24465742.3174   24465747.2694
        36.4004         34.3004
  -1343653.64643  -1006861.91946  24053493.022    24053491.7844   24053495.5214
        38.9004         36.6004
 -20153897.54246 -15690341.85047  20795326.844    20795326.5084   20795326.9024
        49.1004         46.3004
 -12149030.74846  -9455519.18847  20702031.749    20702032.3734   20702037.1514
        49.5004         46.6004
 -10911460.74245  -8478605.46647  22410548.362    22410547.7444   22410552.5954
        45.1004         42.5004
   1550078.12142   1478071.42645  24421180.647    24421181.6044   24421181.1884
        37.1004         35.3004
  -7105546.71343  -5524601.91746  23665030.890    23665030.6974   23665032.4974
        40.4004         38.1004
 -21336707.65747 -16600125.19547  20249049.897    20249050.3384   20249055.1614
        50.7004         47.8004
  -1867490.02743  -1432165.58846  23671917.978    23671917.0894   23671918.7144
        40.4004         37.9004
 16  6 12  1  6 30.0000000  0  9G17G 7G23G 6G 3G22G19G 9G 2
   2667598.18742   2093162.55645  24484316.877    24484317.2284   24484318.7414
        36.3004         34.3004
  -1450228.84143  -1089907.47746  24033210.955    24033211.0384   24033214.9154
        38.9004         36.6004
 -20123148.30846 -15666381.41047  20801178.392    20801177.8934   20801178.4714
        49.1004         46.3004
 -12168676.15747  -9470827.29547  20698293.650    20698293.9334   20698298.9974
        49.6004         46.8004
 -10832110.50645  -8416774.13946  22425646.481    22425647.1194   22425651.5864
        44.9004         41.9004
   1642492.66642   1550082.74945  24438765.994    24438764.8364   24438764.4874
        37.3004         35.3004
  -7018911.57244  -5457094.03246  23681517.592    23681517.1964   23681519.8574
        40.9004         38.5004
 -21359304.32647 -16617732.97948  20244750.528    20244750.5324   20244755.3424
        50.7004         48.0004
  -1958729.80343  -1503261.47946  23654554.671    23654554.4174   23654556.3394
        40.4004         37.9004
 16  6 12  1  7  0.0000000  0  9G17G 7G23G 6G 3G22G19G 9G 2
   2765283.42642   2169280.82845  24502906.563    24502904.5264   24502909.2654
        36.3004         34.6004
  -1556725.61543  -1172891.91746  24012946.819    24012946.9184   24012948.9594
        39.0004         36.7004
 -20091999.96946 -15642109.97547  20807105.436    20807105.4044   20807105.6324
        49.1004         46.1004
 -12187749.80447  -9485689.87447  20694664.111    20694664.4624   20694669.4184
        49.6004         46.8004
 -10752548.52245  -8354777.79346  22440786.267    22440786.9904   22440792.1124
        44.8004         41.9004
   1735003.11642   1622168.82745  24456367.924    24456369.9804   24456370.5664
        37.3004         35.2004
  -6931980.04844  -5389355.18946  23698059.804    23698059.3974   23698062.1444
        41.1004         38.6004
 -21381422.44947 -16634967.87047  20240541.242    20240541.3944   20240546.3204
        50.7004         47.8004
  -2049742.73243  -1574180.62146  23637235.937    23637236.0234   23637235.4824
        40.4004         37.9004
 16  6 12  1  7 30.0000000  0  9G17G 7G23G 6G 3G22G19G 9G 2
   2863050.67042   2245463.00945  24521509.251    24521511.0394   24521512.6784
        36.4004         34.6004
  -1663140.82343  -1255812.81046  23992696.835    23992696.3764   23992699.6384
        39.0004         36.6004
 -20060454.00246 -15617528.69747  20813109.102    20813108.3484   20813108.6914
        49.1004         46.3004
 -12206250.59347  -9500106.06147  20691142.825    20691143.2664   20691149.1294
        49.6004         46.6004
 -10672775.58245  -8292617.08046  22455966.785    22455967.0604   22455973.2264
        44.6004         41.9004
   1827608.83342   1694329.08545  24473992.789    24473991.8954   24473991.3594
        37.0004         34.6004
  -6844754.95244  -5321387.61346  23714658.639    23714657.3564   23714660.6494
        40.9004         38.5004
 -21403062.16647 -16651829.97747  20236423.530    20236423.5774   20236428.4464
        50.7004         47.8004
  -2140526.35144  -1644921.05546  23619961.062    23619960.2584   23619961.0214
        40.6004         38.1004
 16  6 12  1  8  0.0000000  0  9G17G 7G23G 6G 3G22G19G 9G 2
   2960896.69442   2321706.61145  24540128.500    24540129.0824   24540133.5014
        36.4004         34.6004
  -1769471.39043  -1338667.74846  23972461.206    23972461.1874   23972464.0364
        39.0004         36.7004
 -20028511.32846 -15592638.30647  20819187.380    20819186.7684   20819187.2374
        48.9004         46.1004
 -12224177.44746  -9514075.03647  20687731.455    20687732.1954   20687737.6324
        49.5004         46.6004
 -10592792.35845  -8230292.50646  22471186.923    22471187.2284   22471193.3014
        44.6004         41.9004
   1920309.28042   1766563.17845  24491633.959    24491630.7794   24491632.4814
        37.0004         34.8004
  -6757239.74944  -5253194.00346  23731312.220    23731311.4954   23731313.7854
        41.1004         38.5004
 -21424223.59347 -16668319.38947  20232396.758    20232396.5154   20232401.3144
        50.7004         47.8004
  -2231078.30043  -1715481.00046  23602728.733    23602728.6404   23602728.3154
        40.4004         37.9004
 16  6 12  1  8 30.0000000  0  9G17G 7G23G 6G 3G22G19G 9G 2
   3058818.54342   2398009.29145  24558762.879    24558764.6704   24558768.3314
        36.3004         34.5004
  -1875715.31343  -1421455.16746  23952241.231    23952242.6594   23952247.5714
        38.9004         36.7004
 -19996173.13646 -15567439.71747  20825340.528    20825340.1484   20825340.9114
        48.9004         46.1004
 -12241529.32646  -9527595.98447  20684429.910    20684430.2914   20684435.3574
        49.5004         46.6004
 -10512599.64345  -8167804.68646  22486447.081    22486447.7614   22486453.6464
        44.6004         41.9004
   2013103.66642   1838870.53445  24509287.165    24509287.1094   24509290.0934
        36.6004         34.6004
  -6669437.30944  -5184776.52346  23748020.365    23748019.2764   23748022.7454
        40.9004         38.3004
 -21444906.83047 -16684436.18447  20228460.225    20228460.5254   20228465.2434
        50.7004         47.8004
  -2321396.36143  -1785858.68046  23585541.760    23585540.9524   23585542.5094
        40.4004         37.9004
 16  6 12  1  9  0.0000000  0  9G17G 7G23G 6G 3G22G19G 9G 2
   3156812.90142   2474368.47245  24577412.060    24577412.6804   24577416.0784
        37.0004         35.2004
  -1981869.82443  -1504172.92346  23932042.098    23932042.0944   23932046.2254
        38.5004         36.2004
 -19963440.95046 -15541934.12047  20831569.517    20831569.3464   20831569.8534
        48.9004         46.1004
 -12258305.20046  -9540668.10147  20681237.269    20681237.5224   20681243.3264
        49.5004         46.6004
 -10432198.15045  -8105154.19946  22501747.377    22501747.5604   22501753.5104
        44.6004         41.9004
   2105991.13942   1911250.38745  24526966.325    24526964.2584   24526967.5064
        36.8004         34.8004
  -6581350.98944  -5116137.89946  23764783.026    23764782.4484   23764783.4804
        40.9004         38.3004
 -21465112.07147 -16700180.51147  20224615.788    20224615.6474   20224620.2674
        50.7004         47.8004
  -2411478.06143  -1856052.19146  23568399.809    23568399.2924   23568399.3164
        40.4004         37.9004
 16  6 12  1  9 30.0000000  0  9G17G 7G23G 6G 3G22G19G 9G 2
   3254876.86842   2550781.88145  24596069.973    24596072.3454   24596076.5204
        36.8004         35.0004
  -2087932.19243  -1586818.88946  23911859.591    23911859.0764   23911863.3054
        38.7004         36.4004
 -19930315.98346 -15516122.46247  20837873.083    20837872.7594   20837873.3904
        48.9004         46.1004
 -12274504.02046  -9553290.54847  20678155.032    20678155.0164   20678161.3154
        49.5004         46.8004
 -10351588.63045  -8042341.59346  22517085.771    22517085.8404   22517093.1334
        44.6004         41.6004
   2198971.00942   1983702.19545  24544659.830    24544658.4134   24544658.9154
        36.6004         34.8004
  -6492984.05144  -5047280.57546  23781598.822    23781597.7194   23781599.9064
        40.9004         38.3004
 -21484839.46147 -16715552.49647  20220861.116    20220861.5054   20220866.3774
        50.7004         47.8004
  -2501321.17643  -1926059.80046  23551303.978    23551302.8694   23551303.6464
        40.4004         38.1004
 16  6 12  1 10  0.0000000  0  9G17G 7G23G 6G 3G22G19G 9G 2
   3353007.48742   2627247.24145  24614745.097    24614748.3534   24614749.2264
        36.4004         34.5004
  -2193900.42043  -1669391.50146  23891693.888    23891694.2674   23891697.5294
        38.7004         36.2004
 -19896799.43546 -15490005.67347  20844251.183    20844250.5794   20844251.2084
        48.9004         46.1004
 -12290124.82346  -9565462.59947  20675182.341    20675182.7734   20675188.3894
        49.5004         46.6004
 -10270771.78945  -7979367.45946  22532465.630    22532466.0264   22532471.5944
        44.4004         41.8004
   2292042.65242   2056225.49345  24562374.150    24562372.1464   24562370.5584
        36.6004         34.6004
  -6404339.51044  -4978206.92946  23798468.405    23798466.6844   23798469.0354
        40.8004         38.3004
 -21504089.17247 -16730552.26947  20217198.614    20217198.5014   20217203.2714
        50.7004         47.8004
  -2590923.54944  -1995879.78246  23534252.734    23534251.7724   23534252.6104
        40.6004         38.1004
 16  6 12  1 10 30.0000000  0  9G17G 7G23G 6G 3G22G19G 9G 2
   3451201.88242   2703762.27745  24633430.657    24633429.7834   24633434.9984
        36.1004         34.3004
  -2299771.15943  -1751888.13046  23871549.207    23871548.0084   23871551.2704
        38.7004         36.6004
 -19862892.59046 -15463584.76247  20850703.221    20850702.7374   20850703.5004
        48.9004         46.1004
 -12305166.64246  -9577183.49647  20672319.958    20672320.4984   20672326.2734
        49.5004         46.6004
 -10189748.41845  -7916232.38346  22547884.645    22547884.9924   22547889.6274
        44.6004         41.9004
   2385205.34642   2128819.77645  24580097.927    24580098.4774   24580099.6394
        36.6004         34.6004
  -6315420.45644  -4908919.40546  23815390.183    23815388.3854   23815389.5744
        41.1004         38.6004
 -21522861.41147 -16745179.97647  20213626.655    20213626.3814   20213631.0884
        50.7004         47.8004
  -2680282.64044  -2065510.19946  23517248.674    23517247.8224   23517248.1984
        40.9004         38.6004
 16  6 12  1 11  0.0000000  0  9G17G 7G23G 6G 3G22G19G 9G 2
   3549456.65442   2780324.35245  24652126.244    24652126.8454   24652133.5634
        36.1004         34.3004
  -2405541.94443  -1834306.87246  23851422.334    23851421.2214   23851423.6654
        38.9004         36.7004
 -19828596.72446 -15436860.71047  20857229.286    20857229.1424   20857229.8944
        48.8004         45.9004
 -12319628.50346  -9588452.47847  20669567.618    20669568.0734   20669574.3944
        49.5004         46.6004
 -10108519.20945  -7852936.90546  22563342.531    22563342.6904   22563347.3954
        44.6004         41.9004
   2478458.63642   2201484.67245  24597844.572    24597844.4724   24597846.3624
        37.0004         35.2004
  -6226229.91644  -4839420.30046  23832360.442    23832359.3464   23832362.6404
        41.1004         38.5004
 -21541156.36547 -16759435.77547  20210144.593    20210144.9664   20210149.4464
        50.7004         47.8004
  -2769396.01444  -2134949.16246  23500291.047    23500290.3784   23500290.3144
        41.1004         38.5004
 16  6 12  1 11 30.0000000  0  9G17G 7G23G 6G 3G22G19G 9G 2
   3647769.14742   2856931.40345  24670836.382    24670839.4684   24670840.7674
        35.9004         34.1004
  -2511210.35643  -1916645.83746  23831314.304    23831313.5714   23831315.7494
        39.2004         36.9004
 -19793912.70846 -15409834.21047  20863829.933    20863829.3574   20863829.7334
        48.8004         45.9004
 -12333509.51846  -9599268.84747  20666926.139    20666926.5544   20666932.8744
        49.5004         46.6004
 -10027084.94845  -7789481.65246  22578838.544    22578839.1384   22578843.7744
        44.6004         41.8004
   2571801.45542   2274219.33245  24615609.888    24615608.3394   24615606.7734
        36.8004         34.8004
  -6136771.40844  -4769712.40746  23849384.776    23849383.4504   23849385.7034
        41.1004         38.6004
 -21558974.24547 -16773319.82347  20206754.459    20206754.4254   20206758.6754
        50.7004         47.8004
  -2858261.60744  -2204195.02246  23483380.026    23483378.9504   23483380.0404
        40.9004         38.3004
 16  6 12  1 12  0.0000000  0  9G17G 7G23G 6G 3G22G19G 9G 2
   3746136.22442   2933581.01345  24689556.657    24689557.6194   24689561.2964
        35.9004         34.1004
  -2616773.51143  -1998902.80546  23811228.133    23811225.1674   23811227.2394
        39.4004         37.1004
 -19758842.55346 -15382506.81647  20870503.304    20870502.7714   20870503.2574
        48.8004         45.9004
 -12346808.72847  -9609631.87547  20664395.850    20664396.1454   20664401.9354
        49.6004         47.0004
  -9945446.34845  -7725867.18646  22594374.083    22594374.2214   22594379.3724
        44.4004         41.6004
   2665233.28242   2347023.34845  24633382.874    24633384.4514   24633387.4944
        36.8004         34.8004
  -6047048.00544  -4699798.10746  23866458.001    23866457.1374   23866459.0904
        40.9004         38.5004
 -21576315.28547 -16786832.29847  20203454.765    20203454.5664   20203458.7234
        50.7004         47.8004
  -2946876.84944  -2273245.84746  23466517.697    23466516.6974   23466517.2914
        40.9004         38.5004
 16  6 12  1 12 30.0000000  0  9G17G 7G23G 6G 3G22G19G 9G 2
   3844554.86142   3010270.81945  24708285.552    24708285.7754   24708291.0054
        36.1004         34.5004
  -2722229.27543  -2081076.10946  23791158.000    23791157.4254   23791160.2064
        39.6004         37.1004
 -19723387.18346 -15354879.26247  20877250.080    20877249.4864   20877250.5484
        48.8004         45.9004
 -12359525.25547  -9619540.85947  20661975.741    20661976.4324   20661981.8284
        49.6004         46.8004
  -9863604.20545  -7662094.09546  22609947.454    22609947.9774   22609953.7794
        44.2004         41.4004
   2758753.52242   2419896.26645  24651180.999    24651181.4074   24651182.2694
        36.8004         34.6004
  -5957062.90544  -4629679.90746  23883581.669    23883580.6024   23883582.0554
        40.9004         38.5004
 -21593179.72647 -16799973.41347  20200245.205    20200245.4574   20200249.4704
        50.7004         47.7004
  -3035239.32244  -2342099.71246  23449702.241    23449701.5264   23449702.2054
        40.9004         38.3004
 16  6 12  1 13  0.0000000  0  9G17G 7G23G 6G 3G22G19G 9G 2
   3943022.16142   3086998.52945  24727022.895    24727023.4104   24727025.4034
        36.4004         34.5004
  -2827574.26543  -2163163.08846  23771110.772    23771111.4414   23771113.9184
        39.6004         37.4004
 -19687548.06846 -15326952.68347  20884069.687    20884069.9134   20884070.2124
        48.8004         45.9004
 -12371658.26046  -9628995.14747  20659666.805    20659667.3024   20659672.8704
        49.5004         46.6004
  -9781559.20245  -7598162.94646  22625559.499    22625560.6914   22625566.8724
        44.1004         41.4004
   2852361.40542   2492837.46345  24668998.545    24668995.0764   24668998.2854
        37.1004         35.2004
  -5866819.26344  -4559360.17846  23900754.038    23900753.3764   23900756.6864
        40.9004         38.6004
 -21609567.83247 -16812743.35247  20197127.051    20197126.8214   20197131.2354
        50.7004         47.8004
  -3123346.74644  -2410754.83746  23432936.417    23432935.1604   23432935.8024
        40.9004         38.3004
 16  6 12  1 13 30.0000000  0  9G17G 7G23G 6G 3G22G19G 9G 2
   4041534.99342   3163761.70245  24745768.601    24745767.9524   24745772.0854
        36.3004         34.1004
  -2932805.97543  -2245161.78346  23751085.709    23751085.9034   23751089.0364
        39.6004         37.1004
 -19651326.32946 -15298727.95547  20890962.900    20890962.6814   20890963.1044
        48.8004         45.9004
 -12383206.85246  -9637994.04447  20657469.403    20657470.0114   20657475.1094
        49.5004         46.6004
  -9699312.13245  -7534074.33946  22641210.981    22641211.1474   22641217.5574
        43.9004         41.1004
   2946055.99442   2565846.20345  24686829.700    24686825.9874   24686826.5484
        37.1004         35.2004
  -5776320.27344  -4488841.52746  23917976.472    23917975.1534   23917977.2114
        41.1004         38.3004
 -21625479.85947 -16825142.32347  20194098.653    20194098.7794   20194103.2674
        50.7004         47.8004
  -3211196.64444  -2479209.28546  23416219.307    23416218.3564   23416218.7904
        40.8004         38.1004
 16  6 12  1 14  0.0000000  0  9G17G 7G23G 6G 3G22G19G 9G 2
   4140090.58542   3240558.19145  24764524.435    24764524.0934   24764525.5794
        35.6004         33.8004
  -3037922.08643  -2327070.41146  23731085.051    23731084.3284   23731086.4804
        39.7004         37.3004
 -19614723.20146 -15270206.04147  20897928.277    20897927.9344   20897928.2314
        48.8004         45.9004
 -12394170.20346  -9646536.91747  20655383.393    20655383.7524   20655388.8604
        49.5004         46.6004
  -9616863.70645  -7469828.81746  22656899.599    22656900.2994   22656907.4184
        43.7004         41.1004
   3039836.90342   2638922.22745  24704670.093    24704670.5924   24704672.1784
        37.3004         35.3004
  -5685568.94744  -4418126.26346  23935244.437    23935243.9764   23935247.2444
        40.8004         37.9004
 -21640916.11247 -16837170.56247  20191161.067    20191161.1964   20191166.1024
        50.7004         47.8004
  -3298786.79144  -2547461.35346  23399550.746    23399550.0514   23399551.2124
        40.6004         38.1004
 16  6 12  1 14 30.0000000  0  9G17G 7G23G 6G 3G22G19G 9G 2
   4238685.70642   3317385.50445  24783285.447    24783285.4724   24783290.4064
        35.7004         34.3004
  -3142920.15243  -2408887.04446  23711103.785    23711103.2494   23711106.5814
        39.7004         37.3004
 -19577739.90046 -15241387.88547  20904966.319    20904966.0514   20904966.1494
        48.8004         45.9004
 -12404547.55846  -9654623.16547  20653407.919    20653408.4514   20653414.0064
        49.5004         46.6004
  -9534214.68345  -7405427.00846  22672628.291    22672628.4024   22672634.4504
        43.7004         40.9004
   3133703.16242   2712064.77645  24722535.373    24722533.0414   24722534.2724
        36.8004         34.6004
  -5594568.53444  -4347216.89546  23952562.917    23952560.9924   23952564.1324
        40.8004         38.3004
 -21655876.87047 -16848828.29748  20188314.289    20188314.2754   20188319.1714
        50.7004         48.0004
  -3386114.95644  -2615509.26746  23382932.179    23382931.5544   23382933.3174
        40.6004         38.1004
 16  6 12  1 15  0.0000000  0  9G17G 7G23G 6G 3G22G19G 9G 2
   4337317.65742   3394241.53645  24802053.231    24802054.0404   24802060.7794
        36.3004         34.5004
  -3247796.96943  -2490609.21146  23691145.085    23691144.6154   23691148.0624
        39.6004         37.3004
 -19540378.14446 -15212274.82947  20912076.275    20912075.7124   20912075.9424
        48.8004         45.9004
 -12414338.08346  -9662252.14147  20651545.197    20651545.6304   20651551.1334
        49.5004         46.6004
  -9451365.83045  -7340869.47546  22688393.559    22688394.5044   22688400.0154
        43.7004         41.2004
   3227654.29142   2785273.42945  24740413.781    24740410.6314   24740412.4534
        36.6004         34.5004
  -5503322.25044  -4276115.94246  23969925.543    23969923.7754   23969927.3094
        40.6004         37.9004
 -21670362.41147 -16860115.72447  20185557.474    20185557.6484   20185562.7434
        50.7004         47.8004
  -3473178.69044  -2683351.13446  23366364.459    23366363.7574   23366365.3944
        40.8004         38.6004
 16  6 12  1 15 30.0000000  0  9G17G 7G23G 6G 3G22G19G 9G 2
   4435982.93042   3471123.49845  24820828.786    24820829.6964   24820833.5094
        35.7004         33.8004
  -3352550.06243  -2572234.96046  23671209.308    23671210.9474   23671214.4494
        39.9004         37.4004
 -19502639.15646 -15182867.83247  20919257.333    20919257.3134   20919257.5754
        48.8004         45.9004
 -12423541.04946  -9669423.28347  20649793.997    20649794.3704   20649799.7304
        49.5004         46.6004
  -9368317.88745  -7276156.80746  22704199.235    22704198.2864   22704203.6444
        43.9004         41.2004
   3321689.47542   2858547.60345  24758301.768    24758304.3804   24758307.6604
        36.4004         34.6004
  -5411833.51543  -4204826.04146  23987333.105    23987332.7664   23987336.1584
        40.1004         37.3004
 -21684373.08147 -16871033.11548  20182891.441    20182891.4214   20182896.5074
        50.8004         48.0004
  -3559975.49744  -2750984.99546  23349848.925    23349847.3234   23349848.9534
        41.3004         39.0004
 16  6 12  1 16  0.0000000  0  9G17G 7G23G 6G 3G22G19G 9G 2
   4534679.01642   3548029.41545  24839611.340    24839611.2664   24839615.4304
        35.2004         33.6004
  -3457177.14143  -2653762.53946  23651298.952    23651301.0694   23651303.8454
        39.7004         37.4004
 -19464524.17146 -15153167.84747  20926510.305    20926510.2384   20926510.2344
        48.8004         45.8004
 -12432155.70046  -9676135.99447  20648154.423    20648154.9664   20648160.5034
        49.5004         46.6004
  -9285071.63645  -7211289.60146  22720038.076    22720039.4554   22720044.7204
        43.9004         41.1004
   3415807.97542   2931886.69145  24776217.802    24776214.7484   24776220.9004
        36.4004         34.8004
  -5320105.05643  -4133349.35746  24004790.343    24004789.6244   24004792.1174
        40.1004         37.6004
 -21697909.19547 -16881580.72348  20180315.726    20180315.6354   20180320.6914
        50.8004         48.0004
  -3646503.12744  -2818409.11746  23333382.413    23333381.8694   23333382.9264
        42.0004         39.9004
 16  6 12  1 16 30.0000000  0  9G17G 7G23G 6G 3G22G19G 9G 2
   4633402.81242   3624956.97845  24858397.780    24858401.3024   24858403.5684
        35.0004         33.4004
  -3561675.24443  -2735189.58746  23631415.729    23631415.3424   23631419.7484
        40.1004         37.6004
 -19426034.74846 -15123176.09347  20933834.934    20933834.0494   20933834.3724
        48.6004         45.8004
 -12440181.31046  -9682389.71647  20646627.196    20646627.9284   20646633.3734
        49.5004         46.6004
  -9201627.75345  -7146268.40746  22735919.063    22735917.9084   22735923.8224
        43.7004         40.9004
   3510009.17842   3005290.21445  24794143.205    24794140.8774   24794142.3154
        36.1004         34.0004
  -5228140.34643  -4061688.57446  24022291.990    24022290.3324   24022292.0374
        40.1004         37.6004
 -21710971.10147 -16891758.81148  20177830.226    20177830.2514   20177834.8724
        50.8004         48.0004
  -3732759.07344  -2885621.54246  23316968.237    23316968.2814   23316968.8654
        42.7004         40.4004
 16  6 12  1 17  0.0000000  0  9G17G 7G23G 6G 3G22G19G 9G 2
   4732151.17142   3701903.70045  24877189.903    24877186.2844   24877192.5514
        35.2004         33.8004
  -3666041.46643  -2816513.87346  23611554.804    23611555.3414   23611560.0014
        40.1004         37.6004
 -19387171.88446 -15092893.34247  20941229.771    20941229.3394   20941229.9594
        48.6004         45.6004
 -12447617.16846  -9688183.88747  20645212.233    20645212.6574   20645218.2184
        49.5004         46.8004
  -9117987.12845  -7081093.89146  22751832.421    22751833.5484   22751839.2874
        43.6004         40.7004
   3604292.43142   3078757.67145  24812083.568    24812080.1304   24812084.9704
        35.7004         34.1004
  -5135942.55143  -3989846.18146  24039835.801    24039834.7514   24039836.9074
        39.9004         37.4004
 -21723559.15047 -16901567.67448  20175434.973    20175435.0474   20175439.4704
        50.8004         48.2004
  -3818741.10444  -2952620.51746  23300606.630    23300605.8414   23300606.9744
        43.2004         40.7004
 16  6 12  1 17 30.0000000  0  9G17G 7G23G 6G 3G22G19G 9G 2
   4830921.53042   3778867.59545  24895985.514    24895988.5784   24895989.7894
        35.2004         33.6004
  -3770273.68043  -2897733.75946  23591719.966    23591720.1234   23591725.0794
        40.3004         37.8004
 -19347936.69746 -15062320.48147  20948696.048    20948695.7984   20948695.7444
        48.4004         45.4004
 -12454462.62547  -9693518.00547  20643909.791    20643910.3494   20643915.9034
        49.6004         47.0004
  -9034150.37344  -7015766.56146  22767787.297    22767787.1654   22767792.7504
        43.4004         40.6004
   3698656.86242   3152288.40445  24830040.919    24830040.8334   24830044.0554
        35.7004         34.0004
  -5043514.78843  -3917824.55546  24057424.162    24057422.5624   24057426.3784
        39.7004         37.3004
 -21735673.72447 -16911007.59048  20173129.800    20173129.5494   20173134.1894
        50.8004         48.0004
  -3904446.87345  -3019404.23446  23284296.943    23284296.4904   23284297.4434
        43.6004         41.1004
 16  6 12  1 18  0.0000000  0  9G17G 7G23G 6G 3G22G19G 9G 2
   4929710.67442   3855846.11945  24914786.403    24914783.0394   24914788.8294
        34.7004         32.9004
  -3874369.32843  -2978847.20646  23571912.613    23571912.3904   23571915.8494
        40.4004         37.9004
 -19308330.91646 -15031458.83747  20956232.917    20956232.3424   20956232.9814
        48.4004         45.6004
 -12460717.01447  -9698391.55647  20642719.914    20642720.2194   20642725.3724
        49.6004         46.8004
  -8950118.34044  -6950287.06546  22783776.905    22783777.8394   22783783.6934
        43.2004         40.6004
   3793101.77942   3225881.87245  24848010.801    24848012.0574   24848013.6724
        35.7004         34.1004
  -4950860.38543  -3845626.34846  24075056.126    24075055.3644   24075057.8154
        39.9004         37.4004
 -21747315.17847 -16920078.85148  20170914.217    20170914.4194   20170918.9864
        50.8004         48.0004
  -3989874.03645  -3085970.85546  23268041.437    23268040.8104   23268040.8904
        43.9004         41.4004
 16  6 12  1 18 30.0000000  0  9G17G 7G23G 6G 3G22G19G 9G 2
   5028515.63841   3932836.86245  24933585.517    24933586.1444   24933590.0184
        34.2004         33.1004
  -3978325.65243  -3059852.08646  23552131.126    23552129.7854   23552133.3664
        40.4004         38.1004
 -19268356.01646 -15000309.57647  20963839.627    20963839.3564   20963839.5904
        48.4004         45.4004
 -12466379.71647  -9702804.04947  20641642.413    20641642.8144   20641647.8144
        49.6004         47.0004
  -8865891.76244  -6884655.97446  22799805.745    22799805.8874   22799812.4314
        43.4004         40.7004
   3887626.43642   3299537.44645  24866002.119    24865999.9464   24866000.1554
        35.7004         34.0004
  -4857982.60143  -3773254.11546  24092730.648    24092729.1044   24092729.7194
        39.6004         37.1004
 -21758483.91447 -16928781.75548  20168789.162    20168788.9064   20168793.4804
        50.8004         48.0004
  -4075020.14745  -3152318.47346  23251838.819    23251837.6324   23251838.6664
        44.1004         41.4004
 16  6 12  1 19  0.0000000  0  9G17G 7G23G 6G 3G22G19G 9G 2
   5127333.48841   4009837.67645  24952389.923    24952390.9164   24952394.3384
        34.3004         32.9004
  -4082139.51344  -3140745.93846  23532375.858    23532375.0824   23532378.3164
        40.8004         38.1004
 -19228012.84646 -14968873.34147  20971516.718    20971516.1964   20971517.0064
        48.4004         45.4004
 -12471450.09947  -9706754.99447  20640678.058    20640678.3814   20640682.7364
        49.8004         47.2004
  -8781471.41345  -6818873.90946  22815871.825    22815871.4504   22815876.5694
        43.6004         40.7004
   3982230.15442   3373254.61245  24884005.256    24884004.2044   24884002.9614
        35.6004         34.0004
  -4764884.56343  -3700710.19746  24110444.084    24110444.0144   24110447.3294
        39.6004         37.3004
 -21769180.34547 -16937116.62847  20166753.394    20166753.4284   20166758.0544
        50.8004         47.8004
  -4159882.85345  -3218445.25246  23235690.470    23235689.6874   23235689.5904
        44.2004         41.6004
 16  6 12  1 19 30.0000000  0  9G17G 7G23G 6G 3G22G19G 9G 2
   5226161.30841   4086846.33645  24971194.369    24971191.8914   24971201.8874
        34.0004         32.6004
  -4185808.44744  -3221526.88246  23512647.609    23512647.6254   23512650.9594
        40.8004         38.3004
 -19187303.25946 -14937151.58647  20979263.485    20979263.0094   20979263.6914
        48.2004         45.4004
 -12475927.58047  -9710243.93747  20639825.669    20639826.0704   20639831.0914
        50.0004         47.2004
  -8696858.04845  -6752941.43446  22831972.180    22831972.7054   22831978.5064
        43.6004         40.9004
   4076912.13742   3447032.78445  24902019.633    24902021.3484   24902020.4694
        35.4004         34.0004
  -4671569.26843  -3627997.02646  24128203.500    24128202.9154   24128204.0094
        39.9004         37.4004
 -21779404.87947 -16945083.78847  20164807.419    20164807.7934   20164812.1974
        50.7004         47.8004
  -4244460.08745  -3284349.58346  23219595.052    23219594.4414   23219595.1514
        44.2004         41.4004
 16  6 12  1 20  0.0000000  0  9G17G 7G23G 6G 3G22G19G 9G 2
   5324996.18141   4163860.48445  24990001.992    24990000.8294   24990008.7184
        33.7004         32.6004
  -4289330.03544  -3302193.01546  23492947.570    23492948.0874   23492950.5544
        40.9004         38.5004
 -19146228.30746 -14905145.13347  20987079.720    20987079.5254   20987080.2604
        48.4004         45.6004
 -12479811.60647  -9713270.44547  20639086.582    20639086.9334   20639091.8454
        50.0004         47.2004
  -8612052.43045  -6686859.14646  22848110.973    22848111.0314   22848116.0344
        43.6004         40.9004
   4171671.80242   3520871.52245  24920050.666    24920050.4354   24920053.1834
        35.0004         33.4004
  -4578040.04343  -3555117.14846  24146000.449    24145999.9544   24146002.3954
        39.7004         37.1004
 -21789157.94547 -16952683.56547  20162951.522    20162951.7054   20162956.3204
        50.7004         47.8004
  -4328748.68645  -3350029.00946  23203556.079    23203555.5874   23203555.8384
        44.4004         41.8004
 16  6 12  1 20 30.0000000  0  9G17G 7G23G 6G 3G22G19G 9G 2
   5423835.15341   4240877.76445  25008814.774    25008816.0344   25008819.2904
        33.5004         32.6004
  -4392701.94144  -3382742.51546  23473277.259    23473276.9404   23473279.9624
        40.9004         38.3004
 -19104789.50246 -14872855.15647  20994965.148    20994965.0624   20994965.6184
        48.4004         45.6004
 -12483101.61647  -9715834.08747  20638460.699    20638460.8524   20638466.0214
        50.0004         47.2004
  -8527055.33044  -6620627.64746  22864284.853    22864285.1134   22864289.3034
        43.4004         40.6004
   4266508.36742   3594770.14545  24938104.072    24938100.6584   24938102.8724
        35.6004         34.1004
  -4484300.08943  -3482073.04046  24163840.496    24163839.0694   24163840.8064
        39.7004         37.6004
 -21798439.95547 -16959916.28648  20161185.399    20161185.3964   20161190.0724
        50.7004         48.0004
  -4412747.03645  -3415482.26746  23187571.629    23187571.0744   23187571.3164
        44.2004         41.6004
 16  6 12  1 21  0.0000000  0  9G17G 7G23G 6G 3G22G19G 9G 2
   5522675.44341   4317895.99745  25027618.660    25027621.7934
        32.8004         31.3004
  -4495920.94744  -3463172.84546  23453633.968    23453634.2694   23453638.3344
        41.1004         38.5004
 -19062988.00646 -14840282.56347  21002920.200    21002919.9564   21002920.1914
        48.4004         45.6004
 -12485797.09047  -9717934.45247  20637947.046    20637947.6764   20637952.8454
        49.8004         47.0004
  -8441867.49544  -6554247.53346  22880495.517    22880496.1714   22880500.9974
        43.4004         40.7004
   4361420.93442   3668727.91745  24956165.305    24956160.7614   24956161.6784
        36.1004         34.5004
  -4390352.45443  -3408867.14346  24181717.078    24181715.5644   24181717.6304
        39.7004         37.1004
 -21807251.37747 -16966782.31248  20159508.512    20159508.8124   20159513.3844
        50.8004         48.0004
  -4496452.45145  -3480707.27346  23171642.374    23171642.4434   23171642.5504
        44.4004         41.6004
 16  6 12  1 21 30.0000000  0  9G17G 7G23G 6G 3G22G19G 9G 2
   5621513.93741   4394912.86245  25046428.986    25046428.9474   25046430.2814
        32.6004         32.0004
  -4598984.15444  -3543481.78146  23434021.324    23434021.0554   23434025.8364
        40.9004         38.5004
 -19020825.36646 -14807428.55947  21010944.221    21010943.5294   21010943.2484
        48.4004         45.6004
 -12487897.52647  -9719571.15547  20637547.684    20637548.2824   20637553.1194
        49.8004         47.0004
  -8356489.72644  -6487719.41446  22896742.135    22896742.8304   22896747.3394
        43.4004         40.6004
   4456408.74742   3742744.36845  24974235.762    24974235.9824   24974238.9384
        36.3004         34.5004
  -4296200.52243  -3335502.03746  24199632.813    24199631.4684   24199634.6954
        39.6004         37.1004
 -21815592.69447 -16973282.02548  20157921.196    20157921.3874   20157925.8814
        50.8004         48.0004
  -4579862.68445  -3545702.25846  23155770.745    23155770.3364   23155770.3114
        44.6004         41.8004
 16  6 12  1 22  0.0000000  0  9G17G 7G23G 6G 3G22G19G 9G 2
   5720347.98841   4471926.34445  25065238.279    25065241.2374   25065239.7844
        33.7004         32.6004
  -4701889.39344  -3623667.62546  23414438.397    23414438.9814   23414443.4324
        40.9004         38.3004
 -18978303.03046 -14774294.27847  21019035.367    21019034.9434   21019035.0324
        48.4004         45.6004
 -12489402.45847  -9720743.82947  20637260.846    20637261.2464   20637266.9014
        49.8004         47.0004
  -8270922.75144  -6421043.86646  22913024.938    22913025.9704   22913030.4004
        43.4004         40.7004
   4551471.62342   3816819.30845  24992322.653    24992324.5564   24992327.5864
        36.3004         34.5004
  -4201847.48743  -3261980.22346  24217588.785    24217586.7514   24217589.9214
        39.4004         36.9004
 -21823464.38647 -16979415.80348  20156423.517    20156423.5134   20156428.1814
        50.8004         48.0004
  -4662975.21545  -3610465.28446  23139954.795    23139954.3134   23139955.2624
        44.6004         41.6004
 16  6 12  1 22 30.0000000  0  9G17G 7G23G 6G 3G22G19G 9G 2
   5819174.98641   4548934.29145  25084045.013    25084046.0684   25084046.8304
        33.5004         32.7004
  -4804634.37544  -3703728.60546  23394886.875    23394887.7864   23394890.5484
        40.8004         38.1004
 -18935422.22646 -14740880.65847  21027195.263    21027194.9374   21027195.5774
        48.4004         45.8004
 -12490311.43447  -9721452.12647  20637087.612    20637088.3224   20637093.6684
        49.6004         46.8004
  -8185167.37744  -6354221.51746  22929344.338    22929344.2164   22929349.0704
        43.4004         40.4004
   4646608.54042   3890951.93645  25010429.201    25010427.0014   25010432.5024
        36.3004         34.5004
  -4107296.42143  -3188304.10146  24235580.121    24235577.9094   24235582.1244
        39.2004         36.7004
 -21830866.89547 -16985183.98448  20155015.009    20155014.8194   20155019.4434
        50.8004         48.0004
  -4745787.73945  -3674994.51546  23124196.451    23124194.8844   23124195.7444
        44.4004         41.4004
 16  6 12  1 23  0.0000000  0  9G17G 7G23G 6G 3G22G19G 9G 2
   5917991.39141   4625934.01445  25102849.975    25102845.0354   25102853.8934
        34.0004         32.7004
  -4907215.98944  -3783662.27046  23375365.611    23375367.2934   23375370.7994
        40.6004         38.1004
 -18892184.35946 -14707188.81247  21035423.128    21035422.5914   21035423.0464
        48.4004         45.6004
 -12490624.01247  -9721695.69747  20637028.545    20637028.7444   20637034.4604
        49.6004         46.8004
  -8099224.38244  -6287252.95446  22945697.381    22945697.9544   22945703.5044
        43.2004         40.6004
   4741818.75542   3965141.66945  25028549.044    25028545.7714   25028549.2314
        35.9004         34.0004
  -4012550.65543  -3114476.28246  24253611.282    24253609.9194   24253612.6154
        39.2004         36.9004
 -21837800.75947 -16990586.98447  20153695.254    20153695.2264   20153699.8004
        50.7004         47.8004
  -4828298.03445  -3739288.26046  23108494.854    23108493.6344   23108494.5574
        44.1004         41.1004
 16  6 12  1 23 30.0000000  0  8G 7G23G 6G 3G22G19G 9G 2
  -5009631.77744  -3863466.74446  23355877.451    23355878.3254   23355882.8554
        40.8004         38.3004
 -18848590.69646 -14673219.72347  21043717.826    21043717.5764   21043719.1954
        48.4004         45.4004
 -12490339.77347  -9721474.21947  20637082.524    20637083.2804   20637088.2894
        49.6004         46.8004
  -8013094.48344  -6220138.77846  22962088.572    22962088.5774   22962093.9124
        43.2004         40.4004
   4837101.69842   4039388.07045  25046680.031    25046678.7614   25046680.9494
        35.6004         34.0004
  -3917613.27443  -3040499.13046  24271675.125    24271674.2394   24271677.6914
        38.9004         36.4004
 -21844266.48347 -16995625.19447  20152464.498    20152464.4694   20152469.4214
        50.7004         47.8004
  -4910503.45245  -3803344.42246  23092851.806    23092850.1924   23092850.9804
        43.7004         40.7004
 16  6 12  1 24  0.0000000  0  8G 7G23G 6G 3G22G19G 9G 2
  -5111878.85544  -3943139.75946  23336420.686    23336421.2814   23336424.7224
        40.8004         38.3004
 -18804642.69646 -14638974.52747  21052081.301    21052080.8574   21052081.9894
        48.2004         45.4004
 -12489458.33247  -9720787.39447  20637250.858    20637251.3264   20637256.2484
        49.8004         47.2004
  -7926778.50044  -6152879.58046  22978513.249    22978514.0794   22978519.9254
        43.2004         40.6004
   4932455.85742   4113689.97445  25064822.676    25064822.7604   25064827.7064
        35.4004         33.6004
  -3822487.26543  -2966375.00346  24289778.128    24289776.2994   24289780.9164
        38.5004         36.4004
 -21850264.56447 -17000299.01447  20151322.954    20151323.0514   20151328.0324
        50.7004         47.8004
  -4992401.95344  -3867161.42246  23077266.832    23077266.1874   23077266.2944
        43.4004         40.6004
 16  6 12  1 24 30.0000000  0  8G 7G23G 6G 3G22G19G 9G 2
  -5213954.75144  -4022679.38646  23316995.489    23316996.6464   23316999.3394
        40.8004         38.3004
 -18760341.83546 -14604454.38047  21060511.752    21060511.2684   21060511.6914
        48.2004         45.4004
 -12487979.35247  -9719634.94547  20637531.957    20637532.4934   20637538.0914
        50.0004         47.2004
  -7840277.18644  -6085475.98646  22994975.263    22994974.7794   22994980.4764
        43.2004         40.4004
   5027881.21342   4188047.35145  25082983.343    25082980.8604   25082985.1954
        35.0004         33.8004
  -3727176.06943  -2892106.58746  24307916.147    24307914.1034   24307916.6814
        38.3004         36.0004
 -21855795.57247 -17004608.87848  20150271.187    20150271.0594   20150275.6264
        50.7004         48.0004
  -5073991.13244  -3930737.41346  23061741.837    23061740.3264   23061739.9514
        43.0004         40.2004
 16  6 12  1 25  0.0000000  0  7G 7G23G 6G 3G19G 9G 2
  -5315856.70544  -4102083.48246  23297605.435    23297605.3554   23297608.0814
        40.8004         38.1004
 -18715689.12346 -14569660.06147  21069008.916    21069008.6054   21069008.8394
        48.2004         45.4004
 -12485902.47947  -9718016.60547  20637926.588    20637927.3994   20637933.0394
        49.8004         47.0004
  -7753591.32744  -6017928.57346  23011469.193    23011470.1134   23011475.5324
        43.0004         40.2004
  -3631682.93343  -2817696.41445  24326087.194    24326086.4044   24326087.2614
        38.2004         35.9004
 -21860860.02847 -17008555.20248  20149307.439    20149307.5174   20149311.9454
        50.8004         48.0004
  -5155268.43244  -3994070.35846  23046274.295    23046272.9814   23046273.1444
        42.9004         39.9004
 16  6 12  1 25 30.0000000  0  7G 7G23G 6G 3G19G 9G 2
  -5417582.42144  -4181350.24546  23278249.013    23278247.9484   23278249.2234
        40.6004         37.9004
 -18670686.29246 -14534592.92947  21077572.708    21077572.3274   21077572.1494
        48.2004         45.2004
 -12483227.39447  -9715932.12947  20638436.404    20638436.5944   20638442.0624
        49.8004         47.2004
  -7666721.69844  -5950237.97746  23028001.045    23028001.4924   23028006.5874
        42.9004         40.0004
  -3536010.75043  -2743146.69745  24344294.760    24344292.9214   24344294.6494
        37.6004         35.2004
 -21865458.49647 -17012138.41848  20148432.445    20148432.2964   20148436.7854
        50.8004         48.2004
  -5236231.57144  -4057158.52646  23030867.599    23030867.1164   23030866.6774
        42.7004         39.9004
 16  6 12  1 26  0.0000000  0  7G 7G23G 6G 3G19G 9G 2
  -5519129.32743  -4260477.66646  23258925.474    23258924.0704   23258925.9854
        40.4004         37.9004
 -18625334.78046 -14499254.08747  21086202.974    21086202.7694   21086202.7064
        48.2004         45.2004
 -12479953.79847  -9713381.27947  20639059.440    20639059.9224   20639064.9624
        50.0004         47.2004
  -7579669.09944  -5882404.81246  23044567.736    23044566.8724   23044571.2484
        42.5004         39.7004
  -3440162.66843  -2668459.90945  24362531.445    24362531.3184   24362533.3364
        37.8004         35.9004
 -21869591.50447 -17015358.94248  20147645.450    20147645.5104   20147649.9984
        50.8004         48.0004
  -5316878.49944  -4120000.28146  23015520.410    23015519.4644   23015520.0884
        42.7004         40.2004
 16  6 12  1 26 30.0000000  0  7G 7G23G 6G 3G19G 9G 2
  -5620494.21544  -4339463.25646  23239635.567    23239634.2634   23239637.4644
        40.6004         38.1004
 -18579635.91546 -14463644.58347  21094898.994    21094898.5374   21094898.6204
        48.2004         45.2004
 -12476081.42947  -9710363.85047  20639796.010    20639796.4314   20639801.8104
        50.0004         47.2004
  -7492434.30144  -5814429.66146  23061165.992    23061166.3084   23061172.2314
        42.3004         39.5004
  -3344142.33343  -2593638.91345  24380805.311    24380802.5654   24380804.6324
        38.0004         35.7004
 -21873259.66247 -17018217.24048  20146947.489    20146947.3404   20146951.9854
        50.8004         48.0004
  -5397206.44144  -4182593.48346  23000234.558    23000234.0064   23000234.2704
        42.7004         40.0004
 16  6 12  1 27  0.0000000  0  7G 7G23G 6G 3G19G 9G 2
  -5721674.58444  -4418305.07746  23220381.187    23220380.9544   23220383.1274
        40.8004         38.3004
 -18533591.09046 -14427765.50047  21103660.708    21103660.5804   21103661.0894
        48.1004         45.2004
 -12471610.02047  -9706879.63047  20640646.661    20640647.3874   20640652.5214
        49.8004         47.0004
  -7405018.05244  -5746313.13646  23077800.493    23077801.2104   23077805.9944
        41.8004         39.0004
  -3247952.98243  -2518686.20045  24399109.159    24399107.7824   24399109.7834
        37.8004         35.5004
 -21876463.58647 -17020713.79448  20146338.146    20146338.1764   20146342.3574
        50.8004         48.0004
  -5477213.05144  -4244936.26746  22985010.227    22985009.2644   22985009.8974
        42.9004         40.2004
 16  6 12  1 27 30.0000000  0  7G 7G23G 6G 3G19G 9G 2
  -5822667.91744  -4497001.15046  23201163.537    23201163.1924   23201164.7224
        40.9004         38.6004
 -18487201.67446 -14391617.90947  21112488.580    21112488.0134   21112488.1924
        48.1004         45.2004
 -12466539.35747  -9702928.47147  20641611.664    20641612.1624   20641617.3684
        49.8004         46.8004
  -7317421.18644  -5678055.87046  23094469.810    23094470.6624   23094475.9374
        41.8004         39.3004
  -3151597.31843  -2443603.92845  24417442.992    24417443.2644   24417445.1154
        37.8004         35.7004
 -21879203.83047 -17022849.03848  20145816.702    20145816.5044   20145821.1584
        51.0004         48.2004
  -5556895.96744  -4307026.85046  22969847.103    22969846.3554   22969846.3034
        43.0004         40.4004
 16  6 12  1 28  0.0000000  0  7G 7G23G 6G 3G19G 9G 2
  -5923471.53844  -4575549.38746  23181981.106    23181980.1294   23181982.1594
        41.3004         38.8004
 -18440469.02646 -14355202.85547  21121382.050    21121381.2204   21121381.6234
        48.2004         45.4004
 -12460869.23047  -9698510.19247  20642690.660    20642691.5444   20642696.6064
        49.6004         46.8004
  -7229644.50844  -5609658.47346  23111172.561    23111174.0364   23111179.0414
        41.8004         39.2004
  -3055078.74443  -2368394.69646  24435813.722    24435811.2904   24435812.6674
        38.2004         36.2004
 -21881481.02247 -17024623.46248  20145383.027    20145383.1574   20145387.8204
        51.0004         48.2004
  -5636252.92644  -4368863.41946  22954745.510    22954745.2264   22954744.8834
        43.2004         40.6004
 16  6 12  1 28 30.0000000  0  7G 7G23G 6G 3G19G 9G 2
  -6024082.92444  -4653947.82946  23162833.892    23162834.2834   23162837.5024
        41.6004         39.2004
 -18393394.58146 -14318521.47047  21130339.927    21130339.4164   21130339.6014
        48.2004         45.4004
 -12454599.47747  -9693624.66647  20643883.531    20643884.1784   20643889.4774
        49.6004         46.8004
  -7141688.71944  -5541121.53946  23127910.882    23127910.7924   23127917.0844
        41.8004         39.2004
  -2958400.31543  -2293060.90446  24454208.049    24454208.2844   24454208.8864
        38.3004         36.0004
 -21883295.75947 -17026037.52748  20145037.854    20145037.8564   20145042.3054
        51.0004         48.2004
  -5715281.62144  -4430444.21546  22939706.986    22939705.5914   22939706.3624
        43.4004         40.7004
 16  6 12  1 29  0.0000000  0  7G 7G23G 6G 3G19G 9G 2
  -6124499.41844  -4732194.40946  23143726.611    23143726.5524   23143729.0404
        41.8004         39.3004
 -18345979.87046 -14281574.94147  21139362.510    21139361.9934   21139362.2154
        48.2004         45.4004
 -12447729.92946  -9688271.77247  20645190.970    20645191.4034   20645196.8644
        49.5004         46.6004
  -7053554.69644  -5472445.69846  23144682.599    23144683.3914   23144688.2114
        41.8004         39.2004
  -2861565.33543  -2217605.12445  24472634.342    24472634.2574   24472636.4404
        38.0004         35.9004
 -21884648.73147 -17027091.77948  20144780.489    20144780.5564   20144784.8904
        51.0004         48.2004
  -5793979.82044  -4491767.47546  22924730.907    22924730.4394   22924730.6004
        43.4004         40.7004
 16  6 12  1 29 30.0000000  0  7G 7G23G 6G 3G19G 9G 2
  -6224718.21344  -4810286.95246  23124654.592    23124655.0264   23124658.4374
        42.0004         39.5004
 -18298226.04346 -14244364.16447  21148449.600    21148449.0074   21148449.2544
        48.2004         45.2004
 -12440260.46346  -9682451.40347  20646612.135    20646612.7154   20646618.0784
        49.5004         46.6004
  -6965243.17844  -5403631.55346  23161487.629    23161488.6594   23161493.1404
        41.8004         39.2004
  -2764576.89343  -2142029.76645  24491091.843    24491091.0814   24491092.5274
        37.6004         35.5004
 -21885540.53847 -17027786.68748  20144610.678    20144610.6454   20144615.0824
        51.0004         48.2004
  -5872344.86344  -4552831.12346  22909818.234    22909817.7594   22909818.4784
        43.4004         40.6004
 16  6 12  1 30  0.0000000  0  7G 7G23G 6G 3G19G 9G 2
  -6324736.95844  -4888223.58246  23105622.265    23105622.2384   23105624.5044
        42.2004         39.5004
 -18250134.45646 -14206890.20047  21157600.649    21157600.7294   21157601.3324
        48.1004         45.2004
 -12432190.94346  -9676163.47047  20648147.956    20648148.5654   20648153.7384
        49.5004         46.8004
  -6876754.98944  -5334679.74546  23178326.189    23178325.6914   23178331.7374
        41.6004         38.8004
  -2667438.37043  -2066337.49445  24509576.582    24509576.6494   24509578.6724
        37.8004         35.5004
 -21885971.84647 -17028122.76948  20144528.438    20144528.4384   20144532.7724
        51.0004         48.2004
  -5950374.72344  -4613633.60646  22894969.471    22894969.4094   22894969.2914
        43.2004         40.4004
 16  6 12  1 30 30.0000000  0  7G 7G23G 6G 3G19G 9G 2
  -6424553.13244  -4966002.36146  23086627.565    23086627.4364   23086631.0564
        42.3004         39.7004
 -18201706.88146 -14169154.42147  21166815.989    21166815.7254   21166816.6374
        48.1004         45.2004
 -12423521.31847  -9669407.91947  20649798.198    20649798.5024   20649803.9114
        49.6004         47.0004
  -6788090.89144  -5265590.85946  23195199.532    23195198.8264   23195204.1224
        41.6004         38.8004
  -2570152.44443  -1990530.33145  24528089.638    24528088.4124   24528090.7994
        37.6004         35.5004
 -21885943.32047 -17028100.53148  20144534.126    20144534.0524   20144538.3934
        51.0004         48.2004
  -6028066.91344  -4674172.94546  22880185.667    22880184.6074   22880184.7634
        43.2004         40.6004
 16  6 12  1 31  0.0000000  0  7G 7G23G 6G 3G19G 9G 2
  -6524163.61544  -5043620.86346  23067672.983    23067673.0154   23067675.7214
        42.5004         39.9004
 -18152944.35546 -14131157.65147  21176095.253    21176095.0004   21176095.5704
        48.1004         45.2004
 -12414251.50447  -9662184.69147  20651562.230    20651562.0334   20651567.6204
        49.6004         46.8004
  -6699251.73844  -5196365.56946  23212103.461    23212104.5084   23212110.0794
        41.5004         38.8004
  -2472722.63642  -1914611.05645  24546629.749    24546630.3784   24546631.2414
        37.5004         35.3004
 -21885455.63547 -17027720.50748  20144626.686    20144626.7324   20144631.2634
        51.0004         48.2004
  -6105418.96544  -4734447.27346  22865466.158    22865465.4074   22865466.1464
        43.4004         40.9004
 16  6 12  1 31 30.0000000  0  7G 7G23G 6G 3G19G 9G 2
  -6623566.16144  -5121077.34646  23048756.351    23048756.4584   23048760.1774
        42.5004         39.9004
 -18103848.56746 -14092901.19247  21185438.463    21185438.1904   21185437.9464
        48.1004         45.2004
 -12404381.46947  -9654493.75947  20653439.703    20653440.2274   20653445.7824
        49.6004         46.8004
  -6610238.25344  -5127004.45046  23229043.265    23229043.1664   23229049.2344
        41.3004         38.8004
  -2375152.23743  -1838582.24445  24565197.160    24565195.5094   24565197.9034
        37.8004         35.9004
 -21884509.46647 -17026983.22548  20144806.890    20144806.7374   20144811.4234
        51.0004         48.2004
  -6182428.77545  -4794454.90346  22850811.956    22850811.5754   22850811.4724
        43.7004         41.1004
 16  6 12  1 32  0.0000000  0  7G 7G23G 6G 3G19G 9G 2
  -6722758.15744  -5198369.75446  23029881.281    23029880.8294   23029883.4004
        42.5004         39.9004
 -18054420.86646 -14054386.10147  21194844.460    21194843.9784   21194844.2534
        48.1004         45.4004
 -12393911.21047  -9646335.12047  20655432.446    20655432.5924   20655438.1094
        49.6004         46.8004
  -6521051.29344  -5057508.12446  23246013.601    23246015.0234   23246020.2024
        41.1004         38.5004
  -2277444.28443  -1762446.25445  24583790.167    24583790.0224   24583792.8194
        37.8004         35.7004
 -21883105.51947 -17025889.22948  20145073.421    20145073.5494   20145078.6584
        50.8004         48.2004
  -6259093.80645  -4854193.87746  22836222.973    22836221.9414   22836222.9034
        43.9004         41.2004
 16  6 12  1 32 30.0000000  0  7G 7G23G 6G 3G19G 9G 2
  -6821736.73944  -5275495.87146  23011046.138    23011045.2094   23011048.9254
        42.5004         39.9004
 -18004662.75946 -14015613.54747  21204312.519    21204312.1224   21204312.8264
        48.1004         45.2004
 -12382840.74146  -9637708.77447  20657538.047    20657539.0644   20657544.9304
        49.5004         46.8004
  -6431691.59144  -4987877.25046  23263020.022    23263019.4724   23263025.2234
        41.1004         38.5004
  -2179601.74843  -1686205.34745  24602409.173    24602407.6664   24602411.7974
        37.6004         35.7004
 -21881244.48547 -17024439.06648  20145427.908    20145427.9544   20145432.8504
        50.8004         48.2004
  -6335412.03545  -4913662.61846  22821700.483    22821699.5374   22821699.3064
        43.9004         41.1004
 16  6 12  1 33  0.0000000  0  7G 7G23G 6G 3G19G 9G 2
  -6920499.46044  -5352453.77346  22992251.852    22992252.5634   22992255.4584
        42.5004         40.0004
 -17954575.51746 -13976584.52547  21213843.915    21213843.4984   21213844.1554
        48.1004         45.2004
 -12371170.05347  -9628614.73547  20659760.390    20659760.6904   20659765.6334
        49.6004         47.0004
  -6342160.02844  -4918112.40346  23280055.118    23280057.5064   23280062.6154
        41.3004         38.8004
  -2081627.90843  -1609862.13045  24621053.042    24621052.4884   24621054.8894
        37.8004         35.9004
 -21878927.08147 -17022633.29348  20145868.961    20145869.2174   20145873.7304
        51.0004         48.2004
  -6411380.95445  -4972859.15046  22807243.045    22807243.1964   22807243.4304
        43.7004         41.1004
 16  6 12  1 33 30.0000000  0  7G 7G23G 6G 3G19G 9G 2
  -7019043.85944  -5429241.55946  22973499.215    22973499.0064   22973503.4374
        42.5004         39.9004
 -17904160.51546 -13937300.10847  21223437.250    21223437.3664   21223437.7314
        48.1004         45.1004
 -12358899.25747  -9619053.07947  20662095.370    20662095.8324   20662100.4634
        49.8004         47.0004
  -6252457.36544  -4848214.27046  23297127.016    23297126.9214   23297133.4664
        41.5004         39.0004
  -1983526.01543  -1533419.17645  24639722.014    24639721.6984   24639722.1424
        37.8004         35.9004
 -21876154.04547 -17020472.48048  20146396.900    20146396.8984   20146401.4364
        51.0004         48.2004
  -6486998.30145  -5031781.74146  22792854.038    22792853.3054   22792854.3264
        43.7004         41.1004
 16  6 12  1 34  0.0000000  0  7G 7G23G 6G 3G19G 9G 2
  -7117366.88444  -5505856.86846  22954789.519    22954789.3084   22954792.1784
        42.7004         40.0004
 -17853419.36846 -13897761.54547  21233092.810    21233092.4004   21233093.8634
        47.9004         45.1004
 -12346028.39747  -9609023.83647  20664544.731    20664545.0254   20664550.1424
        49.8004         47.0004
  -6162584.44644  -4778183.43146  23314228.095    23314229.3014   23314234.7794
        41.6004         38.8004
  -1885299.07043  -1456878.75145  24658414.862    24658413.7504   24658415.1194
        38.0004         35.9004
 -21872926.13347 -17017957.22348  20147011.135    20147010.9084   20147015.8474
        51.0004         48.2004
  -6562261.39845  -5090428.29846  22778531.856    22778531.6684   22778531.8764
        43.7004         40.9004
 16  6 12  1 34 30.0000000  0  7G 7G23G 6G 3G19G 9G 2
  -7215466.36444  -5582297.97846  22936121.235    22936121.5994   22936124.4834
        42.7004         40.0004
 -17802353.16746 -13857969.70047  21242810.628    21242810.4234   21242810.7794
        47.9004         44.9004
 -12332557.59147  -9598527.09847  20667107.766    20667108.3734   20667113.2544
        49.8004         47.0004
  -6072542.00244  -4708020.50646  23331363.184    23331363.8614   23331369.3624
        41.6004         39.2004
  -1786950.01943  -1380243.18746  24677128.772    24677128.8294   24677130.4584
        38.2004         36.0004
 -21869244.04747 -17015088.06048  20147711.032    20147711.6834   20147716.1504
        51.0004         48.2004
  -6637168.28845  -5148797.27646  22764276.850    22764277.0254   22764277.5404
        43.7004         41.1004
 16  6 12  1 35  0.0000000  0  7G 7G23G 6G 3G19G 9G 2
  -7313339.15944  -5658562.44646  22917497.541    22917496.5374   22917500.4224
        42.9004         40.2004
 -17750963.68246 -13817925.94447  21252589.982    21252589.3764   21252590.0374
        47.7004         44.9004
 -12318486.93947  -9587562.95847  20669785.443    20669785.8974   20669791.3034
        49.8004         47.0004
  -5982330.90144  -4637726.16446  23348530.005    23348530.9344   23348535.2504
        41.6004         38.8004
  -1688482.15943  -1303515.03946  24695868.048    24695866.6004   24695869.8124
        38.3004         36.2004
 -21865108.55847 -17011865.59248  20148498.528    20148498.5854   20148502.9554
        50.8004         48.2004
  -6711716.68645  -5206886.93146  22750091.355    22750090.5854   22750092.1734
        43.7004         40.9004
 16  6 12  1 35 30.0000000  0  7G 7G23G 6G 3G19G 9G 2
  -7410983.09644  -5734648.59446  22898916.403    22898915.8424   22898918.8194
        42.9004         40.2004
 -17699252.04446 -13777631.16147  21262429.614    21262429.5214   21262430.3644
        47.7004         44.7004
 -12303816.61447  -9576131.53847  20672577.090    20672577.5434   20672582.9734
        49.8004         47.0004
  -5891951.94444  -4567301.03646  23365728.876    23365729.5414   23365734.4714
        41.5004         39.0004
  -1589898.94443  -1226697.01646  24714626.725    24714625.7504   24714629.1594
        38.3004         36.0004
 -21860520.42847 -17008290.41748  20149372.124    20149371.9164   20149376.1354
        51.0004         48.2004
  -6785904.14745  -5264695.33346  22735974.006    22735973.3464   22735974.6394
        43.7004         40.9004
 16  6 12  1 36  0.0000000  0  7G 7G23G 6G 3G19G 9G 2
  -7508395.64444  -5810554.42346  22880378.316    22880379.6024   22880381.1874
        43.0004         40.4004
 -17647219.74746 -13737086.51747  21272332.075    21272331.6554   21272331.7184
        47.7004         44.9004
 -12288546.78447  -9564232.97247  20675482.878    20675483.3714   20675488.3844
        49.6004         46.8004
  -5801405.95444  -4496745.73846  23382958.158    23382959.5454   23382963.9154
        41.5004         38.6004
  -1491203.24943  -1149791.32546  24733407.475    24733406.5404   24733409.8064
        38.3004         36.2004
 -21855480.43147 -17004363.14648  20150331.026    20150330.9854   20150335.6334
        51.0004         48.4004
  -6859728.52845  -5322220.79646  22721925.439    22721924.7924   22721926.0834
        43.7004         41.1004
 16  6 12  1 36 30.0000000  0  7G 7G23G 6G 3G19G 9G 2
  -7605574.16644  -5886277.92246  22861886.507    22861887.6574   22861888.5484
        43.0004         40.4004
 -17594868.42146 -13696293.27747  21282294.669    21282294.3764   21282293.7764
        47.7004         44.9004
 -12272677.65747  -9551867.41547  20678502.270    20678502.7644   20678508.2474
        49.6004         46.6004
  -5710693.68544  -4426060.88846  23400221.593    23400221.9404   23400226.9964
        41.3004         38.6004
  -1392398.19643  -1072800.41846  24752208.841    24752208.4264   24752212.1254
        38.3004         36.0004
 -21849989.35747 -17000084.38548  20151375.861    20151375.8824   20151380.6044
        51.2004         48.4004
  -6933187.05345  -5379461.20846  22707947.101    22707945.9624   22707947.1344
        43.7004         41.1004
 16  6 12  1 37  0.0000000  0  7G 7G23G 6G 3G19G 9G 2
  -7702515.85344  -5961816.86946  22843439.479    22843440.0574   22843441.0654
        43.2004         40.6004
 -17542199.34246 -13655252.44147  21292316.415    21292316.1904   21292316.5444
        47.7004         44.9004
 -12256209.43946  -9539035.04547  20681635.496    20681636.0874   20681642.0254
        49.5004         46.5004
  -5619816.04144  -4355247.15946  23417513.962    23417515.7054   23417521.3694
        41.3004         38.8004
  -1293487.12343   -995726.89945  24771032.670    24771031.4054   24771032.8724
        38.2004         35.9004
 -21844048.00447 -16995454.75348  20152505.916    20152506.3714   20152511.0224
        51.2004         48.4004
  -7006277.85145  -5436415.06746  22694038.334    22694037.1164   22694038.3374
        43.7004         40.9004
 16  6 12  1 37 30.0000000  0  7G 7G23G 6G 3G19G 9G 2
  -7799218.45444  -6037169.51546  22825038.541    22825037.9234   22825039.6434
        43.4004         40.7004
 -17489213.97646 -13613965.13747  21302399.496    21302399.0554   21302399.2684
        47.7004         44.9004
 -12239142.38946  -9525736.05847  20684884.045    20684884.1644   20684889.8234
        49.3004         46.5004
  -5528773.79844  -4284305.16846  23434840.124    23434839.2664   23434844.3064
        41.3004         38.6004
  -1194472.98843   -918573.07445  24789874.690    24789874.0294   24789875.9714
        38.0004         35.9004
 -21837657.17447 -16990474.87348  20153722.229    20153722.4224   20153727.0534
        51.0004         48.2004
  -7078998.58745  -5493080.56346  22680199.569    22680198.9744   22680200.2934
        43.9004         41.2004
 16  6 12  1 38  0.0000000  0  7G 7G23G 6G 3G19G 9G 2
  -7895679.24645  -6112333.73946  22806681.828    22806681.5774   22806683.2634
        43.6004         40.9004
 -17435913.58046 -13572432.36547  21312542.252    21312541.8574   21312542.3224
        47.7004         44.9004
 -12221476.75246  -9511970.63647  20688245.486    20688245.9014   20688251.4694
        49.3004         46.5004
  -5437567.73044  -4213235.55146  23452195.832    23452195.8804   23452200.1334
        40.9004         38.3004
  -1095358.80643   -841341.28645  24808735.138    24808733.8124   24808736.7114
        37.8004         35.5004
 -21830817.66447 -16985145.37648  20155023.517    20155023.6624   20155028.4134
        51.0004         48.2004
  -7151347.02145  -5549455.97546  22666432.797    22666432.1164   22666432.6984
        44.1004         41.2004
 16  6 12  1 38 30.0000000  0  7G 7G23G 6G 3G19G 9G 2
  -7991895.26845  -6187307.23946  22788372.632    22788373.1724   22788374.6734
        43.7004         40.9004
 -17382299.79446 -13530655.38747  21322743.859    21322743.8094   21322744.6294
        47.7004         44.9004
 -12203212.84046  -9497739.01947  20691720.424    20691721.3024   20691726.6674
        49.3004         46.5004
  -5346198.77644  -4142038.99546  23469582.133    23469582.9014   23469586.8804
        40.8004         38.3004
   -996147.51942   -764033.80045  24827614.154    24827613.9774   24827615.8944
        37.3004         35.3004
 -21823530.33247 -16979466.93648  20156410.586    20156410.6774   20156415.0374
        51.0004         48.2004
  -7223320.77145  -5605539.41846  22652736.090    22652735.7754   22652736.7364
        44.1004         41.2004
 16  6 12  1 39  0.0000000  0  7G 7G23G 6G 3G19G 9G 2
  -8087864.15845  -6262088.16646  22770109.918    22770109.9154   22770112.9634
        43.7004         41.1004
 -17328373.97146 -13488635.26247  21333005.730    21333005.3344   21333006.5874
        47.7004         44.7004
 -12184350.98046  -9483041.47247  20695310.716    20695310.8134   20695316.3824
        49.3004         46.6004
  -5254667.66244  -4070716.07146  23486999.161    23486999.6474   23487005.0024
        40.6004         38.1004
   -896842.54442   -686653.35845  24846511.298    24846510.9374   24846513.0124
        37.5004         35.5004
 -21815795.96547 -16973440.15148  20157882.589    20157882.4944   20157887.0624
        51.0004         48.2004
  -7294917.61945  -5661329.16546  22639110.960    22639110.9414   22639112.0904
        43.9004         40.9004
 16  6 12  1 39 30.0000000  0  7G 7G23G 6G 3G19G 9G 2
  -8183583.85845  -6336674.91246  22751895.991    22751894.6874   22751897.9434
        43.7004         41.1004
 -17274137.50846 -13446373.08647  21343326.693    21343326.5434   21343327.3384
        47.5004         44.7004
 -12164891.49946  -9467878.25247  20699013.902    20699014.1234   20699019.0094
        49.3004         46.6004
  -5162975.20143  -3999267.42646  23504449.104    23504448.1124   23504453.8784
        40.4004         37.9004
   -797447.19442   -609202.48745  24865425.570    24865424.6004   24865427.7084
        37.5004         35.5004
 -21807615.41647 -16967065.69148  20159439.153    20159439.3744   20159443.8074
        51.0004         48.4004
  -7366135.13345  -5716823.32546  22625559.267    22625558.9634   22625559.7304
        43.9004         41.2004
 16  6 12  1 40  0.0000000  0  7G 7G23G 6G 3G19G 9G 2
  -8279051.10345  -6411064.92946  22733727.754    22733727.4104   22733731.2854
        43.7004         40.7004
 -17219591.68046 -13403869.85247  21353706.328    21353706.4764   21353707.4214
        47.5004         44.7004
 -12144834.75346  -9452249.62147  20702830.143    20702830.4994   20702835.8904
        49.5004         46.6004
  -5071122.30143  -3927693.75346  23521925.880    23521926.6304   23521934.1594
        40.4004         37.8004
   -697964.26642   -531683.37145  24884356.945    24884355.8464   24884358.3904
        37.5004         35.5004
 -21798989.55547 -16960344.22648  20161080.369    20161080.4774   20161085.2864
        51.2004         48.4004
  -7436971.22245  -5772020.26846  22612079.266    22612078.5494   22612079.9994
        44.1004         41.6004
 16  6 12  1 40 30.0000000  0  7G 7G23G 6G 3G19G 9G 2
  -8374263.31745  -6485256.21846  22715608.859    22715609.1364   22715612.2064
        43.6004         40.7004
 -17164738.13746 -13361126.82847  21364145.249    21364144.9104   21364145.4474
        47.7004         44.9004
 -12124181.15546  -9436155.90247  20706760.472    20706761.0444   20706766.0644
        49.5004         46.6004
  -4979109.75243  -3855995.67946  23539435.404    23539435.4954   23539443.3314
        40.3004         37.6004
   -598396.87142   -454098.43545  24903301.502    24903302.4934   24903306.1054
        37.5004         35.3004
 -21789919.21647 -16953276.42648  20162806.754    20162806.7694   20162811.2034
        51.2004         48.4004
  -7507423.38945  -5826918.04846  22598673.056    22598672.9504   22598673.8844
        44.4004         41.8004
 16  6 12  1 41  0.0000000  0  7G 7G23G 6G 3G19G 9G 2
  -8469218.23544  -6559247.03346  22697538.912    22697539.5764   22697542.5324
        43.4004         40.7004
 -17109578.36146 -13318145.18747  21374641.817    21374641.2744   21374642.0404
        47.7004         44.9004
 -12102931.06746  -9419597.39847  20710804.327    20710804.6954   20710809.6154
        49.5004         46.6004
  -4886938.38843  -3784173.84346  23556974.538    23556975.7114   23556983.3634
        40.1004         37.8004
   -498747.95442   -376449.96945  24922266.537    24922264.2064   24922269.5714
        37.3004         35.2004
 -21780405.30647 -16945862.99548  20164617.003    20164617.0714   20164621.5494
        51.0004         48.4004
  -7577489.72745  -5881515.18746  22585340.553    22585340.2314   22585339.7764
        44.6004         41.9004
 16  6 12  1 41 30.0000000  0  7G 7G23G 6G 3G19G 9G 2
  -8563913.50645  -6633035.52446  22679519.277    22679519.5204   22679523.4504
        43.6004         40.9004
 -17054113.62646 -13274925.92047  21385196.377    21385196.0854   21385196.4914
        47.7004         44.7004
 -12081084.95846  -9402574.46547  20714961.876    20714962.0264   20714966.9634
        49.5004         46.6004
  -4794608.98643  -3712228.90046  23574546.539    23574546.1714   23574552.9174
        40.3004         37.8004
   -399020.86042   -298740.59545  24941245.192    24941242.9894   24941245.8104
        37.0004         34.8004
 -21770448.65047 -16938104.55848  20166511.805    20166511.7064   20166516.1494
        51.0004         48.2004
  -7647167.94045  -5935809.89046  22572080.440    22572080.2984   22572080.8284
        44.6004         41.8004
 16  6 12  1 42  0.0000000  0  7G 7G23G 6G 3G19G 9G 2
  -8658346.24645  -6706619.45746  22661549.661    22661550.2244   22661553.0314
        43.9004         41.2004
 -16998345.45246 -13231470.19447  21395808.508    21395808.0404   21395808.7184
        47.5004         44.7004
 -12058643.28746  -9385087.44547  20719232.115    20719232.3944   20719237.6754
        49.5004         46.8004
  -4702122.47943  -3640161.51646  23592146.776    23592146.4764   23592153.2044
        40.4004         38.1004
   -299218.74942   -220972.78545  24960238.326    24960235.6144   24960236.9904
        36.6004         34.6004
 -21760050.15247 -16930001.82348  20168490.435    20168490.4654   20168494.9614
        51.0004         48.2004
  -7716455.36145  -5989800.07546  22558895.906    22558894.9594   22558895.8954
        44.6004         41.8004
 16  6 12  1 42 30.0000000  0  7G 7G23G 6G 3G19G 9G 2
  -8752514.15445  -6779997.02146  22643630.338    22643631.1144   22643632.8894
        44.1004         41.4004
 -16942275.22246 -13187779.10647  21406477.660    21406477.6314   21406478.9474
        47.5004         44.5004
 -12035606.53247  -9367136.73947  20723615.810    20723616.1524   20723621.3764
        49.6004         46.6004
  -4609479.65944  -3567972.31446  23609775.482    23609776.8074   23609781.3664
        40.6004         38.1004
   -199344.38942   -143148.66545  24979242.792    24979241.0564   24979242.9804
        36.4004         34.5004
 -21749210.71047 -16921555.50348  20170552.914    20170553.0914   20170557.8034
        51.0004         48.2004
  -7785350.08345  -6043484.26346  22545785.620    22545785.0514   22545785.6624
        44.6004         41.9004
 16  6 12  1 43  0.0000000  0  7G 7G23G 6G 3G19G 9G 2
  -8846414.54345  -6853166.14246  22625760.857    22625762.2384   22625764.1494
        44.1004         41.4004
 -16885904.21546 -13143853.64747  21417204.956    21417204.3494   21417205.6044
        47.4004         44.5004
 -12011975.18846  -9348722.71147  20728112.380    20728113.0234   20728118.2594
        49.5004         46.6004
  -4516681.32444  -3495661.96046  23627438.392    23627435.7224   23627440.0234
        40.8004         38.1004
    -99400.77942    -65270.54945  24998258.536    24998257.8404   24998260.4434
        35.9004         34.0004
 -21737931.20447 -16912766.26748  20172699.535    20172699.6054   20172704.1334
        51.0004         48.2004
  -7853849.95945  -6096860.77747  22532750.668    22532750.2014   22532750.5504
        44.8004         42.1004
 16  6 12  1 43 30.0000000  0  7G 7G23G 6G 3G19G 9G 2
  -8940044.58245  -6926124.58446  22607943.062    22607943.8774   22607947.5324
        44.1004         41.2004
 -16829233.96046 -13099695.00747  21427989.482    21427988.8904   21427989.4324
        47.4004         44.5004
 -11987749.78246  -9329845.78247  20732722.409    20732722.6634   20732728.3044
        49.5004         46.6004
  -4423728.39643  -3423231.09846  23645120.746    23645122.5594   23645128.0764
        40.4004         37.8004
       608.30742     12658.61645  25017289.842    25017287.9964   25017291.4954
        35.4004         33.4004
 -21726212.56947 -16903634.85348  20174929.709    20174929.4724   20174933.9144
        50.8004         48.0004
  -7921952.62645  -6149927.78047  22519790.709    22519790.1804   22519790.6594
        44.8004         42.1004
 16  6 12  1 44  0.0000000  0  7G 7G23G 6G 3G19G 9G 2
  -9033401.94145  -6998870.53946  22590178.444    22590179.2244   22590182.2174
        44.1004         41.2004
 -16772266.08946 -13055304.45047  21438829.484    21438829.3304   21438830.3394
        47.4004         44.5004
 -11962930.88046  -9310506.38847  20737445.691    20737446.0874   20737451.3134
        49.5004         46.6004
  -4330621.63143  -3350680.40246  23662840.893    23662839.8334   23662846.5894
        40.3004         37.6004
    100680.47342     90636.87045  25036334.035    25036332.2044   25036335.0824
        35.0004         33.4004
 -21714055.68247 -16894161.95048  20177243.078    20177242.8444   20177247.5914
        50.8004         48.0004
  -7989655.62245  -6202683.35546  22506907.476    22506907.2364   22506907.2174
        44.6004         41.8004
 16  6 12  1 44 30.0000000  0  7G 7G23G 6G 3G19G 9G 2
  -9126484.34045  -7071402.25346  22572465.103    22572465.7124   22572468.0724
        43.9004         41.1004
 -16715001.81546 -13010682.94247  21449726.674    21449726.4954   21449727.2004
        47.4004         44.4004
 -11937519.05146  -9290704.98247  20742281.147    20742281.3464   20742286.5874
        49.3004         46.5004
  -4237361.93743  -3278010.51846  23680585.735    23680586.9554   23680593.9224
        40.1004         37.4004
    200812.40042    168661.75045  25055387.829    25055386.7714   25055389.9334
        35.4004         33.8004
 -21701461.50547 -16884348.29748  20179639.017    20179639.0454   20179644.2894
        50.8004         48.0004
  -8056957.18645  -6255126.11746  22494100.526    22494100.2704   22494100.3984
        44.6004         41.8004
 16  6 12  1 45  0.0000000  0  7G 7G23G 6G 3G19G 9G 2
  -9219289.18045  -7143717.67046  22554803.591    22554805.1264   22554809.4484
        43.9004         41.1004
 -16657442.46946 -12965831.50147  21460679.957    21460679.9124   21460680.4934
        47.4004         44.5004
 -11911514.90146  -9270442.01547  20747229.010    20747229.6514   20747235.3024
        49.3004         46.5004
  -4143950.09543  -3205222.09946  23698361.017    23698362.0044   23698368.5284
        39.7004         37.3004
    301001.50442    246731.19645  25074453.579    25074452.7664   25074456.4164
        35.6004         34.0004
 -21688430.99247 -16874194.64848  20182118.301    20182118.7094   20182123.7694
        50.8004         48.2004
  -8123855.02545  -6307254.30346  22481370.937    22481370.0854   22481370.3944
        44.6004         41.9004
 16  6 12  1 45 30.0000000  0  7G 7G23G 6G 3G19G 9G 2
  -9311813.69445  -7215814.66246  22537197.010    22537198.3304   22537202.1834
        43.9004         41.1004
 -16599589.66146 -12920751.39147  21471689.820    21471689.2704   21471689.4294
        47.4004         44.5004
 -11884919.03246  -9249717.97447  20752291.297    20752291.3864   20752296.1524
        49.3004         46.5004
  -4050387.02443  -3132315.80046  23716168.190    23716167.4694   23716173.9784
        39.7004         37.4004
    401243.78742    324842.04545  25093528.211    25093527.6064   25093530.4334
        35.6004         34.1004
 -21674965.02747 -16863701.68348  20184681.066    20184681.1504   20184686.1784
        50.8004         48.2004
  -8190346.67045  -6359065.97346  22468718.071    22468716.7084   22468716.9804
        44.6004         41.8004
 16  6 12  1 46  0.0000000  0  7G 7G23G 6G 3G19G 9G 2
  -9404055.33045  -7287691.23346  22519645.690    22519645.7904   22519648.6534
        43.9004         41.2004
 -16541444.84646 -12875443.73847  21482753.930    21482753.3874   21482753.6734
        47.4004         44.4004
 -11857732.11546  -9228533.37247  20757464.546    20757464.7774   20757469.4664
        49.3004         46.5004
  -3956673.52343  -3059292.32646  23734002.448    23734001.3774   23734005.7404
        39.7004         37.3004
    501536.91142    402992.50545  25112613.808    25112613.5004   25112616.0234
        35.9004         34.1004
 -21661064.61547 -16852870.19248  20187326.645    20187326.9714   20187331.3644
        51.0004         48.4004
  -8256430.09745  -6410559.53846  22456142.103    22456141.1864   22456141.7204
        44.4004         41.6004
 16  6 12  1 46 30.0000000  0  7G 7G23G 6G 3G19G 9G 2
  -9496011.70045  -7359345.51046  22502146.922    22502147.1144   22502150.1234
        44.1004         41.4004
 -16483009.25946 -12829909.51847  21493874.212    21493873.6604   21493873.3504
        47.2004         44.4004
 -11829954.81946  -9206888.73047  20762750.097    20762750.6814   20762755.4884
        49.3004         46.5004
  -3862810.48043  -2986152.28546  23751860.895    23751862.4504   23751868.0694
        39.6004         37.1004
    601877.47942    481179.93945  25131708.552    25131706.2954   25131710.6054
        36.1004         34.5004
 -21646730.68647 -16841700.89148  20190054.736    20190054.4624   20190059.0324
        51.0004         48.2004
  -8322103.15345  -6461733.34046  22443645.068    22443644.3434   22443644.5864
        44.4004         41.6004
 16  6 12  1 47  0.0000000  0  7G 7G23G 6G 3G19G 9G 2
  -9587680.43245  -7430775.66946  22484702.691    22484702.9334   22484706.5704
        44.2004         41.6004
 -16424284.46046 -12784149.93147  21505049.460    21505048.8734   21505048.8784
        47.4004         44.4004
 -11801587.80446  -9184784.56947  20768148.170    20768148.3454   20768153.5384
        49.3004         46.6004
  -3768798.74343  -2912896.38046  23769750.049    23769751.7284   23769758.0974
        39.6004         36.9004
    702262.78142    559402.20545  25150811.570    25150810.6194   25150812.8224
        36.3004         34.5004
 -21631964.19047 -16830194.52548  20192864.509    20192864.3264   20192869.2534
        51.0004         48.2004
  -8387363.73545  -6512585.74446  22431227.365    22431226.1534   22431226.0174
        44.4004         41.8004
 16  6 12  1 47 30.0000000  0  7G 7G23G 6G 3G19G 9G 2
  -9679059.06545  -7501979.77746  22467313.653    22467315.1064   22467318.1614
        44.4004         41.6004
 -16365271.84146 -12738166.06547  21516278.223    21516277.9914   21516278.6144
        47.4004         44.4004
 -11772631.82546  -9162221.47547  20773658.334    20773658.7854   20773664.1434
        49.5004         46.6004
  -3674639.12743  -2839525.24846  23787671.094    23787670.0464   23787675.7204
        39.6004         37.1004
    802689.44742    637656.77445  25169920.998    25169921.2554   25169922.5964
        36.3004         34.5004
 -21616766.11847 -16818351.86648  20195756.752    20195756.6074   20195761.1044
        51.0004         48.2004
  -8452209.28345  -6563114.73746  22418886.094    22418885.4714   22418886.9574
        44.6004         41.8004
 16  6 12  1 48  0.0000000  0  7G 7G23G 6G 3G19G 9G 2
  -9770144.72045  -7572955.59546  22449980.980    22449981.6534   22449983.9954
        44.4004         41.6004
 -16305972.67046 -12691958.92247  21527562.851    21527562.2634   21527562.3324
        47.2004         44.2004
 -11743087.59246  -9139200.00047  20779280.748    20779281.2174   20779285.9824
        49.5004         46.8004
  -3580332.55743  -2766039.61846  23805614.045    23805616.2634   23805620.5794
        39.6004         37.3004
    903154.66142    715941.36345  25189041.441    25189039.7264   25189042.3184
        36.8004         35.0004
 -21601137.46447 -16806173.69248  20198730.586    20198730.5174   20198735.0594
        51.0004         48.4004
  -8516637.88245  -6613318.82946  22406625.883    22406625.1224   22406626.4724
        44.6004         41.8004
 16  6 12  1 48 30.0000000  0  7G 7G23G 6G 3G19G 9G 2
  -9860935.27045  -7643701.44746  22432705.389    22432705.3584   22432707.2144
        44.4004         41.6004
 -16246388.58746 -12645529.76347  21538901.221    21538900.9534   21538901.1444
        47.2004         44.4004
 -11712955.87746  -9115720.75047  20785014.524    20785014.9604   20785019.8574
        49.5004         46.6004
  -3485879.82443  -2692440.10746  23823590.582    23823590.6054   23823595.2914
        39.6004         37.3004
   1003655.42642    794253.63945  25208164.499    25208162.9284   25208166.0154
        37.0004         35.2004
 -21585079.17447 -16793660.73648  20201785.892    20201786.0074   20201791.0224
        51.0004         48.4004
  -8580647.59945  -6663196.51646  22394444.911    22394444.5124   22394445.5694
        44.6004         41.6004
 16  6 12  1 49  0.0000000  0  7G 7G23G 6G 3G19G 9G 2
  -9951427.90345  -7714215.15946  22415485.070    22415484.9424   22415488.0624
        44.4004         41.6004
 -16186520.94746 -12598879.66147  21550293.935    21550293.5444   21550293.7154
        47.2004         44.5004
 -11682237.47746  -9091784.33547  20790859.231    20790859.9644   20790865.3314
        49.3004         46.3004
  -3391281.88143  -2618727.43046  23841589.386    23841590.3784   23841596.5514
        39.4004         36.9004
   1104189.02142    872591.51445  25227296.668    25227295.2104   25227296.8524
        37.1004         35.2004
 -21568592.30247 -16780813.82348  20204923.233    20204923.4974   20204928.4784
        51.0004         48.4004
  -8644236.00445  -6712745.93346  22382344.726    22382344.0394   22382344.6994
        44.6004         41.8004
 16  6 12  1 49 30.0000000  0  7G 7G23G 6G 3G19G 9G 2
 -10041620.31145  -7784494.93846  22398321.787    22398321.4334   22398324.5104
        44.2004         41.4004
 -16126371.13646 -12552009.68147  21561740.327    21561739.9904   21561739.3694
        47.4004         44.5004
 -11650933.18346  -9067391.38347  20796816.708    20796817.2344   20796821.9914
        49.1004         46.3004
  -3296539.47143  -2544902.20346  23859619.987    23859618.8704   23859625.3774
        38.9004         36.6004
   1204752.02042    950952.26645  25246432.464    25246431.0134   25246433.6714
        37.5004         35.5004
 -21551677.80247 -16767633.69448  20208141.815    20208142.1684   20208147.3304
        51.0004         48.4004
  -8707400.99445  -6761965.39046  22370324.960    22370323.4774   22370324.7354
        44.6004         41.8004
 16  6 12  1 50  0.0000000  0  7G 7G23G 6G 3G19G 9G 2
 -10131510.12945  -7854538.92246  22381216.572    22381215.8394   22381219.3704
        44.1004         41.2004
 -16065940.59946 -12504920.95547  21573239.467    21573239.5524   21573238.9194
        47.4004         44.4004
 -11619043.82646  -9042542.54347  20802885.015    20802885.3774   20802890.5254
        49.1004         46.3004
  -3201653.56043  -2470965.13046  23877673.112    23877675.0494   23877679.6464
        38.7004         36.4004
   1305341.31643   1029333.53545  25265573.243    25265571.3744   25265574.9974
        37.6004         35.7004
 -21534336.70047 -16754121.14148  20211441.994    20211441.9344   20211447.2174
        51.0004         48.4004
  -8770140.54345  -6810853.35646  22358385.465    22358385.0884   22358386.0434
        44.6004         41.8004
 16  6 12  1 50 30.0000000  0  7G 7G23G 6G 3G19G 9G 2
 -10221094.78445  -7924345.11946  22364168.395    22364169.0104   22364171.8284
        43.9004         41.2004
 -16005230.73646 -12457614.57147  21584792.506    21584791.7614   21584791.7424
        47.2004         44.2004
 -11586570.28246  -9017238.48447  20809064.228    20809064.8464   20809070.1504
        49.1004         46.3004
  -3106624.97043  -2396916.86646  23895758.521    23895758.9904   23895766.1614
        38.5004         36.4004
   1405954.42143   1107733.33446  25284719.661    25284718.3754   25284722.0894
        38.0004         36.0004
 -21516570.01847 -16740276.96648  20214823.057    20214823.0064   20214827.9034
        51.0004         48.4004
  -8832452.63245  -6859408.22246  22346528.464    22346527.1774   22346528.8254
        44.6004         41.9004
 16  6 12  1 51  0.0000000  0  7G 7G23G 6G 3G19G 9G 2
 -10310371.93445  -7993911.70746  22347179.136    22347179.6554   22347182.3614
        43.7004         40.9004
 -15944242.87946 -12410091.55447  21596397.452    21596397.4374   21596397.4394
        47.2004         44.4004
 -11553513.38946  -8991479.87047  20815355.517    20815355.3034   20815360.9034
        49.1004         46.3004
  -3011454.59543  -2322758.14246  23913869.895    23913868.5694   23913876.0834
        38.9004         36.6004
   1506588.12343   1186149.17846  25303868.430    25303866.8574   25303871.1854
        38.3004         36.0004
 -21498378.77047 -16726101.96248  20218284.959    20218284.7934   20218289.3814
        51.0004         48.2004
  -8894334.82345  -6907628.11447  22334752.757    22334751.2934   22334753.1694
        44.8004         42.1004
 16  6 12  1 51 30.0000000  0  7G 7G23G 6G 3G19G 9G 2
 -10399338.97345  -8063236.63946  22330249.983    22330249.5044   22330252.6704
        43.7004         41.1004
 -15882978.51346 -12362353.09147  21608055.957    21608055.3824   21608056.0154
        47.2004         44.4004
 -11519874.09346  -8965267.43647  20821756.117    20821757.0634   20821762.2644
        49.3004         46.5004
  -2916143.29043  -2248489.61246  23932008.767    23932008.0754   23932012.7324
        39.0004         36.7004
   1607238.93443   1264578.37246  25323022.524    25323021.8284   25323024.5594
        38.3004         36.2004
 -21479763.96947 -16711596.91848  20221826.929    20221826.9314   20221831.3434
        51.0004         48.2004
  -8955785.23345  -6955511.53447  22323058.659    22323058.4624   22323059.0874
        45.1004         42.5004
 16  6 12  1 52  0.0000000  0  7G 7G23G 6G 3G19G 9G 2
 -10487993.59645  -8132318.14446  22313379.833    22313379.3914   22313382.3784
        43.9004         41.2004
 -15821439.11046 -12314400.30947  21619766.123    21619765.8994   21619766.4304
        47.0004         44.0004
 -11485653.26846  -8938601.86747  20828268.390    20828269.0714   20828274.3484
        49.3004         46.6004
  -2820691.97943  -2174111.93946  23950170.317    23950171.2954   23950177.0634
        39.6004         37.4004
   1707904.23543   1343018.84045  25342178.232    25342177.4874   25342181.0824
        38.2004         35.7004
 -21460726.70247 -16696762.67448  20225449.451    20225449.7234   20225454.1814
        51.0004         48.2004
  -9016801.78645  -7003056.89947  22311448.276    22311447.7944   22311447.8924
        45.3004         42.5004
 16  6 12  1 52 30.0000000  0  7G 7G23G 6G 3G19G 9G 2
 -10576332.91445  -8201153.95046  22296569.621    22296569.8824   22296572.5594
        44.1004         41.4004
 -15759625.88446 -12266234.16447  21631528.430    21631528.4534   21631529.3744
        46.9004         44.0004
 -11450851.90546  -8911483.92847  20834891.431    20834891.6754   20834896.8304
        49.3004         46.5004
  -2725101.45343  -2099625.81346  23968363.654    23968361.5814   23968368.1854
        39.7004         37.3004
   1808581.22343   1421468.44545  25361337.253    25361336.4094   25361338.6114
        37.8004         35.7004
 -21441267.97247 -16681600.02248  20229152.637    20229152.7874   20229157.1564
        51.0004         48.2004
  -9077382.12445  -7050262.34947  22299920.033    22299919.8564   22299919.3304
        45.3004         42.5004
 16  6 12  1 53  0.0000000  0  8G 7G23G 6G30G 3G19G 9G 2
 -10664355.04245  -8269742.59946  22279820.060    22279819.5254   22279822.5924
        44.2004         41.8004
 -15697540.33846 -12217855.80947  21643343.273    21643342.7004   21643343.7834
        46.9004         44.0004
 -11415470.95546  -8883914.36447  20841623.948    20841624.1894   20841629.4704
        49.3004         46.5004
                    -77320.04653  24214042.134
                        22.5004
  -2629372.64743  -2025031.94146  23986578.659    23986578.0174   23986584.9944
        39.7004         37.3004
   1909266.96742   1499924.87945  25380497.223    25380495.6204   25380499.1044
        37.5004         35.2004
 -21421388.83847 -16666109.78348  20232935.608    20232935.6034   20232939.8704
        51.0004         48.2004
  -9137524.36845  -7097126.43347  22288475.115    22288474.7664   22288475.1004
        45.1004         42.3004
 16  6 12  1 53 30.0000000  0  8G 7G23G 6G30G 3G19G 9G 2
 -10752057.17245  -8338081.89946  22263129.828    22263130.1124   22263133.3554
        44.4004         41.4004
 -15635184.03646 -12169266.48647  21655210.409    21655209.2844   21655209.6664
        46.9004         44.2004
 -11379511.41846  -8855893.94747  20848466.354    20848467.2384   20848472.4734
        49.3004         46.5004
                   -165551.37644  24192494.723
                        29.1004
  -2533506.43143  -1950330.98446  24004817.195    24004820.3464   24004826.2824
        39.7004         37.3004
   2009958.21242   1578385.61145  25399657.529    25399656.4824   25399658.9034
        36.6004         34.1004
 -21401090.36847 -16650292.78448  20236798.198    20236798.2324   20236802.3974
        51.0004         48.2004
  -9197226.47845  -7143647.55247  22277114.246    22277114.0474   22277114.4844
        45.3004         42.3004
 16  6 12  1 54  0.0000000  0  7G 7G23G 6G 3G19G 9G 2
 -10839436.99545  -8406170.05646  22246501.563    22246502.1914   22246505.1014
        44.4004         41.6004
 -15572558.35446 -12120467.25547  21667126.959    21667126.2304   21667127.0634
        46.9004         44.0004
 -11342974.26246  -8827423.44747  20855419.129    20855419.8714   20855425.0814
        49.3004         46.5004
  -2437503.69943  -1875523.65046  24023086.379    24023088.1774   24023094.0934
        39.4004         36.7004
   2110652.31542   1656848.56045  25418820.526    25418819.4254   25418820.2284
        35.9004         34.1004
 -21380373.62647 -16634149.86248  20240740.595    20240740.1224   20240744.7734
        50.8004         48.0004
  -9256486.44645  -7189824.14447  22265837.174    22265836.3744   22265837.3724
        45.3004         42.5004
 16  6 12  1 54 30.0000000  0  8G 7G23G 6G30G 3G19G 9G 2
 -10926492.20345  -8474005.26846  22229936.722    22229935.5014   22229939.2284
        44.4004         41.6004
 -15509664.60846 -12071459.15247  21679094.852    21679094.3154   21679095.1094
        46.7004         44.0004
 -11305860.57346  -8798503.69547  20862481.874    20862482.2254   20862487.3734
        49.1004         46.3004
                    -69806.65743  24149438.128
                        23.4004
  -2341365.28143  -1800610.59146  24041385.364    24041383.7484   24041388.5634
        39.2004         36.7004
   2211346.19542   1735311.32545  25437980.269    25437979.1514   25437984.0054
        35.4004         33.6004
 -21359239.66747 -16617681.83948  20244762.207    20244762.2084   20244766.4914
        50.8004         48.2004
  -9315302.19445  -7235654.58447  22254645.640    22254644.5554   22254645.4134
        45.3004         42.5004
 16  6 12  1 55  0.0000000  0  8G 7G23G 6G30G 3G19G 9G 2
 -11013220.48745  -8541585.73346  22213430.948    22213432.1014   22213435.0774
        44.4004         41.6004
 -15446504.02946 -12022243.11347  21691115.176    21691114.0924   21691114.7034
        46.9004         44.0004
 -11268171.39146  -8769135.51347  20869653.372    20869654.0974   20869659.5724
        48.9004         46.1004
                   -157873.24845  24127933.232
                        34.6004
  -2245092.09443  -1725592.52646  24059705.074    24059705.0174   24059708.9124
        39.0004         36.7004
   2312036.95542   1813771.65445  25457142.224    25457139.1054   25457142.1234
        34.9004         33.1004
 -21337689.58647 -16600889.55648  20248862.907    20248863.0444   20248867.3614
        51.0004         48.2004
  -9373671.62645  -7281137.24247  22243538.053    22243538.2314   22243538.2984
        45.5004         42.6004
 16  6 12  1 55 30.0000000  0  8G 7G23G 6G30G 3G19G 9G 2
 -11099619.39345  -8608909.52746  22196991.643    22196991.2164   22196993.7974
        44.6004         41.8004
 -15383078.30246 -11972820.47147  21703183.712    21703183.5704   21703183.8854
        46.9004         44.0004
 -11229907.79946  -8739319.73747  20876934.556    20876935.4554   20876941.0394
        48.9004         46.1004
                   -245881.29645  24106438.940                    24106447.2944
                        35.3004
  -2148685.09743  -1650470.19546  24078048.219    24078050.1324   24078054.0634
        39.0004         36.7004
   2412721.55341   1892227.15045  25476299.562    25476301.1234   25476303.2244
        33.7004         32.4004
 -21315724.44847 -16583773.86148  20253042.773    20253042.9154   20253047.2014
        51.0004         48.2004
  -9431592.58945  -7326270.45247  22232516.270    22232515.5224   22232516.3194
        45.5004         42.6004
 16  6 12  1 56  0.0000000  0  9G16G 7G23G 6G30G 3G19G 9G 2
                     -3234.85453  24618117.306
                        23.4004
 -11185686.16145  -8675974.51346  22180612.785    22180612.7674   22180614.9814
        44.6004         41.8004
 -15319388.94346 -11923192.40347  21715303.482    21715303.3754   21715303.5064
        46.7004         43.9004
 -11191070.90346  -8709057.22347  20884325.653    20884325.8684   20884331.3044
        48.9004         46.1004
   -813444.15842   -333828.96645  24084960.969    24084960.0014   24084968.2994
        37.1004         35.5004
  -2052145.07843  -1575244.20346  24096419.807    24096419.3034   24096427.0434
        38.9004         36.4004
   2513397.24941   1970675.71945  25495458.134    25495460.1774   25495461.3954
        33.0004         32.0004
 -21293345.35647 -16566335.60048  20257301.700    20257301.5414   20257306.1354
        51.0004         48.2004
  -9489063.23845  -7371052.77647  22221579.729    22221579.2974   22221579.0974
        45.5004         42.6004
 16  6 12  1 56 30.0000000  0  9G16G 7G23G 6G30G 3G19G 9G 2
                    -45782.01445  24607730.120
                        30.8004
 -11271418.93445  -8742779.27046  22164297.831    22164299.3224   22164300.8584
        44.8004         41.9004
 -15255436.94146 -11873359.67947  21727472.904    21727472.5984   21727473.3274
        46.7004         43.9004
 -11151661.81946  -8678348.85747  20891825.266    20891825.5234   20891830.8554
        48.9004         46.1004
   -926230.20343   -421714.11045  24063502.920    24063499.9964   24063505.3104
        37.6004         35.9004
  -1955472.93543  -1499915.26346  24114816.293    24114816.9464   24114823.5294
        39.0004         36.6004
   2614060.96151   2049114.99155  25514611.844    25514609.4834
        32.3004         31.3004
 -21270553.38647 -16548575.62048  20261638.772    20261638.8554   20261642.9964
        51.0004         48.2004
  -9546081.60845  -7415482.66947  22210729.496    22210729.0514   22210729.4574
        45.5004         42.8004
 16  6 12  1 57  0.0000000  0  9G16G 7G23G 6G30G 3G19G 9G 2
                    -87974.49245  24597425.627
                        31.7004
 -11356814.90645  -8809321.56347  22148048.473    22148048.9994   22148051.1194
        44.8004         42.1004
 -15191223.69546 -11823323.37847  21739692.930    21739691.9224   21739692.4884
        46.7004         43.9004
 -11111681.70446  -8647195.52247  20899432.757    20899433.3244   20899438.4704
        48.9004         45.9004
  -1038933.41853   -509534.71956  24042057.447    24042055.8044   24042056.9854
        38.2004         36.0004
  -1858669.67243  -1424484.14946  24133235.102    24133237.2664   24133244.1834
        39.2004         36.9004
   2714710.0215    2127542.85655  25533763.646    25533759.7044
        31.0004         30.8004
 -21247349.67647 -16530494.80148  20266053.963    20266053.9084   20266058.5234
        51.0004         48.2004
  -9602645.58645  -7459558.48747  22199966.031    22199965.1864   22199965.3454
        45.6004         43.0004
 16  6 12  1 57 30.0000000  0  9G16G 7G23G 6G30G 3G19G 9G 2
                   -129809.57845  24587208.557                    24587204.7084
                        32.7004
 -11441871.83245  -8875599.68846  22131861.042    22131861.9024   22131864.4154
        44.8004         41.9004
 -15126750.80346 -11773084.76347  21751960.508    21751959.8454   21751961.5414
        46.7004         43.7004
 -11071131.71546  -8615598.13947  20907149.420    20907149.9124   20907154.6164
        48.8004         45.8004
  -1151551.21343   -597288.76746  24020623.702    24020623.4254   24020627.5114
        38.3004         36.0004
  -1761736.11243  -1348951.51046  24151685.680    24151683.6244   24151690.0024
        39.4004         37.1004
                   2205956.55555  25552916.159
                        30.8004
 -21223735.29947 -16512093.98448  20270547.392    20270547.5534   20270552.4044
        51.0004         48.2004
  -9658753.20745  -7503278.70147  22189288.786    22189288.2364   22189288.9854
        46.0004         43.2004
 16  6 12  1 58  0.0000000  0  9G16G 7G23G 6G30G 3G19G 9G 2
   -230824.23442   -171285.40745  24577078.928    24577078.6714   24577080.7324
        34.7004         34.0004
 -11526587.33145  -8941611.74546  22115740.630    22115742.0024   22115743.8264
        44.8004         41.9004
 -15062019.75846 -11722644.99747  21764278.624    21764278.5314   21764279.6054
        46.5004         43.7004
 -11030013.05546  -8583557.62547  20914974.200    20914974.6574   20914979.3284
        48.8004         45.9004
  -1264081.03743   -684974.25946  23999207.136    23999208.1404   23999213.5714
        38.5004         36.2004
  -1664673.14643  -1273318.02346  24170153.269    24170153.6964   24170159.9184
        39.4004         36.9004
                     34665.44753  25572065.674
                        23.4004
 -21199711.37547 -16493374.03948  20275119.230    20275119.2504   20275123.5654
        50.8004         48.2004
  -9714402.61445  -7546641.86947  22178699.417    22178698.8064   22178699.0754
        46.2004         43.2004
 16  6 12  1 58 30.0000000  0  9G16G 7G23G 6G30G 3G19G 9G 2
   -283588.38942   -212400.32445  24567034.630    24567037.1934   24567040.9044
        35.4004         33.6004
 -11610959.17945  -9007356.01647  22099685.526    22099685.5474   22099688.6834
        44.9004         42.3004
 -14997031.56546 -11672004.85147  21776645.582    21776645.7254   21776646.7054
        46.5004         43.7004
 -10988326.91946  -8551074.91647  20922906.587    20922907.1124   20922912.2974
        48.8004         45.8004
  -1376520.35843   -772589.23846  23977809.071    23977810.2934   23977816.0174
        38.5004         36.2004
  -1567481.67443  -1197584.40246  24188650.351    24188649.3574   24188655.5584
        39.4004         36.9004
                    112992.29754  25591205.222
                        29.1004
 -21175279.02447 -16474335.83848  20279769.035    20279768.6874   20279773.3284
        51.0004         48.2004
  -9769591.80445  -7589646.42247  22168196.579    22168196.3964   22168196.5144
        46.0004         43.0004
 16  6 12  1 59  0.0000000  0  9G16G 7G23G 6G30G 3G19G 9G 2
   -335887.09152   -253152.54555  24557081.809    24557084.6974   24557089.2584
        35.4004         33.8004
 -11694985.03345  -9072830.69147  22083695.097    22083696.4794   22083698.9704
        45.1004         42.3004
 -14931787.94546 -11621165.66947  21789061.666    21789061.3564   21789061.7504
        46.5004         43.7004
 -10946074.53746  -8518150.98847  20930946.588    20930947.1864   20930952.3744
        48.6004         45.8004
  -1488866.45343   -860131.58046  23956432.178    23956432.5264   23956436.9894
        38.5004         36.2004
  -1470162.61843  -1121751.38346  24207168.828    24207167.4584   24207173.2904
        39.0004         36.6004
                    191263.42555  25610341.314
                        30.1004
 -21150439.35947 -16454980.25248  20284495.539    20284495.4524   20284500.1264
        51.0004         48.2004
  -9824318.68545  -7632290.75147  22157782.801    22157782.1874   22157782.6524
        45.8004         42.8004
 16  6 12  1 59 30.0000000  0  8G16G 7G23G 6G30G 3G 9G 2
   -387717.55642   -293539.87345  24547222.285    24547220.2854   24547226.3394
        35.2004         33.8004
 -11778662.04745  -9138033.53647  22067772.059    22067773.0504   22067775.6614
        45.1004         42.5004
 -14866290.15446 -11570128.43947  21801524.825    21801524.6334   21801525.6544
        46.5004         43.7004
 -10903257.16046  -8484786.81347  20939094.620    20939095.1064   20939100.3964
        48.6004         45.8004
  -1601116.87943   -947599.37746  23935071.925    23935071.6624   23935075.7434
        38.3004         36.0004
  -1372716.87243  -1045819.66346  24225712.692    24225711.4254   24225715.8154
        38.9004         36.6004
 -21125193.52647 -16435308.17348  20289299.555    20289299.6454   20289303.9904
        50.8004         48.0004
  -9878581.44945  -7674573.41447  22147456.550    22147456.4584   22147456.6464
        45.8004         43.2004
 16  6 12  2  0  0.0000000  0  8G16G 7G23G 6G30G 3G 9G 2
   -439077.26042   -333560.39845  24537445.251    24537448.8114   24537450.6534
        35.2004         33.6004
 -11861988.18545  -9202962.98347  22051916.130    22051916.3234   22051919.9004
        45.3004         42.5004
 -14800539.48545 -11518894.15247  21814037.187    21814036.5514   21814036.8424
        46.3004         43.5004
 -10859876.09646  -8450983.39047  20947349.550    20947350.1154   20947355.8244
        48.6004         45.8004
  -1713268.98543  -1034990.57746  23913730.242    23913729.2664   23913734.6224
        38.3004         36.2004
  -1275145.38143   -969789.92946  24244274.510    24244278.2284   24244283.0514
        38.7004         36.4004
 -21099542.65647 -16415320.47848  20294180.774    20294180.7234   20294185.1684
        50.8004         48.0004
  -9932378.11245  -7716492.89047  22137219.458    22137218.9524   22137219.8034
        45.8004         43.0004
 16  6 12  2  0 30.0000000  0  8G16G 7G23G 6G30G 3G 9G 2
   -489963.51042   -373212.00945  24527769.413    24527764.1934   24527769.9844
        35.0004         33.6004
 -11944961.53045  -9267617.52647  22036126.473    22036127.1394   22036130.2454
        45.3004         42.6004
 -14734537.51545 -11467464.06147  21826597.116    21826596.6664   21826596.9234
        46.3004         43.3004
 -10815932.63446  -8416741.73947  20955711.756    20955712.4354   20955718.3114
        48.6004         45.8004
  -1825320.19643  -1122303.14946  23892407.584    23892407.6444   23892412.9424
        38.5004         36.2004
  -1177449.00843   -893662.87145  24262872.182    24262867.9294   24262875.6124
        38.3004         35.9004
 -21073487.86447 -16395018.03448  20299139.063    20299138.8784   20299143.5824
        50.8004         48.2004
  -9985706.78245  -7758047.68947  22127071.025    22127070.5724   22127071.3604
        45.8004         43.0004
 16  6 12  2  1  0.0000000  0  8G16G 7G23G 6G30G 3G 9G 2
   -540373.70542   -412492.69245  24518172.187    24518171.7434   24518174.7644
        35.2004         33.6004
 -12027579.47245  -9331995.11347  22020405.076    22020405.6464   22020408.0724
        45.5004         42.6004
 -14668285.66845 -11415839.24347  21839204.505    21839203.8694   21839204.6474
        46.2004         43.3004
 -10771428.08646  -8382062.87847  20964180.738    20964181.3484   20964186.8634
        48.6004         45.9004
  -1937267.91643  -1209535.06346  23871104.188    23871102.9174   23871108.6074
        38.5004         36.4004
  -1079628.69243   -817439.27045  24281486.067    24281482.3174   24281490.2864
        38.0004         35.9004
 -21047030.31147 -16374401.75748  20304173.791    20304173.6774   20304178.1184
        51.0004         48.2004
 -10038565.51445  -7799236.30447  22117012.704    22117012.0714   22117012.8034
        45.8004         43.2004
 16  6 12  2  1 30.0000000  0  8G16G 7G23G 6G30G 3G 9G 2
   -590305.92442   -451400.88945  24508670.898    24508670.3464   24508672.7504
        35.2004         33.6004
 -12109839.68645  -9396093.95747  22004751.774    22004752.2394   22004754.9024
        45.5004         42.8004
 -14601785.24345 -11364020.73247  21851858.957    21851858.1334   21851858.5394
        46.2004         43.2004
 -10726363.79846  -8346947.85847  20972756.361    20972757.1434   20972762.4634
        48.8004         45.9004
  -2049109.55743  -1296684.35946  23849820.447    23849820.1654   23849827.1774
        38.5004         36.2004
   -981685.36743   -741119.76445  24300114.763    24300119.7084   24300127.2674
        37.8004         35.9004
 -21020171.15247 -16353472.53848  20309284.591    20309284.5744   20309289.0354
        51.0004         48.2004
 -10090952.24645  -7840057.12547  22107043.570    22107042.9594   22107043.5924
        46.0004         43.2004
 16  6 12  2  2  0.0000000  0  8G16G 7G23G 6G30G 3G 9G 2
   -639757.22342   -489934.27145  24499262.199    24499260.2704   24499261.2454
        35.6004         34.0004
 -12191739.72445  -9459912.17047  21989165.821    21989166.2794   21989169.3344
        45.5004         42.6004
 -14535037.66545 -11312009.65447  21864560.476    21864560.1624   21864560.2974
        46.2004         43.2004
 -10680741.13046  -8311397.73947  20981438.355    20981438.7004   20981443.6724
        48.8004         45.9004
  -2160842.55843  -1383748.98846  23828560.593    23828559.7994   23828565.2394
        38.7004         36.6004
   -883619.86443   -664705.06245  24318781.178    24318782.0264   24318789.8054
        38.0004         35.9004
 -20992911.55147 -16332231.28048  20314471.841    20314472.1134   20314476.5734
        51.0004         48.2004
 -10142865.37345  -7880508.90347  22097165.047    22097164.3134   22097165.6524
        45.8004         43.0004
 16  6 12  2  2 30.0000000  0  8G16G 7G23G 6G30G 3G 9G 2
   -688725.37942   -528091.25145  24489943.618    24489941.6754   24489944.7114
        35.7004         34.1004
 -12273277.65845  -9523448.19947  21973649.213    21973650.0554   21973653.4944
        45.6004         42.8004
 -14468043.95545 -11259806.76747  21877308.582    21877308.0124   21877309.0984
        46.0004         43.2004
 -10634561.44046  -8275413.57747  20990225.774    20990226.5244   20990231.4484
        48.8004         45.9004
  -2272464.25043  -1470726.89246  23807319.146    23807317.5554   23807324.3734
        38.9004         36.6004
   -785433.21743   -588196.00445  24337468.903    24337466.6534   24337473.7044
        38.0004         35.7004
 -20965252.65047 -16310678.88248  20319735.190    20319735.4924   20319740.0354
        51.0004         48.4004
 -10194302.97345  -7920590.14747  22087376.734    22087376.1994   22087377.0434
        46.0004         43.0004
 16  6 12  2  3  0.0000000  0  8G16G 7G23G 6G30G 3G 9G 2
   -737207.96742   -565869.84345  24480717.322    24480717.0144   24480720.7334
        36.1004         34.5004
 -12354450.96045  -9586700.11647  21958203.227    21958203.5064   21958206.7744
        45.8004         43.0004
 -14400805.67445 -11207413.31047  21890103.886    21890103.5924   21890103.5644
        46.0004         43.2004
 -10587826.17646  -8238996.49347  20999119.836    20999119.8984   20999125.4374
        48.9004         46.1004
  -2383972.17043  -1557616.12746  23786099.512    23786098.9854   23786105.2054
        39.0004         36.7004
   -687126.24843   -511593.19245  24356178.523    24356174.1844   24356178.9404
        37.6004         35.2004
 -20937195.61247 -16288816.25648  20325074.570    20325074.6134   20325078.9784
        51.0004         48.2004
 -10245263.28245  -7960299.47647  22077679.581    22077679.1474   22077679.3024
        45.8004         43.0004
 16  6 12  2  3 30.0000000  0  8G16G 7G23G 6G30G 3G 9G 2
   -785202.53042   -603268.20545  24471582.821    24471581.4474   24471587.0044
        36.1004         34.3004
 -12435257.56545  -9649666.27047  21942827.413    21942827.3164   21942830.0164
        46.0004         43.3004
 -14333324.27545 -11154830.40847  21902944.689    21902944.1664   21902945.1944
        46.0004         43.0004
 -10540536.73646  -8202147.58147  21008118.385    21008118.7774   21008124.0034
        48.9004         45.9004
  -2495363.63243  -1644414.62646  23764900.616    23764900.9584   23764907.6324
        39.0004         36.7004
   -588699.96842   -434897.38945  24374900.901    24374903.6234   24374910.0184
        37.5004         35.3004
 -20908741.61847 -16266644.30748  20330489.271    20330489.1364   20330493.5734
        51.0004         48.2004
 -10295744.24945  -7999635.28047  22068072.749    22068072.2464   22068073.1804
        45.8004         43.0004
 16  6 12  2  4  0.0000000  0  8G16G 7G23G 6G30G 3G 9G 2
   -832706.52142   -640284.28845  24462547.208    24462544.4084   24462545.0484
        36.8004         35.0004
 -12515694.80745  -9712344.62547  21927520.953    21927520.6634   21927523.8224
        46.2004         43.3004
 -14265601.15745 -11102059.15047  21915832.644    21915831.9074   21915832.8894
        45.8004         43.0004
 -10492694.58446  -8164867.98747  21017222.213    21017222.6924   21017227.8504
        48.8004         45.8004
  -2606636.01543  -1731120.32446  23743725.925    23743726.5574   23743733.9974
        39.2004         37.1004
   -490155.27042   -358109.27345  24393650.493    24393652.6024   24393661.7704
        37.3004         35.2004
 -20879891.84247 -16244163.95748  20335979.210    20335979.1984   20335983.2224
        51.0004         48.2004
 -10345744.10845  -8038596.21247  22058558.367    22058557.7064   22058558.2764
        45.6004         42.6004
 16  6 12  2  4 30.0000000  0  8G16G 7G23G 6G30G 3G 9G 2
   -879717.59742   -676916.24145  24453595.011    24453597.6644   24453601.2204
        37.0004         35.0004
 -12595760.65945  -9774733.58147  21912283.549    21912284.2124   21912287.5454
        46.2004         43.3004
 -14197637.70545 -11049100.63147  21928765.254    21928765.3984   21928765.6324
        45.8004         43.2004
 -10444301.16746  -8127158.84547  21026431.238    21026431.6684   21026436.9714
        48.6004         45.8004
  -2717786.75843  -1817731.26046  23722574.893    23722574.8134   23722581.8214
        39.4004         37.1004
   -391493.11442   -281229.69145  24412425.335    24412429.8984   24412437.1514
        37.3004         35.3004
 -20850647.43447 -16221376.10448  20341544.080    20341544.2534   20341548.4544
        51.0004         48.2004
 -10395260.95945  -8077180.76847  22049136.303    22049135.5824   22049135.5344
        45.5004         42.5004
 16  6 12  2  5  0.0000000  0  8G16G 7G23G 6G30G 3G 9G 2
   -926233.57142   -713162.42045  24444748.646    24444744.7204   24444750.0754
        36.6004         34.6004
 -12675453.19745  -9836831.65147  21897118.766    21897119.3714   21897122.2774
        46.2004         43.3004
 -14129434.93045 -10995955.62147  21941743.393    21941743.4994   21941744.8464
        46.0004         43.0004
 -10395357.94946  -8089021.28547  21035744.951    21035745.0174   21035751.2634
        48.6004         45.8004
  -2828813.25043  -1904245.37046  23701449.331    23701448.4444   23701454.6994
        39.6004         37.3004
   -292714.30742   -204259.17645  24431227.229    24431227.1284   24431234.8334
        37.3004         35.2004
 -20821009.59447 -16198281.67748  20347184.237    20347184.1434   20347188.3384
        51.0004         48.2004
 -10444293.14745  -8115387.64647  22039805.416    22039804.7494   22039805.3984
        45.1004         42.5004
 16  6 12  2  5 30.0000000  0  8G16G 7G23G 6G30G 3G 9G 2
   -972252.07842   -749020.90945  24435991.879    24435988.1774   24435992.7394
        36.4004         34.5004
 -12754769.94145  -9898636.88447  21882025.238    21882025.2634   21882028.5114
        46.0004         43.2004
 -14060994.31645 -10942625.29347  21954767.972    21954767.7954   21954767.7374
        46.0004         43.2004
 -10345866.49146  -8050456.51547  21045162.395    21045162.8504   21045168.7514
        48.4004         45.6004
  -2939712.93543  -1990660.66946  23680346.125    23680345.0934   23680351.9694
        39.7004         37.3004
   -193819.90942   -127198.64645  24450052.489    24450048.2884   24450052.9214
        37.5004         35.3004
 -20790979.51747 -16174881.60948  20352898.146    20352898.2464   20352902.6234
        50.8004         48.0004
 -10492839.02145  -8153215.58947  22030567.432    22030566.8254   22030567.3514
        45.3004         42.5004
 16  6 12  2  6  0.0000000  0  8G16G 7G23G 6G30G 3G 9G 2
  -1017770.50242   -784489.75545  24427324.490    24427328.0574   24427331.7234
        36.1004         34.1004
 -12833708.69445  -9960147.58247  21867003.623    21867003.8914   21867007.1184
        46.0004         43.2004
 -13992317.54745 -10889110.93747  21967836.214    21967835.8194   21967837.1624
        45.8004         42.8004
 -10295828.28346  -8011465.71247  21054684.425    21054684.6694   21054690.3854
        48.4004         45.6004
  -3050483.15743  -2076975.10646  23659265.295    23659265.5564   23659273.3144
        39.7004         37.3004
    -94810.87743    -50048.74445  24468886.045    24468887.0814   24468893.0314
        37.6004         35.7004
 -20760558.36847 -16151176.81448  20358687.005    20358686.9064   20358691.7714
        50.8004         48.0004
 -10540896.61345  -8190663.04947  22021422.233    22021422.0694   22021422.3644
        45.1004         42.3004
 16  6 12  2  6 30.0000000  0  8G16G 7G23G 6G30G 3G 9G 2
  -1062787.04742   -819567.55845  24418761.754    24418760.1564   24418763.2094
        35.7004         34.0004
 -12912266.79845 -10021361.68447  21852055.627    21852055.2474   21852057.0694
        46.0004         43.2004
 -13923405.61145 -10835413.32747  21980950.600    21980950.1494   21980949.9614
        45.8004         42.8004
 -10245244.87046  -7972050.07547  21064311.015    21064311.4034   21064315.7844
        48.4004         45.6004
  -3161121.36043  -2163186.67746  23638209.770    23638211.9894   23638218.0764
        39.6004         37.3004
      4311.93443     27189.84345  24487746.848    24487750.4094   24487756.5054
        37.8004         35.7004
 -20729747.38647 -16127168.25848  20364550.597    20364550.4264   20364555.1714
        50.8004         48.0004
 -10588464.00145  -8227728.53947  22012369.798    22012369.2954   22012370.2974
        44.9004         42.1004
 16  6 12  2  7  0.0000000  0  8G16G 7G23G 6G30G 3G 9G 2
  -1107298.94342   -854252.14645  24410289.513    24410289.6954   24410292.8674
        35.4004         33.6004
 -12990442.24545 -10082277.58947  21837179.004    21837179.3104   21837180.8844
        46.0004         43.2004
 -13854259.96045 -10781533.60247  21994107.501    21994107.9094   21994108.1314
        45.8004         43.0004
 -10194117.83446  -7932210.83447  21074039.647    21074040.0224   21074045.2364
        48.4004         45.6004
  -3271624.92543  -2249293.32746  23617184.107    23617184.2084   23617189.0684
        39.6004         37.1004
    103547.59443    104516.34645  24506632.346    24506634.0434   24506639.8454
        37.8004         35.7004
 -20698547.73447 -16102856.83648  20370487.278    20370487.3284   20370492.2874
        50.8004         48.0004
 -10635539.73945  -8264410.92647  22003411.847    22003411.6874   22003412.0074
        44.9004         42.3004
 16  6 12  2  7 30.0000000  0  8G16G 7G23G 6G30G 3G 9G 2
  -1151304.18942   -888541.94445  24401916.877    24401917.3674   24401919.8394
        35.6004         34.0004
 -13068233.03145 -10142893.77647  21822376.318    21822376.1674   21822378.2854
        46.0004         43.2004
 -13784882.07445 -10727472.92047  22007311.175    22007310.0494   22007310.3354
        45.8004         43.0004
 -10142448.76646  -7891949.23347  21083871.564    21083872.0354   21083877.6834
        48.2004         45.4004
  -3381991.25543  -2335293.03446  23596181.840    23596181.7044   23596188.2384
        39.7004         37.3004
    202895.14243    181930.01245  24525542.592    24525539.2714   24525547.4264
        37.6004         35.7004
 -20666960.62847 -16078243.49847  20376497.950    20376498.2004   20376502.8904
        50.7004         47.8004
 -10682121.86745  -8300708.67547  21994547.681    21994547.5904   21994548.5374
        45.1004         42.6004
 16  6 12  2  8  0.0000000  0  8G16G 7G23G 6G30G 3G 9G 2
  -1194800.33242   -922435.00645  24393641.170    24393641.9794   24393641.3424
        35.6004         34.1004
 -13145637.50445 -10203208.93047  21807645.831    21807646.1504   21807648.4504
        46.0004         43.2004
 -13715273.19745 -10673232.24947  22020556.454    22020555.8074   22020556.4274
        45.8004         43.0004
 -10090239.24646  -7851266.50647  21093806.700    21093807.2564   21093812.5374
        48.2004         45.4004
  -3492217.71643  -2421183.76846  23575205.688    23575206.8694   23575212.9164
        39.7004         37.4004
    302353.68643    259430.14945  24544470.997    24544467.2054   24544473.3444
        37.6004         35.5004
 -20634987.29247 -16053329.21347  20382582.475    20382582.3624   20382587.2624
        50.7004         47.8004
 -10728208.77245  -8336620.54347  21985777.987    21985777.4844   21985777.7264
        45.5004         42.6004
 16  6 12  2  8 30.0000000  0  8G16G 7G23G 6G30G 3G 9G 2
  -1237785.49942   -955929.88645  24385464.153    24385460.7524   24385461.7924
        35.6004         34.0004
 -13222652.50145 -10263220.59647  21792989.506    21792990.8114   21792992.4404
        46.0004         43.2004
 -13645434.69745 -10618812.64747  22033846.308    22033846.1364   22033846.7884
        45.8004         43.0004
 -10037490.94546  -7810163.93647  21103844.509    21103844.9724   21103850.3754
        48.2004         45.4004
  -3602301.76143  -2506963.51946  23554259.416    23554258.6494   23554264.2944
        39.9004         37.6004
    401922.10943    337015.98445  24563403.423    24563412.7244   24563419.0524
        37.6004         35.5004
 -20602628.89247 -16028114.87747  20388739.926    20388739.9844   20388745.1254
        50.7004         47.8004
 -10773798.39145  -8372144.91147  21977102.910    21977102.0974   21977102.4464
        45.5004         42.8004
 16  6 12  2  9  0.0000000  0  8G16G 7G23G 6G30G 3G 9G 2
  -1280257.31742   -989024.72845  24377378.690    24377376.9824   24377381.8944
        35.7004         34.0004
 -13299276.26345 -10322927.39847  21778408.592    21778409.6254   21778412.2504
        46.0004         43.2004
 -13575367.69045 -10564214.98747  22047180.576    22047179.9204   22047179.8554
        45.6004         42.8004
  -9984205.48446  -7768642.80147  21113984.905    21113984.8174   21113990.3864
        48.2004         45.4004
  -3712240.73043  -2592630.20746  23533338.406    23533338.3274   23533342.6674
        40.1004         37.6004
    501599.64142    414686.88345  24582378.253    24582380.3084   24582388.5434
        37.3004         35.2004
 -20569886.69547 -16002601.46847  20394970.831    20394970.9914   20394975.3224
        50.7004         47.8004
 -10818889.50245  -8407280.84347  21968521.912    21968521.6104   21968522.0614
        45.6004         43.0004
 16  6 12  2  9 30.0000000  0  8G16G 7G23G 6G30G 3G 9G 2
  -1322213.53542  -1021717.90445  24369390.518    24369390.0944   24369397.0444
        35.6004         33.8004
 -13375506.74345 -10382327.74247  21763903.860    21763903.7764   21763906.3164
        46.0004         43.3004
 -13505073.74945 -10509440.50147  22060556.134    22060556.1044   22060556.5174
        45.6004         42.8004
  -9930384.49846  -7726704.37847  21124225.945    21124226.3214   21124232.1494
        48.1004         45.2004
  -3822032.06943  -2678181.88346  23512445.614    23512446.0794   23512449.7324
        40.1004         37.6004
    601385.33342    492441.93645  24601369.547    24601369.8634   24601374.5734
        37.3004         35.2004
 -20536761.86847 -15976789.91647  20401274.432    20401274.5944   20401278.6914
        50.7004         47.8004
 -10863480.50045  -8442027.06647  21960036.730    21960035.7674   21960036.2984
        45.6004         42.8004
 16  6 12  2 10  0.0000000  0  8G16G 7G23G 6G30G 3G 9G 2
  -1363651.86742  -1054007.47845  24361504.880    24361507.9564   24361510.5414
        35.6004         33.8004
 -13451342.04245 -10441420.15647  21749472.268    21749472.8264   21749475.7284
        46.2004         43.3004
 -13434554.13645 -10454490.14847  22073977.110    22073975.7694   22073975.9154
        45.6004         42.6004
  -9876029.69946  -7684350.00247  21134569.364    21134570.1844   21134575.3744
        48.1004         45.2004
  -3931673.15343  -2763616.44246  23491581.425    23491581.0524   23491585.2864
        40.1004         37.6004
    701278.09042    570280.44645  24620380.408    24620377.9324   24620383.2164
        37.1004         35.2004
 -20503255.65947 -15950681.17647  20407649.927    20407650.2404   20407654.7884
        50.7004         47.8004
 -10907569.51445  -8476382.13547  21951646.672    21951645.7354   21951646.0764
        45.6004         42.8004
 16  6 12  2 10 30.0000000  0  8G16G 7G23G 6G30G 3G 9G 2
  -1404570.27542  -1085891.90445  24353719.181    24353719.5134   24353721.1844
        35.4004         33.6004
 -13526779.37945 -10500202.47847  21735116.695    21735117.6164   21735120.2474
        46.3004         43.5004
 -13363810.12145 -10399364.96047  22087438.180    22087437.7784   22087438.2324
        45.6004         42.8004
  -9821142.80246  -7641581.00147  21145014.109    21145014.8004   21145019.7774
        47.9004         45.1004
  -4041161.36343  -2848931.90246  23470745.453    23470745.6074   23470751.1344
        40.1004         37.6004
    801277.02442    648201.70045  24639410.430    24639408.3804   24639413.3924
        37.1004         35.2004
 -20469369.29847 -15924276.21747  20414098.771    20414098.6944   20414103.5284
        50.7004         47.8004
 -10951154.83745  -8510344.73247  21943352.067    21943352.3614   21943353.0504
        45.5004         42.6004
 16  6 12  2 11  0.0000000  0  8G16G 7G23G 6G30G 3G 9G 2
  -1444966.63842  -1117369.58045  24346033.369    24346033.1014   24346037.5544
        35.4004         33.8004
 -13601817.18845 -10558673.47747  21720837.781    21720838.1684   21720840.2954
        46.3004         43.3004
 -13292843.22745 -10344066.08747  22100943.170    22100942.7654   22100942.4104
        45.6004         42.6004
  -9765725.51446  -7598398.70347  21155559.988    21155560.4894   21155565.1734
        47.9004         45.1004
  -4150494.12043  -2934126.24646  23449940.489    23449940.8614   23449946.0024
        40.3004         37.9004
    901381.14342    726204.93645  24658454.518    24658457.8794   24658461.0784
        37.1004         35.2004
 -20435104.00947 -15897575.99047  20420618.787    20420619.0674   20420623.7284
        50.7004         47.8004
 -10994235.22645  -8543913.86847  21935154.351    21935153.9634   21935154.6144
        45.5004         42.6004
 16  6 12  2 11 30.0000000  0  8G16G 7G23G 6G30G 3G 9G 2
  -1484838.88342  -1148438.83145  24338448.843    24338444.1144   24338447.3484
        35.6004         33.8004
 -13676452.90845 -10616831.17047  21706634.963    21706635.1874   21706637.1524
        46.3004         43.3004
 -13221654.56045 -10288594.41447  22114489.036    22114488.9584   22114489.8744
        45.6004         42.8004
  -9709779.58746  -7554804.48347  21166206.977    21166207.1754   21166211.6984
        48.1004         45.2004
  -4259668.83643  -3019197.39846  23429164.342    23429164.6344   23429170.0604
        40.1004         37.6004
   1001589.54643    804289.44045  24677525.502    24677526.9524   24677533.3314
        37.6004         35.7004
 -20400461.01547 -15870581.44148  20427211.630    20427211.6974   20427216.0914
        50.7004         48.0004
 -11036808.42845  -8577087.80147  21927052.903    21927052.1204   21927054.1624
        45.6004         42.8004
 16  6 12  2 12  0.0000000  0  8G16G 7G23G 6G30G 3G 9G 2
  -1524185.07042  -1179098.20145  24330959.882    24330959.7424   24330962.7334
        36.1004         34.3004
 -13750684.63945 -10674674.05747  21692508.680    21692509.0904   21692511.6564
        46.2004         43.5004
 -13150245.43245 -10232950.93947  22128077.592    22128077.1854   22128078.2584
        45.5004         42.6004
  -9653306.76746  -7510799.68747  21176952.525    21176953.0944   21176958.5944
        48.1004         45.4004
  -4368682.89843  -3104143.39746  23408419.787    23408419.8744   23408424.3144
        40.3004         37.9004
   1101901.30043    882454.43145  24696614.821    24696614.8154   24696621.6314
        37.6004         35.5004
 -20365441.56847 -15843293.56148  20433875.654    20433875.3344   20433880.0184
        50.7004         48.0004
 -11078873.06745  -8609865.43447  21919047.872    21919047.2394   21919049.1114
        45.5004         42.6004
 16  6 12  2 12 30.0000000  0  8G16G 7G23G 6G30G 3G 9G 2
  -1563002.69342  -1209345.66445  24323573.186    24323572.4174   24323575.7134
        36.4004         34.6004
 -13824510.58945 -10732200.75347  21678459.688    21678460.1674   21678462.9134
        46.3004         43.3004
 -13078617.24045 -10177136.78547  22141707.242    22141707.4084   22141709.3054
        45.5004         42.6004
  -9596308.84846  -7466385.72947  21187798.814    21187799.3544   21187804.4974
        48.2004         45.2004
  -4477533.69843  -3188962.17546  23387705.789    23387706.1454   23387711.5794
        40.4004         37.9004
   1202315.22943    960699.09345  24715722.533    24715723.6794   24715728.2904
        37.6004         35.3004
 -20330046.87147 -15815713.27648  20440610.820    20440611.0904   20440615.3854
        50.7004         48.0004
 -11120427.47845  -8642245.49747  21911140.501    21911139.7364   21911141.3954
        45.5004         42.6004
 16  6 12  2 13  0.0000000  0  8G16G 7G23G 6G30G 3G 9G 2
  -1601289.89342  -1239179.84045  24316290.648    24316287.7674   24316290.2704
        36.3004         34.3004
 -13897928.37145 -10789409.38547  21664489.860    21664489.2244   21664492.2394
        46.3004         43.5004
 -13006771.24345 -10121152.89947  22155379.746    22155379.6224   22155381.0444
        45.3004         42.5004
  -9538787.59746  -7421563.97847  21198744.897    21198745.4494   21198750.4244
        48.1004         45.2004
  -4586218.60443  -3273651.70646  23367025.932    23367025.8094   23367029.5624
        40.4004         38.1004
   1302830.67042   1039022.82845  24734852.942    24734850.5144   24734857.3024
        37.5004         35.3004
 -20294278.22247 -15787841.59747  20447417.718    20447417.7764   20447421.7294
        50.7004         47.8004
 -11161470.35945  -8674226.96547  21903330.734    21903330.3064   21903331.0834
        45.5004         43.0004
 16  6 12  2 13 30.0000000  0  8G16G 7G23G 6G30G 3G 9G 2
  -1639044.78242  -1268599.25145  24309103.190    24309101.9024   24309104.1964
        36.1004         34.0004
 -13970935.90645 -10846298.35247  21650596.376    21650596.6564   21650599.3714
        46.3004         43.7004
 -12934708.65445 -10065000.23347  22169091.526    22169092.2474   22169094.2784
        45.3004         42.5004
  -9480744.86046  -7376335.88447  21209790.446    21209790.8944   21209795.6734
        48.1004         45.2004
  -4694735.06244  -3358209.95246  23346375.717    23346375.3944   23346379.8304
        40.6004         38.3004
   1403446.50342   1117424.74745  24753998.532    24753997.0954   24754003.0704
        37.3004         35.3004
 -20258136.83547 -15759679.47448  20454295.267    20454295.3364   20454299.4324
        50.8004         48.0004
 -11202000.20345  -8705808.67347  21895618.288    21895618.1304   21895618.6984
        45.8004         43.2004
 16  6 12  2 14  0.0000000  0  8G16G 7G23G 6G30G 3G 9G 2
  -1676265.14542  -1297602.11445  24302019.460    24302019.9494   24302021.9184
        35.9004         34.1004
 -14043531.17646 -10902866.06047  21636782.718    21636782.2484   21636785.2844
        46.5004         43.7004
 -12862430.94145 -10008679.96147  22182846.742    22182846.2534   22182847.6354
        45.3004         42.5004
  -9422182.47446  -7330702.86147  21220933.728    21220934.0894   21220939.9274
        48.1004         45.1004
  -4803080.44644  -3442634.90646  23325759.334    23325758.2974   23325762.6394
        40.8004         38.3004
   1504161.80042   1195904.26945  24773160.473    24773162.1834   24773167.8544
        37.1004         35.2004
 -20221623.93547 -15731227.85448  20461243.688    20461243.2874   20461247.9134
        50.8004         48.0004
 -11242015.12645  -8736989.12247  21888003.259    21888002.7914   21888004.1494
        46.0004         43.3004
 16  6 12  2 14 30.0000000  0  9G16G26G 7G23G 6G30G 3G 9G 2
  -1712949.37442  -1326187.17845  24295036.405    24295036.7354   24295041.2924
        35.9004         34.6004
                      3302.57353  25003205.730
                        23.4004
 -14115712.26846 -10959111.04247  21623046.868    21623046.4804   21623049.2384
        46.5004         43.5004
 -12789939.41745  -9952193.06247  22196641.194    22196640.9014   22196642.3024
        45.3004         42.5004
  -9363102.27646  -7284666.34947  21232176.224    21232176.8834   21232182.5034
        48.1004         45.2004
  -4911252.17144  -3526924.54346  23305171.581    23305172.2654   23305178.5434
        40.9004         38.5004
   1604975.52542   1274460.43945  24792342.290    24792344.6564   24792352.3784
        37.5004         35.3004
 -20184740.79747 -15702487.74948  20468262.261    20468262.1124   20468266.2834
        50.8004         48.0004
 -11281513.91245  -8767767.39447  21880487.362    21880486.8074   21880486.9964
        46.2004         43.3004
 16  6 12  2 15  0.0000000  0  9G16G26G 7G23G 6G30G 3G 9G 2
  -1749094.98742  -1354352.60645  24288161.415    24288160.9124   24288162.3794
        36.6004         35.2004
                     15566.72445  25006200.564
                        31.0004
 -14187476.90146 -11015031.49847  21609389.281    21609389.7284   21609393.0544
        46.5004         43.7004
 -12717235.12045  -9895540.37147  22210477.005    22210476.2064   22210477.7184
        45.3004         42.5004
  -9303506.13846  -7238227.80447  21243517.535    21243517.9324   21243523.1654
        48.1004         45.1004
  -5019247.61844  -3611076.80746  23284618.838    23284620.6614   23284626.6824
        41.1004         38.5004
   1705886.79142   1353092.62745  24811548.041    24811549.2504   24811554.5774
        37.1004         35.0004
 -20147488.64947 -15673460.09848  20475350.955    20475351.2544   20475355.2374
        50.8004         48.0004
 -11320494.89145  -8798142.17647  21873069.372    21873068.5744   21873069.3194
        46.0004         43.2004
 16  6 12  2 15 30.0000000  0  8G16G 7G23G 6G30G 3G 9G 2
  -1784700.43942  -1382097.12845  24281386.475    24281385.3074   24281388.9234
        37.3004         35.3004
 -14258823.47646 -11070626.20447  21595813.647    21595813.8864   21595816.0644
        46.5004         43.9004
 -12644319.74245  -9838723.21447  22224352.535    22224351.8354   22224353.2494
        45.3004         42.6004
  -9243395.94846  -7191388.69547  21254956.501    21254956.6334   21254961.7154
        47.9004         45.1004
  -5127064.20544  -3695089.70346  23264105.645    23264105.1194   23264111.5254
        41.5004         39.2004
   1806894.53242   1431799.96645  24830776.692    24830770.2654   24830775.3504
        37.3004         35.3004
 -20109868.78747 -15644145.91748  20482509.565    20482509.8994   20482514.2034
        50.8004         48.0004
 -11358956.49345  -8828112.26147  21865751.113    21865750.1694   21865750.0044
        46.0004         43.2004
 16  6 12  2 16  0.0000000  0  8G16G 7G23G 6G30G 3G 9G 2
  -1819763.73642  -1409419.19145  24274713.193    24274712.7044   24274715.9674
        37.1004         35.2004
 -14329749.73346 -11125893.39247  21582317.291    21582316.7904   21582319.3254
        46.7004         44.0004
 -12571194.32545  -9781742.37547  22238268.141    22238267.1244   22238268.2994
        45.1004         42.3004
  -9182773.59746  -7144150.50547  21266492.326    21266492.7184   21266497.7634
        47.9004         45.1004
  -5234699.31244  -3778961.19946  23243625.677    23243624.3294   23243629.1054
        41.8004         39.3004
   1907997.78543   1510581.75145  24850012.506    24850011.6934   24850016.0634
        37.6004         35.5004
 -20071882.42847 -15614546.15447  20489737.898    20489738.0034   20489742.7324
        50.7004         47.8004
 -11396897.45145  -8857676.63747  21858530.171    21858530.1364   21858530.2914
        46.0004         43.2004
 16  6 12  2 16 30.0000000  0  8G16G 7G23G 6G30G 3G 9G 2
  -1854282.57742  -1436316.99245  24268144.213    24268145.1074   24268147.3054
        37.1004         35.2004
 -14400253.35446 -11180831.25247  21568900.069    21568900.0224   21568902.7324
        46.9004         44.2004
 -12497860.03145  -9724598.78347  22252222.220    22252222.0384   22252223.5974
        45.1004         42.3004
  -9121641.04046  -7096514.75347  21278125.029    21278125.2894   21278131.3744
        47.9004         44.9004
  -5342150.36344  -3862689.26946  23223176.073    23223175.7284   23223181.6274
        42.0004         39.5004
   2009195.66442   1589437.25345  24869268.160    24869268.3964   24869272.6434
        37.5004         35.2004
 -20033530.87447 -15584661.81947  20497036.083    20497036.0794   20497040.7094
        50.7004         47.7004
 -11434316.21545  -8886834.11247  21851409.501    21851409.1684   21851409.9264
        45.8004         43.0004
 16  6 12  2 17  0.0000000  0  8G16G 7G23G 6G30G 3G 9G 2
  -1888255.74142  -1462789.57945  24261678.992    24261678.8994   24261681.8804
        37.3004         35.2004
 -14470332.72846 -11235438.54047  21555563.765    21555564.2784   21555566.9974
        46.9004         44.0004
 -12424318.30045  -9667293.55547  22266217.114    22266216.7024   22266217.3564
        44.9004         42.1004
  -9060000.19046  -7048482.93047  21289854.872    21289855.4424   21289861.2114
        47.9004         45.1004
  -5449414.73144  -3946271.87946  23202764.255    23202764.2514   23202769.0894
        42.0004         39.3004
   2110487.08442   1668365.68945  24888543.849    24888542.4474   24888547.5434
        37.5004         35.3004
 -19994815.36047 -15554493.88447  20504403.385    20504403.1784   20504407.6734
        50.5004         47.7004
 -11471211.25645  -8915583.48747  21844389.474    21844388.8134   21844389.2424
        45.8004         43.0004
 16  6 12  2 17 30.0000000  0  8G16G 7G23G 6G30G 3G 9G 2
  -1921681.11042  -1488835.30345  24255318.584    24255318.9754   24255321.0514
        37.3004         35.2004
 -14539985.84746 -11289713.67147  21542310.666    21542310.2294   21542312.2384
        46.9004         44.2004
 -12350570.49945  -9609827.74847  22280250.782    22280250.2664   22280250.6974
        44.9004         42.1004
  -8997853.01946  -7000056.56047  21301680.994    21301681.3404   21301687.3854
        47.9004         44.9004
  -5556489.82644  -4029706.99646  23182389.506    23182389.1344   23182393.5874
        42.2004         39.5004
   2211871.04242   1747366.25545  24907834.903    24907835.3664   24907841.7804
        37.5004         35.2004
 -19955737.17147 -15524043.34547  20511839.354    20511839.4694   20511843.8344
        50.3004         47.3004
 -11507581.32345  -8943923.79547  21837467.741    21837466.9554   21837468.0314
        45.8004         42.8004
 16  6 12  2 18  0.0000000  0  8G16G 7G23G 6G30G 3G 9G 2
  -1954556.70842  -1514452.61545  24249062.073    24249061.1884   24249064.4264
        37.3004         35.2004
 -14609210.73246 -11343655.11147  21529137.139    21529136.7084   21529139.6414
        47.0004         44.2004
 -12276617.73845  -9552202.23847  22294323.527    22294323.6074   22294323.9894
        44.9004         42.1004
  -8935201.52446  -6951237.20747  21313603.318    21313603.9644   21313609.4564
        47.9004         45.1004
  -5663373.13044  -4112992.66246  23162051.594    23162050.1104   23162054.2114
        42.2004         39.5004
   2313346.61442   1826438.16245  24927139.460    24927144.2224   24927151.4644
        37.5004         35.5004
 -19916297.52947 -15493311.15247  20519344.442    20519344.5664   20519348.9914
        50.3004         47.5004
 -11543424.91545  -8971853.87047  21830647.056    21830646.4544   21830646.6474
        45.6004         43.0004
 16  6 12  2 18 30.0000000  0  9G16G26G 7G23G 6G30G 3G 9G 2
  -1986881.09342  -1539640.38945  24242910.605    24242910.1934   24242913.6724
        36.8004         34.6004
                     28285.24955  25030103.209
                        35.5004
 -14678005.54146 -11397261.44247  21516045.411    21516045.6674   21516048.3034
        46.9004         44.0004
 -12202461.34045  -9494418.04846  22308435.153    22308434.5184   22308434.9104
        44.8004         41.9004
  -8872047.67046  -6902026.41847  21325621.949    21325621.8694   21325626.9224
        47.9004         45.1004
  -5770061.95844  -4196126.78346  23141748.111    23141747.4614   23141752.7134
        42.2004         39.7004
   2414912.81643   1905580.70745  24946469.050    24946470.6854   24946478.7394
        37.8004         35.5004
 -19876497.76947 -15462298.34547  20526917.909    20526918.3884   20526922.9154
        50.3004         47.5004
 -11578740.78945  -8999372.73947  21823927.308    21823926.4374   21823927.1934
        45.8004         43.0004
 16  6 12  2 19  0.0000000  0  9G16G26G 7G23G 6G30G 3G 9G 2
  -2018652.26442  -1564397.10445  24236863.971    24236864.2094   24236867.3294
        36.3004         34.3004
                     43982.40945  25033934.369                    25033943.0084
                        35.5004
 -14746368.48346 -11450531.24047  21503036.763    21503036.8254   21503039.0814
        46.9004         44.0004
 -12128102.54945  -9436476.14146  22322585.239    22322585.1244   22322584.9974
        44.6004         41.9004
  -8808393.44746  -6852425.73347  21337734.432    21337734.7594   21337739.8604
        47.7004         44.9004
  -5876553.74044  -4279107.37246  23121482.294    23121482.2714   23121487.4534
        42.3004         39.5004
   2516568.56343   1984793.00745  24965819.721    24965817.4444   24965823.9144
        38.0004         35.7004
 -19836339.09447 -15431005.86647  20534560.329    20534560.1534   20534564.9454
        50.3004         47.5004
 -11613527.39245  -9026479.17947  21817307.707    21817306.9634   21817307.8354
        46.0004         43.3004
 16  6 12  2 19 30.0000000  0  9G16G26G 7G23G 6G30G 3G 9G 2
  -2049868.01442  -1588721.04345  24230924.718    24230923.4644   24230928.1764
        36.1004         34.3004
     79516.96542     60107.19945  25037874.968    25037872.6594   25037879.8064
        36.8004         35.3004
 -14814297.70346 -11503463.07047  21490110.485    21490109.8884   21490112.3354
        47.0004         44.2004
 -12053542.78945  -9378377.65146  22336773.469    22336772.7354   22336773.4894
        44.6004         41.8004
  -8744240.89646  -6802436.74147  21349942.864    21349943.1394   21349947.9234
        47.7004         45.1004
  -5982845.88644  -4361932.39546  23101256.005    23101255.5024   23101261.1664
        42.3004         39.7004
   2618312.92943   2064074.38645  24985180.442    24985178.7604   24985184.2784
        37.8004         35.5004
 -19795822.83247 -15399434.75547  20542270.399    20542270.3024   20542274.9014
        50.3004         47.7004
 -11647783.44945  -9053172.21247  21810789.173    21810788.3534   21810789.1974
        46.3004         43.5004
 16  6 12  2 20  0.0000000  0  9G16G26G 7G23G 6G30G 3G 9G 2
  -2080527.00742  -1612611.17845  24225089.378    24225089.9064   24225091.7854
        36.3004         34.6004
    100758.81542     76659.24245  25041915.115    25041916.5594   25041921.1554
        37.3004         35.3004
 -14881790.54646 -11556054.88247  21477266.519    21477266.3604   21477269.5424
        47.0004         44.2004
 -11978783.27245  -9320123.47946  22350999.403    22350999.1764   22350999.9774
        44.4004         41.6004
  -8679592.09846  -6752061.05447  21362243.875    21362244.7024   21362249.7264
        47.7004         44.7004
  -6088935.84844  -4444599.87146  23081067.976    23081066.6624   23081072.1764
        42.3004         39.7004
   2720144.87043   2143423.97845  25004551.527    25004556.2944   25004561.9574
        37.8004         35.3004
 -19754950.20947 -15367585.95947  20550048.447    20550048.3544   20550052.8584
        50.3004         47.7004
 -11681507.33245  -9079450.55947  21804371.237    21804370.6704   21804371.1914
        46.3004         43.3004
 16  6 12  2 20 30.0000000  0  9G16G26G 7G23G 6G30G 3G 9G 2
  -2110627.56042  -1636066.07145  24219365.024    24219363.8574   24219364.1474
        36.4004         34.8004
    122548.37552     93638.09655  25046062.543    25046063.3344   25046068.6364
        37.5004         35.5004
 -14948845.33046 -11608305.34047  21464505.689    21464506.2584   21464509.5304
        47.0004         44.2004
 -11903825.21545  -9261714.62846  22365264.000    22365263.7464   22365264.0954
        44.4004         41.8004
  -8614449.05246  -6701300.24647  21374640.213    21374641.2954   21374646.2344
        47.5004         44.7004
  -6194820.98244  -4527107.73146  23060917.677    23060917.1574   23060923.1634
        42.3004         39.7004
   2822063.38442   2222841.07545  25023946.166    25023949.5774   25023955.0164
        37.3004         35.3004
 -19713722.54147 -15335460.50547  20557893.533    20557893.5854   20557898.2224
        50.5004         47.7004
 -11714698.03545  -9105313.44847  21798055.314    21798054.9684   21798055.3834
        46.3004         43.5004
 16  6 12  2 21  0.0000000  0  9G16G26G 7G23G 6G30G 3G 9G 2
  -2140168.07442  -1659084.57645  24213740.293    24213739.7644   24213745.5844
        36.4004         34.5004
    144885.20843    111043.40945  25050313.420    25050313.2554   25050318.6544
        37.8004         35.9004
 -15015460.56846 -11660213.29847  21451829.976    21451830.3954   21451832.5714
        47.0004         44.2004
 -11828669.85445  -9203152.01946  22379564.208    22379564.2484   22379565.1544
        44.4004         41.4004
  -8548813.85346  -6650155.93847  21387130.494    21387131.0554   21387135.9084
        47.5004         44.5004
  -6300498.72044  -4609454.00746  23040807.606    23040808.0244   23040813.5654
        42.2004         39.7004
   2924067.61842   2302324.87945  25043360.797    25043361.4304   25043367.1534
        36.4004         34.5004
 -19672141.10747 -15303059.38347  20565806.501    20565806.4524   20565810.9224
        50.5004         47.7004
 -11747354.26745  -9130759.86847  21791841.250    21791840.7884   21791840.7624
        46.3004         43.3004
 16  6 12  2 21 30.0000000  0  9G16G26G 7G23G 6G30G 3G 9G 2
  -2169146.64542  -1681665.27245  24208228.141    24208227.1704   24208227.1204
        35.9004         34.1004
    167768.56943    128874.60545  25054667.769    25054667.2864   25054673.0234
        37.8004         35.7004
 -15081634.38446 -11711777.28647  21439237.474    21439237.9174   21439240.0764
        47.2004         44.2004
 -11753318.22145  -9144436.48846  22393904.162    22393903.0574   22393904.9644
        44.4004         41.4004
  -8482688.59746  -6598629.77247  21399714.257    21399714.2714   21399719.2784
        47.4004         44.5004
  -6405966.50944  -4691636.67846  23020740.034    23020738.9004   23020744.1744
        42.3004         39.7004
   3026156.40442   2381874.59245  25062786.495    25062784.9474   25062794.8344
        35.7004         34.0004
 -19630207.13747 -15270383.55647  20573785.794    20573785.9894   20573790.6124
        50.3004         47.5004
 -11779474.78045  -9155788.82847  21785728.611    21785727.7044   21785728.5954
        46.2004         43.3004
 16  6 12  2 22  0.0000000  0  9G16G26G 7G23G 6G30G 3G 9G 2
  -2197561.79042  -1703806.87445  24202819.074    24202819.8944   24202820.4054
        35.6004         33.8004
    191197.96443    147131.27845  25059124.945    25059125.3754   25059132.8904
        37.6004         35.7004
 -15147364.66546 -11762995.66547  21426729.393    21426729.6064   21426732.3974
        47.2004         44.4004
 -11677771.78045  -9085569.15046  22408280.959    22408280.0004   22408280.3374
        44.2004         41.4004
  -8416075.41046  -6546723.39547  21412389.948    21412390.5824   21412395.2964
        47.4004         44.5004
  -6511221.74644  -4773653.71446  23000710.150    23000708.8274   23000714.5264
        42.2004         39.5004
   3128328.82542   2461489.51045  25082230.058    25082230.6744   25082236.3294
        35.7004         34.1004
 -19587921.94547 -15237434.05247  20581832.583    20581832.4344   20581837.3864
        50.3004         47.5004
 -11811058.23345  -9180399.31147  21779718.594    21779718.3754   21779718.2414
        46.2004         43.3004
 16  6 12  2 22 30.0000000  0  9G16G26G 7G23G 6G30G 3G 9G 2
  -2225411.79442  -1725508.18445  24197519.817    24197518.9154   24197519.5594
        35.4004         34.0004
    215172.66143    165812.83145  25063689.292    25063688.3284   25063695.0284
        37.8004         35.9004
 -15212649.96846 -11813867.31247  21414305.401    21414305.8284   21414308.9764
        47.0004         44.2004
 -11602031.63745  -9026550.86446  22422692.996    22422693.2554   22422693.7094
        44.2004         41.8004
  -8348976.37746  -6494438.44547  21425157.495    21425158.2464   21425164.0954
        47.2004         44.4004
  -6616261.85344  -4855503.12446  22980720.497    22980720.2734   22980726.0444
        42.2004         39.5004
   3230583.83842   2541168.74445  25101689.800    25101688.8464   25101694.4154
        35.9004         34.1004
 -19545286.84047 -15204211.88547  20589945.653    20589945.4304   20589950.2794
        50.3004         47.5004
 -11842103.56245  -9204590.46647  21773810.811    21773810.3304   21773810.4724
        46.0004         43.2004
 16  6 12  2 23  0.0000000  0  9G16G26G 7G23G 6G30G 3G 9G 2
  -2252695.10042  -1746767.84245  24192327.123    24192328.2814   24192329.0154
        35.9004         34.3004
    239692.05042    184918.84345  25068353.890    25068354.5504   25068359.5584
        37.5004         35.3004
 -15277488.04746 -11864390.47147  21401967.619    21401967.5004   21401970.1244
        47.0004         44.2004
 -11526099.25345  -8967382.79246  22437143.532    22437142.8534   22437142.7414
        44.4004         41.4004
  -8281393.64246  -6441776.58247  21438018.612    21438018.8914   21438024.7874
        47.2004         44.4004
  -6721084.20944  -4937182.85646  22960772.401    22960772.9294   22960778.8084
        42.2004         39.5004
   3332920.44742   2620911.52445  25121159.688    25121163.2664   25121168.6584
        35.9004         34.1004
 -19502303.08247 -15170718.04647  20598124.677    20598124.9904   20598129.6894
        50.2004         47.3004
 -11872609.03545  -9228360.95447  21768005.605    21768004.9554   21768004.7424
        45.8004         42.8004
 16  6 12  2 23 30.0000000  0  9G16G26G 7G23G 6G30G 3G 9G 2
  -2279410.06342  -1767584.66745  24187242.952    24187243.0064   24187246.2574
        36.3004         34.5004
    264755.46342    204448.75845  25073123.909    25073123.4964   25073129.7294
        37.5004         35.3004
 -15341877.59146 -11914564.11947  21389714.812    21389715.4174   21389717.2874
        47.0004         44.2004
 -11449975.76045  -8908065.80146  22451629.272    22451628.5304   22451628.9084
        44.2004         41.6004
  -8213329.37846  -6388739.49947  21450971.420    21450971.6874   21450976.9644
        47.2004         44.4004
  -6825686.29744  -5018690.95946  22940868.173    22940868.1644   22940873.2654
        42.2004         39.5004
   3435337.61742   2700717.12045  25140646.686    25140649.2664   25140659.4334
        35.4004         33.8004
 -19458971.94947 -15136953.53047  20606370.588    20606370.7554   20606375.2124
        50.2004         47.3004
 -11902573.88445  -9251710.19347  21762303.892    21762303.6304   21762303.1484
        45.6004         42.8004
 16  6 12  2 24  0.0000000  0  9G16G26G 7G23G 6G30G 3G 9G 2
  -2305555.05442  -1787957.37845  24182270.796    24182269.2234   24182271.6214
        36.4004         34.6004
    290362.17342    224402.04245  25077995.232    25077997.3324   25078003.1284
        37.0004         34.6004
 -15405816.36446 -11964386.52447  21377548.772    21377548.7574   21377550.1074
        47.2004         44.4004
 -11373662.37745  -8848600.84046  22466150.793    22466150.7264   22466151.1384
        44.2004         41.4004
  -8144785.75746  -6335328.88847  21464014.728    21464015.0964   21464019.7374
        47.2004         44.4004
  -6930065.55644  -5100025.42146  22921005.185    22921005.0704   22921010.5504
        42.3004         39.9004
   3537834.40142   2780584.74545  25160156.203    25160157.0984   25160163.1434
        35.2004         33.6004
 -19415294.74347 -15102919.33547  20614682.381    20614682.3364   20614686.8844
        50.2004         47.5004
 -11931996.64745  -9274637.01347  21756703.937    21756704.2934   21756704.6934
        45.6004         42.8004
 16  6 12  2 24 30.0000000  0  9G16G26G 7G23G 6G30G 3G 9G 2
  -2331128.75042  -1807884.90645  24177403.736    24177403.2264   24177405.6594
        37.1004         35.3004
    316511.42342    244778.04645  25082971.585    25082972.5754   25082977.2104
        36.3004         34.5004
 -15469302.64746 -12013856.34147  21365467.116    21365466.8554   21365468.7664
        47.2004         44.4004
 -11297160.38445  -8788988.91646  22480709.033    22480708.3014   22480708.5564
        44.2004         41.6004
  -8075764.96746  -6281546.45547  21477148.758    21477149.3024   21477154.3774
        47.2004         44.4004
  -7034219.36344  -5181184.21146  22901184.604    22901185.1024   22901191.9804
        42.5004         39.9004
   3640409.74642   2860513.56145  25179680.362    25179678.9804   25179681.2884
        35.0004         33.8004
 -19371272.74447 -15068616.47947  20623059.728    20623059.7134   20623063.7774
        50.3004         47.5004
 -11960876.25845  -9297140.59947  21751208.292    21751207.5764   21751208.8754
        45.6004         42.8004
 16  6 12  2 25  0.0000000  0  9G16G26G 7G23G 6G30G 3G 9G 2
  -2356129.61742  -1827366.05145  24172646.932    24172646.0284   24172647.5424
        37.5004         35.5004
    343202.48742    265576.29045  25088051.368    25088051.2414   25088057.9844
        36.6004         34.8004
 -15532334.81146 -12062972.30547  21353471.261    21353472.0464   21353474.3364
        47.2004         44.4004
 -11220470.84645  -8729230.85146  22495302.226    22495301.9924   22495302.1734
        44.2004         41.4004
  -8006269.15446  -6227393.87447  21490373.862    21490374.3274   21490378.9044
        47.4004         44.5004
  -7138145.16544  -5262165.34046  22881408.679    22881408.6504   22881414.8174
        42.5004         39.7004
   3743062.60842   2940502.83145  25199216.684    25199210.7404   25199216.0174
        35.4004         33.8004
 -19326907.24947 -15034045.96647  20631502.343    20631502.1704   20631506.4794
        50.3004         47.3004
 -11989211.85945  -9319220.28747  21745816.694    21745815.9654   21745817.0794
        45.8004         43.0004
 16  6 12  2 25 30.0000000  0  9G16G26G 7G23G 6G30G 3G 9G 2
  -2380555.80543  -1846399.40845  24167998.159    24167997.7144   24168000.1634
        37.6004         35.5004
    370434.64242    286796.12345  25093233.134    25093234.0954   25093241.2594
        37.3004         35.5004
 -15594910.95346 -12111732.91447  21341563.372    21341564.0634   21341567.2214
        47.4004         44.5004
 -11143595.09345  -8669327.68646  22509931.163    22509930.7324   22509931.6964
        44.2004         41.4004
  -7936300.59346  -6172872.92347  21503687.741    21503688.3064   21503693.9304
        47.4004         44.5004
  -7241840.43544  -5342966.81946  22861676.534    22861676.4454   22861682.1024
        42.5004         39.7004
   3845791.98542   3020551.66645  25218761.482    25218760.4034   25218764.7984
        36.1004         34.5004
 -19282199.53147 -14999208.78447  20640010.015    20640009.8584   20640014.0474
        50.2004         47.3004
 -12017001.95545  -9340874.91147  21740529.059    21740527.8634   21740527.9674
        46.0004         43.0004
 16  6 12  2 26  0.0000000  0  9G16G26G 7G23G 6G30G 3G 9G 2
  -2404406.53843  -1864984.38845  24163460.124    24163459.3044   24163460.7074
        37.6004         35.5004
    398207.03842    308436.95045  25098518.513    25098518.1484   25098524.3474
        37.1004         35.2004
 -15657029.43646 -12160136.92347  21329743.007    21329743.7424   21329746.6814
        47.5004         44.7004
 -11066534.27845  -8609280.31746  22524595.554    22524595.0264   22524595.8144
        44.2004         41.4004
  -7865861.48546  -6117985.31347  21517092.277    21517092.5554   21517097.7874
        47.2004         44.5004
  -7345302.55044  -5423586.61546  22841987.521    22841987.1794   22841993.0754
        42.3004         39.7004
   3948596.97042   3100659.46045  25238323.163    25238322.7244   25238328.0684
        35.9004         34.3004
 -19237150.92447 -14964105.97147  20648582.216    20648582.0364   20648586.5904
        50.2004         47.3004
 -12044245.44945  -9362103.62147  21735344.357    21735343.6334   21735343.6214
        45.8004         42.8004
 16  6 12  2 26 30.0000000  0  8G16G26G 7G23G 6G30G 9G 2
  -2427680.16142  -1883119.66045  24159030.915    24159031.0624   24159032.3234
        37.5004         35.3004
    426518.89642    330498.08645  25103904.672    25103906.7024   25103912.1624
        36.8004         35.0004
 -15718688.45246 -12208182.88147  21318010.102    21318010.1784   21318013.5624
        47.5004         44.9004
 -10989289.67445  -8549089.74446  22539294.195    22539293.8294   22539294.4804
        43.9004         41.2004
  -7794954.09146  -6062732.80547  21530584.951    21530585.9874   21530591.2154
        47.2004         44.4004
  -7448528.98944  -5504022.77846  22822343.357    22822344.0824   22822350.0684
        42.3004         39.7004
 -19191762.67047 -14928738.49647  20657219.140    20657219.2284   20657223.7274
        50.2004         47.3004
 -12070941.32345  -9382905.60947  21730264.297    21730263.9694   21730264.1274
        45.8004         43.0004
 16  6 12  2 27  0.0000000  0  8G16G26G 7G23G 6G30G 9G 2
  -2450375.04042  -1900803.96345  24154711.319    24154710.6734   24154714.1704
        37.5004         35.3004
    455369.24242    352978.87445  25109397.527    25109396.3814   25109399.8774
        37.3004         35.2004
 -15779886.41046 -12255869.57347  21306365.122    21306364.5404   21306367.7604
        47.7004         44.9004
 -10911862.39945  -8488756.80646  22554028.302    22554028.4204   22554028.8054
        43.9004         41.1004
  -7723580.65646  -6007117.15147  21544167.372    21544168.0284   21544173.1714
        47.2004         44.5004
  -7551517.14844  -5584273.27446  22802746.673    22802746.9464   22802750.6364
        42.3004         39.9004
 -19146036.06947 -14893107.38347  20665920.248    20665920.5074   20665925.1824
        50.2004         47.2004
 -12097088.58445  -9403280.08847  21725288.702    21725287.9454   21725288.7734
        46.0004         43.3004
 16  6 12  2 27 30.0000000  0  8G16G26G 7G23G 6G30G 9G 2
  -2472489.78442  -1918036.21445  24150501.605    24150501.1584   24150504.6614
        37.3004         35.2004
    484757.40442    375878.71745  25114987.351    25114986.7044   25114994.6484
        37.0004         34.8004
 -15840621.42346 -12303195.53347  21294806.741    21294807.2444   21294810.0954
        47.9004         45.1004
 -10834253.79245  -8428282.58146  22568796.226    22568796.3164   22568796.4684
        43.9004         41.1004
  -7651743.43946  -5951140.10047  21557837.380    21557837.8324   21557843.0844
        47.2004         44.2004
  -7654264.56344  -5664336.17646  22783194.799    22783194.7084   22783199.3844
        42.3004         39.9004
 -19099972.44547 -14857213.64647  20674686.266    20674686.1964   20674690.8114
        50.0004         47.2004
 -12122686.29645  -9423226.35247  21720418.395    21720418.1574   21720417.9464
        46.2004         43.5004
 16  6 12  2 28  0.0000000  0  8G16G26G 7G23G 6G30G 9G 2
  -2494023.25942  -1934815.52345  24146403.588    24146403.1464   24146410.6624
        37.1004         35.2004
    514682.40242    399196.85245  25120683.885    25120684.1314   25120689.0014
        37.0004         35.0004
 -15900891.97946 -12350159.58247  21283338.574    21283338.5624   21283340.6854
        48.1004         45.2004
 -10756465.14645  -8367668.06946  22583598.383    22583598.5174   22583600.8744
        43.7004         41.1004
  -7579444.75246  -5894803.46647  21571595.650    21571595.8974   21571600.8444
        47.0004         44.0004
  -7756768.59944  -5744209.43946  22763689.260    22763689.1504   22763694.2544
        42.5004         39.9004
 -19053573.09547 -14821058.31047  20683515.430    20683515.4864   20683520.2424
        50.0004         47.2004
 -12147733.19745  -9442743.41247  21715651.803    21715651.6034   21715651.7904
        46.3004         43.7004
 16  6 12  2 28 30.0000000  0  8G16G26G 7G23G 6G30G 9G 2
  -2514973.85242  -1951140.64945  24142417.691    24142417.1074   24142419.3164
        36.4004         34.1004
    545143.34042    422932.64945  25126479.324    25126478.3964   25126483.7414
        37.1004         35.0004
 -15960696.31746 -12396760.34947  21271958.148    21271958.0614   21271960.1144
        48.1004         45.2004
 -10678497.19745  -8306913.83546  22598437.112    22598436.1364   22598437.0514
        43.9004         41.2004
  -7506686.88046  -5838109.02847  21585441.074    21585441.3344   21585446.1404
        46.9004         44.0004
  -7859026.75444  -5823891.09546  22744229.321    22744229.5934   22744235.3124
        42.5004         39.9004
 -19006839.28947 -14784642.35147  20692408.831    20692408.7364   20692413.6274
        50.0004         47.2004
 -12172228.27745  -9461830.49647  21710990.051    21710989.1474   21710990.5484
        46.3004         43.5004
 16  6 12  2 29  0.0000000  0  8G16G26G 7G23G 6G30G 9G 2
  -2535340.50042  -1967010.75645  24138541.256    24138540.5584   24138545.8254
        36.3004         34.5004
    576139.33842    447085.32545  25132377.464    25132377.8374   25132383.7704
        37.0004         35.0004
 -16020033.03446 -12442996.73247  21260666.662    21260666.5974   21260668.9004
        48.1004         45.2004
 -10600351.55345  -8246021.14746  22613306.440    22613307.2104   22613307.4144
        43.9004         41.2004
  -7433472.12846  -5781058.57647  21599373.708    21599373.6384   21599378.3474
        46.9004         44.0004
  -7961036.46244  -5903379.16246  22724819.157    22724818.1644   22724822.3524
        42.7004         40.0004
 -18959772.32447 -14747966.80147  20701365.499    20701365.3164   20701370.0234
        50.0004         47.2004
 -12196170.56945  -9480486.81847  21706434.050    21706433.6974   21706433.9914
        46.3004         43.7004
