     2.10           OBSERVATION DATA    G (GPS)             RINEX VERSION / TYPE
teqc  2006Dec12     IGN-RGP             20160610 11:10:02UTCPGM / RUN BY / DATE
Linux 2.4.20-8|Pentium IV|gcc|Linux|486/DX+                 COMMENT
     2.11           OBSERVATION DATA    G (GPS)             COMMENT
teqc  2013Mar15     Observatoire de Pari20160610 00:52:19UTCCOMMENT
Linux 2.4.21-27.ELsmp|Opteron|gcc|Linux x86_64|=+           COMMENT
BIT 2 OF LLI FLAGS DATA COLLECTED UNDER A/S CONDITION       COMMENT
OPMT                                                        MARKER NAME
10001S006                                                   MARKER NUMBER
Automatic           BNM-SYRTE                               OBSERVER / AGENCY
02942               ASHTECH Z-XII3T     1L01-1D04           REC # / TYPE / VERS
00019               3S-02-TSADM     NONE                    ANT # / TYPE
  4202777.6220   171367.7610  4778659.9840                  APPROX POSITION XYZ
        0.0000        0.0000        0.0000                  ANTENNA: DELTA H/E/N
     1     1                                                WAVELENGTH FACT L1/2
     7    L1    L2    C1    P1    P2    S1    S2            # / TYPES OF OBSERV
 SNR is mapped to RINEX snr flag value [0-9]                COMMENT
  L1 & L2: min(max(int(snr_dBHz/6), 0), 9)                  COMMENT
pseudorange smoothing corrections not applied               COMMENT
  2016     6     9     0     0    0.0000000     GPS         TIME OF FIRST OBS
                                                            END OF HEADER
 16  6  9  0  0  0.0000000  0  9G19G17G 6G23G31G22G 3G 9G 1
 -15919489.46745 -12382591.02047  22128067.346    22128066.2694   22128067.6084
        46.0004         43.3004
  -9856531.37445  -7665701.98947  22132480.598    22132480.7624   22132484.1614
        45.5004         42.6004
  -3251486.70745  -2516674.54246  22416753.383    22416753.9734   22416758.7684
        44.2004         41.4004
 -20790449.32146 -16188984.65647  20926042.002    20926041.5254   20926041.9324
        48.4004         45.6004
  -3908257.24243  -3033277.59446  23636522.378    23636523.1014   23636525.8134
        40.4004         37.9004
 -11460371.67045  -8653330.75747  21987842.244    21987841.2614   21987842.0624
        45.3004         42.5004
 -19651117.66147 -15300108.71847  20632106.074    20632106.6354   20632111.3134
        50.2004         47.3004
 -11629476.12345  -9042958.20047  22004251.287    22004251.4734   22004257.5074
        45.3004         42.6004
  -5954927.71044  -4624105.95646  22778640.627    22778641.1054   22778647.1344
        42.7004         40.0004
 16  6  9  0  0 30.0000000  0  9G19G17G 6G23G31G22G 3G 9G 1
 -15911454.31845 -12376329.85147  22129597.325    22129596.0954   22129597.0104
        46.2004         43.3004
  -9808594.99745  -7628348.98047  22141603.469    22141603.6324   22141606.2844
        45.6004         43.0004
  -3338291.99945  -2584315.00546  22400235.001    22400235.7314   22400239.9514
        44.2004         41.4004
 -20831331.89146 -16220841.19547  20918262.134    20918261.9904   20918262.3484
        48.4004         45.6004
  -3876204.19243  -3008301.19846  23642622.544    23642622.8094   23642624.3744
        40.4004         37.9004
 -11391075.02645  -8599333.37147  22001028.665    22001028.2524   22001029.7514
        45.5004         42.5004
 -19613634.80747 -15270901.29347  20639239.117    20639239.3764   20639243.8524
        50.2004         47.2004
 -11719765.50845  -9113313.53847  21987071.153    21987070.9944   21987076.2294
        45.6004         42.8004
  -5858005.16144  -4548581.90846  22797083.853    22797084.8264   22797090.7044
        42.5004         39.7004
 16  6  9  0  1  0.0000000  0  9G19G17G 6G23G31G22G 3G 9G 1
 -15902785.35045 -12369574.79347  22131246.558    22131245.4374   22131245.9034
        46.2004         43.3004
  -9760140.44145  -7590592.21047  22150824.116    22150824.0214   22150826.5154
        45.6004         42.8004
  -3424837.27045  -2651752.85746  22383765.238    22383766.1384   22383770.5614
        44.2004         41.4004
 -20871749.91046 -16252335.74847  20910570.568    20910570.5444   20910571.3694
        48.4004         45.8004
  -3843580.02944  -2982879.78946  23648830.231    23648830.8764   23648832.7964
        40.6004         38.1004
 -11321576.22445  -8545178.46647  22014254.581    22014253.5234   22014254.3564
        45.5004         42.8004
 -19575830.19647 -15241443.15247  20646433.356    20646433.3954   20646438.1374
        50.2004         47.3004
 -11809723.07945  -9183410.32847  21969952.123    21969951.5464   21969957.9514
        45.6004         42.8004
  -5760840.05444  -4472868.85646  22815574.705    22815575.0844   22815580.7464
        42.3004         39.5004
 16  6  9  0  1 30.0000000  0  9G19G17G 6G23G31G22G 3G 9G 1
 -15893483.60245 -12362326.67447  22133017.099    22133015.9664   22133016.2104
        46.3004         43.3004
  -9711169.70345  -7552433.21547  22160142.290    22160142.8874   22160145.5264
        45.6004         42.6004
  -3511120.31845  -2718986.36846  22367346.260    22367346.2754   22367352.0004
        44.2004         41.6004
 -20911702.65546 -16283467.74247  20902968.207    20902968.0264   20902968.4894
        48.4004         45.8004
  -3810385.63044  -2957014.01146  23655147.176    23655147.1424   23655149.3584
        40.8004         38.3004
 -11251876.04145  -8490866.65847  22027518.992    22027518.0854   22027518.4834
        45.6004         42.8004
 -19537704.51947 -15211734.82747  20653688.151    20653688.8604   20653693.1894
        50.2004         47.3004
 -11899347.02345  -9253247.14347  21952895.609    21952896.5934   21952902.2254
        45.6004         42.8004
  -5663433.93644  -4396968.00146  22834109.762    22834110.7954   22834116.7864
        42.2004         39.5004
 16  6  9  0  2  0.0000000  0  9G19G17G 6G23G31G22G 3G 9G 1
 -15883549.77545 -12354586.02947  22134906.452    22134905.4594   22134906.4304
        46.0004         42.8004
  -9661684.67745  -7513873.45947  22169559.268    22169559.5904   22169563.1644
        45.5004         42.8004
  -3597138.85245  -2786013.77146  22350977.747    22350978.1084   22350982.9604
        44.4004         41.8004
 -20951189.66446 -16314236.82747  20895453.863    20895453.4934   20895454.2854
        48.4004         45.8004
  -3776622.28444  -2930704.92246  23661572.932    23661573.0364   23661574.7864
        40.9004         38.6004
 -11181975.19845  -8436398.46647  22040820.333    22040819.2134   22040818.9394
        45.6004         42.8004
 -19499258.43247 -15181776.84047  20661004.383    20661004.7774   20661009.2124
        50.2004         47.3004
 -11988635.57645  -9322822.61347  21935906.745    21935906.5854   21935911.4804
        45.8004         43.0004
  -5565788.38444  -4320880.58046  22852690.616    22852691.6334   22852697.7254
        42.0004         39.3004
 16  6  9  0  2 30.0000000  0  9G19G17G 6G23G31G22G 3G 9G 1
 -15872984.03345 -12346352.98547  22136916.774    22136915.5874   22136917.0914
        45.6004         42.6004
  -9611687.61845  -7474914.72047  22179074.105    22179073.7014   22179076.0274
        45.5004         42.6004
  -3682890.59745  -2852833.29747  22334660.158    22334659.7194   22334665.5834
        44.6004         42.1004
 -20990210.30946 -16344642.51947  20888028.220    20888028.0274   20888028.6804
        48.6004         45.8004
  -3742290.97744  -2903953.25746  23668105.665    23668105.7874   23668108.3674
        41.1004         38.6004
 -11111874.39745  -8381774.47347  22054160.338    22054158.9624   22054160.0644
        45.6004         42.8004
 -19460492.66447 -15151569.75247  20668381.604    20668381.8784   20668386.2214
        50.2004         47.3004
 -12077586.90945  -9392135.31647  21918978.957    21918978.9214   21918983.9084
        45.8004         43.0004
  -5467904.91644  -4244607.78846  22871317.697    22871318.4524   22871324.1764
        41.8004         39.2004
 16  6  9  0  3  0.0000000  0  9G19G17G 6G23G31G22G 3G 9G 1
 -15861787.01745 -12337628.03247  22139047.698    22139047.2024   22139047.7964
        45.3004         42.3004
  -9561180.44545  -7435558.50547  22188684.758    22188685.2094   22188687.4454
        45.5004         42.6004
  -3768373.31145  -2919443.18047  22318392.474    22318393.3894   22318398.9584
        44.9004         42.3004
 -21028763.85446 -16374684.23647  20880692.052    20880691.8814   20880692.2324
        48.6004         45.9004
  -3707392.73444  -2876759.82446  23674746.888    23674747.2464   23674747.5144
        41.1004         38.3004
 -11041574.54945  -8326995.39347  22067537.600    22067537.0554   22067537.7744
        45.5004         42.6004
 -19421407.85947 -15121114.05447  20675818.328    20675819.1074   20675823.5864
        50.2004         47.2004
 -12166199.25645  -9461183.86247  21902117.299    21902117.7334   21902122.0694
        46.0004         43.2004
  -5369785.17744  -4168150.85646  22889988.533    22889989.3484   22889996.7864
        41.8004         39.2004
 16  6  9  0  3 30.0000000  0  9G19G17G 6G23G31G22G 3G 9G 1
 -15849959.49045 -12328411.76047  22141298.648    22141297.4904   22141298.5694
        45.3004         42.3004
  -9510164.87945  -7395806.12947  22198393.305    22198393.3504   22198395.4624
        45.5004         42.8004
  -3853584.77445  -2985841.71547  22302177.583    22302178.2924   22302183.1884
        44.9004         42.3004
 -21066849.81146 -16404361.60047  20873444.424    20873444.6034   20873444.7644
        48.8004         46.1004
  -3671928.68644  -2849125.49746  23681496.163    23681495.5954   23681497.6044
        40.9004         38.6004
 -10971076.34245  -8272061.72647  22080952.976    22080952.0844   22080952.3854
        45.5004         42.5004
 -19382004.69547 -15090410.28847  20683316.346    20683316.8054   20683321.5914
        50.0004         47.0004
 -12254470.80845  -9529966.85847  21885319.049    21885319.1094   21885324.0494
        46.0004         43.0004
  -5271430.67244  -4091511.00846  22908707.173    22908706.4274   22908713.1524
        42.0004         39.3004
 16  6  9  0  4  0.0000000  0  9G19G17G 6G23G31G22G 3G 9G 1
 -15837501.90445 -12318704.56347  22143668.618    22143668.0154   22143668.8304
        45.5004         42.6004
  -9458642.88345  -7355659.12647  22208197.364    22208197.2674   22208199.6464
        45.3004         42.5004
  -3938522.58645  -3052027.01247  22286013.828    22286014.9744   22286020.8424
        44.9004         42.1004
 -21104467.41946 -16433674.01747  20866286.415    20866286.0154   20866286.5284
        48.8004         46.1004
  -3635900.12244  -2821051.31646  23688350.787    23688351.7214   23688354.4644
        41.3004         38.6004
 -10900380.34745  -8216973.96347  22094405.477    22094405.4234   22094406.0644
        45.3004         42.5004
 -19342283.90647 -15059459.01847  20690875.310    20690875.7974   20690880.3414
        50.0004         47.2004
 -12342399.81045  -9598482.94047  21868585.464    21868586.0454   21868591.9214
        45.8004         43.0004
  -5172842.98944  -4014689.46646  22927468.423    22927467.8134   22927473.0544
        42.2004         39.5004
 16  6  9  0  4 30.0000000  0  9G19G17G 6G23G31G22G 3G 9G 1
 -15824414.98845 -12308506.96247  22146158.812    22146158.0054   22146159.9134
        45.6004         42.8004
  -9406616.62945  -7315119.20447  22218096.890    22218096.5874   22218099.7444
        45.1004         42.1004
  -4023184.55545  -3117997.35647  22269903.686    22269904.5474   22269909.8664
        44.9004         42.1004
 -21141616.55146 -16462621.38347  20859216.716    20859216.4964   20859217.1824
        48.8004         45.9004
  -3599308.22044  -2792538.14446  23695314.767    23695314.6134   23695316.8224
        41.5004         39.2004
 -10829487.57345  -8161732.86447  22107895.778    22107895.3814   22107896.3804
        45.1004         42.3004
 -19302246.12747 -15028260.74947  20698494.471    20698494.7454   20698499.3214
        50.0004         47.2004
 -12429984.49945  -9666730.72147  21851920.161    21851919.9104   21851924.7264
        45.8004         43.2004
  -5074023.80544  -3937687.51646  22946270.979    22946272.7974   22946278.1434
        42.2004         39.5004
 16  6  9  0  5  0.0000000  0  9G19G17G 6G23G31G22G 3G 9G 1
 -15810699.39745 -12297819.50047  22148769.860    22148768.3484   22148770.0874
        45.6004         42.8004
  -9354088.14645  -7274187.93847  22228092.678    22228093.4874   22228095.7504
        44.9004         42.1004
  -4107568.40145  -3183750.98747  22253846.881    22253847.2274   22253852.4654
        45.1004         42.5004
 -21178296.46046 -16491203.11847  20852237.069    20852236.7964   20852236.7704
        48.8004         45.9004
  -3562153.80844  -2763586.65046  23702384.290    23702384.8214   23702386.7794
        41.3004         38.6004
 -10758398.56545  -8106338.84247  22121423.982    22121422.8654   22121423.7564
        45.1004         42.1004
 -19261892.06547 -14996816.01647  20706172.908    20706173.5654   20706178.4654
        50.0004         47.2004
 -12517223.14745  -9734708.86947  21835318.828    21835319.1544   21835323.6484
        46.0004         43.0004
  -4974974.58844  -3860506.33046  22965121.542    22965120.3684   22965126.5564
        42.2004         39.5004
 16  6  9  0  5 30.0000000  0  9G19G17G 6G23G31G22G 3G 9G 1
 -15796355.97845 -12286642.80847  22151497.946    22151497.3954   22151499.4114
        45.5004         42.6004
  -9301059.28945  -7232866.77647  22238185.159    22238184.7524   22238187.1214
        45.1004         42.5004
  -4191671.82945  -3249286.10347  22237842.152    22237842.5464   22237847.7394
        45.3004         42.8004
 -21214506.66246 -16519418.85147  20845346.614    20845346.3154   20845346.1764
        48.8004         45.9004
  -3524438.36344  -2734197.97446  23709561.185    23709560.6444   23709564.3544
        40.9004         38.3004
 -10687114.07945  -8050792.51046  22134988.316    22134987.5124   22134989.1114
        44.9004         41.9004
 -19221222.41447 -14965125.38147  20713912.756    20713912.9084   20713917.5374
        50.0004         47.2004
 -12604114.01145  -9802416.00947  21818784.870    21818784.5644   21818789.0554
        46.0004         43.3004
  -4875696.99944  -3783147.20146  22984012.357    22984011.9434   22984018.3814
        42.0004         39.3004
 16  6  9  0  6  0.0000000  0  9G19G17G 6G23G31G22G 3G 9G 1
 -15781385.59245 -12274977.57147  22154347.676    22154346.4924   22154347.7364
        45.3004         42.3004
  -9247532.20245  -7191157.37847  22248370.801    22248370.4154   22248372.7724
        45.1004         42.3004
  -4275492.51645  -3314600.90647  22221891.671    22221892.0714   22221897.3604
        45.5004         43.0004
 -21250246.62346 -16547268.15847  20838545.618    20838545.0874   20838545.6184
        48.8004         45.9004
  -3486162.96243  -2704373.00646  23716843.121    23716844.1404   23716848.0424
        40.4004         37.8004
 -10615634.85745  -7995094.42846  22148590.530    22148589.6284   22148590.7294
        44.8004         41.9004
 -19180237.86047 -14933189.35947  20721711.356    20721712.0824   20721716.6614
        49.8004         47.0004
 -12690655.32945  -9869850.78647  21802315.681    21802316.1604   21802320.6974
        46.2004         43.5004
  -4776192.64944  -3705611.36746  23002946.565    23002947.2924   23002952.9034
        42.0004         39.2004
 16  6  9  0  6 30.0000000  0  9G19G17G 6G23G31G22G 3G 9G 1
 -15765788.93345 -12262824.35647  22157315.477    22157314.5904   22157316.3034
        45.3004         42.3004
  -9193508.93645  -7149061.33447  22258650.523    22258650.8384   22258652.7804
        45.1004         42.3004
  -4359028.23945  -3379693.66447  22205994.772    22205996.2284   22206000.9674
        45.6004         42.8004
 -21285515.89846 -16574750.70847  20831833.387    20831833.4864   20831833.7854
        48.8004         46.1004
  -3447328.91343  -2674112.70546  23724233.596    23724234.7874   23724237.5524
        40.1004         37.4004
 -10543961.66845  -7939245.20146  22162229.365    22162228.6544   22162229.8234
        44.6004         41.8004
 -19138939.08147 -14901008.49047  20729571.051    20729571.2934   20729575.4074
        49.8004         47.2004
 -12776845.34445  -9937011.80847  21785914.455    21785914.7884   21785919.9454
        46.3004         43.5004
  -4676463.10144  -3627900.04346  23021923.983    23021924.5524   23021931.1754
        41.6004         39.0004
 16  6  9  0  7  0.0000000  0  9G19G17G 6G23G31G22G 3G 9G 1
 -15749566.66645 -12250183.63147  22160402.047    22160400.8544   22160402.3394
        45.1004         42.5004
  -9138991.69745  -7106580.38247  22269025.805    22269025.4554   22269027.6114
        45.3004         42.5004
  -4442276.57045  -3444562.49447  22190153.828    22190154.5014   22190158.8644
        45.6004         42.8004
 -21320313.87546 -16601865.99947  20825211.990    20825211.7134   20825212.1474
        48.8004         45.9004
  -3407937.56743  -2643418.17446  23731731.763    23731730.9534   23731732.1344
        39.7004         37.3004
 -10472095.34345  -7883245.47646  22175905.497    22175904.0734   22175904.9154
        44.6004         41.6004
 -19097326.77647 -14868583.31547  20737489.032    20737489.7964   20737493.9514
        49.8004         47.0004
 -12862682.43845 -10003897.82947  21769580.662    21769580.3284   21769585.5904
        46.3004         43.5004
  -4576509.99544  -3550014.52446  23040945.634    23040945.2014   23040951.4634
        41.5004         38.8004
 16  6  9  0  7 30.0000000  0  9G19G17G 6G23G31G22G 3G 9G 1
 -15732719.52945 -12237056.00647  22163609.435    22163608.2054   22163608.9874
        45.5004         42.8004
  -9083982.58245  -7063716.16647  22279493.165    22279493.3194   22279495.5614
        45.1004         42.3004
  -4525235.41545  -3509205.74047  22174366.498    22174367.3004   22174372.3054
        45.6004         42.8004
 -21354640.22246 -16628613.79047  20818679.982    20818679.4464   20818680.0764
        48.8004         45.9004
  -3367990.07943  -2612290.27646  23739332.831    23739333.3714   23739335.1134
        39.9004         37.8004
 -10400036.63145  -7827095.84746  22189618.065    22189617.1244   22189616.9494
        44.4004         41.8004
 -19055401.62647 -14835914.36747  20745467.473    20745467.7724   20745472.1484
        49.8004         47.0004
 -12948164.80945 -10070507.43847  21753313.514    21753313.5474   21753318.3634
        46.3004         43.5004
  -4476334.91044  -3471956.02946  23060007.683    23060008.0864   23060014.2534
        41.3004         38.6004
 16  6  9  0  8  0.0000000  0  9G19G17G 6G23G31G22G 3G 9G 1
 -15715248.48945 -12223442.20047  22166933.445    22166932.4254   22166933.5614
        45.6004         43.0004
  -9028483.73445  -7020470.33047  22290052.914    22290053.5394   22290056.7824
        45.1004         42.1004
  -4607902.43745  -3573621.57847  22158635.929    22158636.6934   22158641.4974
        45.5004         42.8004
 -21388494.71246 -16654993.90247  20812237.875    20812237.1534   20812237.5874
        48.8004         45.9004
  -3327487.84743  -2580730.08646  23747041.827    23747040.5784   23747043.4934
        40.3004         37.9004
 -10327786.10745  -7770796.74746  22203367.019    22203365.6204   22203367.0314
        44.6004         41.8004
 -19013164.33547 -14803002.19147  20753504.384    20753505.2934   20753509.5704
        49.8004         47.0004
 -13033290.81245 -10136839.36147  21737114.600    21737114.6074   21737119.8314
        46.3004         43.7004
  -4375939.49544  -3393725.85646  23079111.514    23079112.1074   23079118.8594
        41.3004         38.6004
 16  6  9  0  8 30.0000000  0  9G19G17G 6G23G31G22G 3G 9G 1
 -15697154.71345 -12209343.16547  22170376.554    22170375.2554   22170377.2834
        45.8004         43.0004
  -8972497.40145  -6976844.63247  22300707.927    22300708.0884   22300710.8854
        45.1004         42.5004
  -4690275.28345  -3637808.20347  22142961.428    22142961.4164   22142966.4934
        45.5004         42.5004
 -21421876.67546 -16681005.81147  20805885.313    20805884.8264   20805885.6314
        48.8004         46.1004
  -3286431.90843  -2548738.45446  23754852.995    23754852.5374   23754854.4464
        40.3004         37.8004
 -10255344.37045  -7714348.67246  22217152.088    22217151.6614   22217151.3754
        44.6004         41.8004
 -18970615.54347 -14769847.29147  20761601.932    20761602.1084   20761606.1174
        49.8004         46.8004
 -13118058.74545 -10202892.26447  21720983.281    21720983.2784   21720988.7464
        46.3004         43.5004
  -4275325.36644  -3315325.23646  23098258.911    23098258.8734   23098265.0684
        41.1004         38.8004
 16  6  9  0  9  0.0000000  0  9G19G17G 6G23G31G22G 3G 9G 1
 -15678438.86745 -12194759.39547  22173938.349    22173936.8294   22173938.5644
        46.0004         43.2004
  -8916025.37645  -6932840.48947  22311454.313    22311454.2184   22311456.9874
        45.3004         42.6004
  -4772351.66245  -3701763.81647  22127342.704    22127342.5424   22127347.9374
        45.3004         42.5004
 -21454785.58946 -16706649.11347  20799622.878    20799622.2414   20799622.8304
        48.8004         46.1004
  -3244823.90043  -2516316.63846  23762769.422    23762771.3964   23762771.8664
        40.1004         37.6004
 -10182712.16545  -7657752.16546  22230974.842    22230973.9384   22230973.3374
        44.4004         41.8004
 -18927756.01547 -14736450.25347  20769757.251    20769757.9774   20769762.2214
        49.8004         47.0004
 -13202466.90445 -10268664.84047  21704921.256    21704921.8294   21704925.8654
        46.3004         43.5004
  -4174494.15544  -3236755.49346  23117445.668    23117446.5764   23117452.2154
        41.3004         38.6004
 16  6  9  0  9 30.0000000  0  9G19G17G 6G23G31G22G 3G 9G 1
 -15659101.69245 -12179691.46947  22177617.221    22177616.5574   22177618.0144
        45.6004         42.6004
  -8859070.12945  -6888459.79147  22322292.584    22322292.0174   22322295.5774
        45.3004         42.6004
  -4854129.28545  -3765486.63047  22111780.239    22111780.3004   22111785.7214
        45.3004         42.5004
 -21487221.22846 -16731923.62647  20793450.628    20793450.2424   20793450.3584
        48.8004         46.1004
  -3202665.13443  -2483465.65546  23770793.105    23770793.0484   23770794.2174
        40.3004         37.9004
 -10109890.64645  -7601008.13646  22244830.636    22244830.6814   22244831.3964
        44.6004         41.8004
 -18884586.38047 -14702811.57947  20777972.630    20777972.7804   20777976.8854
        49.8004         46.8004
 -13286513.65745 -10334155.79547  21688928.231    21688928.0974   21688932.5404
        46.3004         43.7004
  -4073447.45844  -3158017.81546  23136676.085    23136676.1424   23136681.5964
        41.3004         38.6004
 16  6  9  0 10  0.0000000  0  9G19G17G 6G23G31G22G 3G 9G 1
 -15639144.41745 -12164140.37247  22181415.270    22181414.2164   22181414.9414
        45.3004         42.3004
  -8801634.00545  -6843704.38447  22333221.425    22333221.7914   22333224.8414
        45.5004         42.8004
  -4935605.87045  -3828974.85147  22096275.973    22096276.1774   22096281.3264
        45.5004         42.8004
 -21519183.25146 -16756829.09047  20787368.537    20787368.0384   20787368.3794
        48.9004         46.1004
  -3159957.07343  -2450186.63546  23778919.671    23778919.4074   23778922.2224
        40.3004         37.8004
 -10036880.19245  -7544116.87246  22258726.422    22258723.9934   22258724.3694
        44.6004         41.6004
 -18841107.36147 -14668931.81947  20786245.937    20786246.5004   20786251.0414
        49.8004         46.8004
 -13370197.31446 -10399363.82347  21673003.425    21673003.5654   21673007.8274
        46.5004         43.5004
  -3972186.97044  -3079113.56346  23155943.643    23155944.2674   23155950.9514
        41.3004         38.5004
 16  6  9  0 10 30.0000000  0  9G19G17G 6G23G31G22G 3G 9G 1
 -15618568.06445 -12148106.85347  22185330.211    22185330.3474   22185332.4854
        45.3004         42.5004
  -8743719.03545  -6798575.85447  22344243.304    22344243.2394   22344245.7304
        45.3004         42.5004
  -5016779.08245  -3892226.68647  22080828.644    22080828.8884   22080834.4544
        45.6004         43.0004
 -21550671.36946 -16781365.27647  20781376.533    20781376.1854   20781376.5204
        48.9004         46.3004
  -3116701.04843  -2416480.65246  23787150.447    23787149.8114   23787153.2724
        40.1004         37.4004
  -9963681.73145  -7487079.12646  22272654.480    22272652.7924   22272654.0674
        44.6004         41.8004
 -18797319.64347 -14634811.51847  20794578.712    20794578.7564   20794583.2334
        49.6004         46.8004
 -13453516.21045 -10464287.62347  21657148.957    21657148.4214   21657152.5614
        46.3004         43.5004
  -3870714.28244  -3000043.95546  23175252.855    23175252.6144   23175260.3974
        41.1004         38.3004
 16  6  9  0 11  0.0000000  0  9G19G17G 6G23G31G22G 3G 9G 1
 -15597373.52245 -12131591.63347  22189363.359    22189362.3254   22189365.0834
        45.5004         42.5004
  -8685327.12145  -6753075.68947  22355353.922    22355354.7944   22355356.2244
        45.1004         42.1004
  -5097646.64745  -3955240.35747  22065440.254    22065440.5544   22065445.3184
        45.8004         43.0004
 -21581685.00846 -16805531.73947  20775474.987    20775474.6524   20775475.1024
        49.1004         46.3004
  -3072898.33543  -2382348.69446  23795484.849    23795486.3444   23795487.6864
        40.3004         37.8004
  -9890295.92545  -7429895.38546  22286618.661    22286617.8564   22286617.6644
        44.4004         41.4004
 -18753223.91447 -14600451.21147  20802969.472    20802970.1124   20802974.5394
        49.6004         46.8004
 -13536468.74546 -10528925.93747  21641363.019    21641362.9844   21641367.3034
        46.5004         43.7004
  -3769031.01944  -2920810.27746  23194604.249    23194603.6814   23194609.9364
        40.9004         38.3004
 16  6  9  0 11 30.0000000  0  9G19G17G 6G23G31G22G 3G 9G 1
 -15575561.71845 -12114595.42147  22193514.337    22193513.2044   22193516.6564
        45.6004         43.2004
  -8626461.27045  -6707206.21547  22366557.080    22366556.6874   22366559.8824
        45.1004         42.5004
  -5178206.24945  -4018014.06647  22050111.196    22050111.1144   22050116.0114
        46.0004         43.2004
 -21612223.56246 -16829328.00947  20769663.422    20769663.1024   20769663.8274
        49.1004         46.5004
  -3028550.40944  -2347791.87946  23803925.444    23803926.4554   23803927.9124
        40.6004         38.1004
  -9816723.28645  -7372566.06846  22300618.830    22300618.4944   22300619.1214
        44.4004         41.8004
 -18708820.84947 -14565851.42647  20811419.025    20811419.6444   20811424.0044
        49.6004         46.8004
 -13619053.23745 -10593277.48147  21625647.203    21625647.3114   21625651.4894
        46.3004         43.5004
  -3667138.89944  -2841413.83946  23213991.236    23213992.2524   23213998.5774
        40.6004         37.9004
 16  6  9  0 12  0.0000000  0  9G19G17G 6G23G31G22G 3G 9G 1
 -15553134.04145 -12097119.30747  22197782.668    22197781.6744   22197783.9074
        45.8004         43.2004
  -8567123.23945  -6660968.80546  22377847.699    22377847.3294   22377850.9824
        44.9004         41.9004
  -5258455.56545  -4080545.98547  22034839.591    22034839.9184   22034845.4604
        46.2004         43.5004
 -21642287.35946 -16852754.33647  20763942.419    20763942.0634   20763942.8074
        49.1004         46.5004
  -2983658.78444  -2312811.42246  23812468.139    23812468.0824   23812471.3984
        40.8004         38.3004
  -9742964.78145  -7315091.91846  22314654.795    22314653.4844   22314655.1794
        44.2004         41.4004
 -18664111.17447 -14531012.71547  20819927.509    20819927.5844   20819932.0064
        49.6004         46.8004
 -13701268.08445 -10657340.98447  21610002.785    21610001.9384   21610006.7214
        46.3004         43.5004
  -3565039.52043  -2761855.88846  23233420.443    23233420.8954   23233428.0354
        40.4004         37.8004
 16  6  9  0 12 30.0000000  0  9G19G17G 6G23G31G22G 3G 9G 1
 -15530091.39645 -12079164.00747  22202166.874    22202165.9514   22202168.3634
        45.8004         42.8004
  -8507315.43745  -6614365.33446  22389228.683    22389228.5004   22389231.3524
        44.8004         41.8004
  -5338392.31845  -4142834.34147  22019627.756    22019628.6844   22019634.4494
        46.2004         43.2004
 -21671875.80846 -16875810.26047  20758311.939    20758311.4574   20758312.2864
        49.1004         46.5004
  -2938225.14444  -2277408.61446  23821113.641    23821114.5304   23821116.2924
        40.9004         38.5004
  -9669021.09945  -7257473.47146  22328725.204    22328724.6744   22328726.2634
        44.2004         41.6004
 -18619095.56647 -14495935.62747  20828493.643    20828493.8334   20828498.3304
        49.6004         46.8004
 -13783111.68245 -10721115.19347  21594427.809    21594428.0694   21594432.5494
        46.3004         43.3004
  -3462734.53143  -2682137.73246  23252888.934    23252889.8924   23252897.7794
        40.4004         37.9004
 16  6  9  0 13  0.0000000  0  9G19G17G 6G23G31G22G 3G 9G 1
 -15506434.93945 -12060730.39947  22206669.246    22206667.8684   22206670.0264
        45.6004         42.8004
  -8447040.22545  -6567397.66446  22400698.627    22400698.6994   22400701.2484
        44.6004         41.8004
  -5418014.17945  -4204877.31347  22004475.691    22004476.1934   22004482.0674
        46.0004         43.0004
 -21700988.66946 -16898495.60047  20752771.928    20752771.5494   20752772.2894
        49.3004         46.5004
  -2892250.81144  -2241584.47846  23829863.250    23829862.5234   23829864.7414
        40.9004         38.3004
  -9594892.83845  -7199711.21746  22342832.596    22342830.4734   22342832.2644
        44.2004         41.6004
 -18573774.71147 -14460620.68047  20837117.963    20837118.3694   20837122.3574
        49.6004         46.8004
 -13864582.39245 -10784598.84647  21578924.827    21578924.8484   21578929.1634
        46.3004         43.7004
  -3360225.62543  -2602260.67146  23272397.799    23272396.3314   23272402.7574
        40.3004         37.8004
 16  6  9  0 13 30.0000000  0  9G19G17G 6G23G31G22G 3G 9G 1
 -15482165.77345 -12041819.36347  22211286.246    22211285.2174   22211287.9254
        45.3004         42.3004
  -8386299.93845  -6520067.58246  22412257.284    22412257.9994   22412260.5074
        44.6004         41.9004
  -5497318.86045  -4266673.13247  21989385.142    21989385.8364   21989390.7754
        45.8004         43.0004
 -21729625.75546 -16920810.20347  20747322.486    20747322.1664   20747322.7674
        49.3004         46.5004
  -2845737.32444  -2205340.19946  23838713.004    23838714.2694   23838715.9524
        40.8004         38.3004
  -9520580.64445  -7141805.63046  22356973.155    22356972.6454   22356973.5264
        44.2004         41.4004
 -18528149.31647 -14425068.43347  20845799.548    20845800.5974   20845804.8194
        49.6004         47.0004
 -13945678.63846 -10847790.71347  21563492.495    21563492.5954   21563497.1524
        46.5004         43.7004
  -3257514.43843  -2522225.99846  23291940.774    23291941.9824   23291948.7994
        40.3004         37.8004
 16  6  9  0 14  0.0000000  0  9G19G17G 6G23G31G22G 3G 9G 1
 -15457285.06545 -12022431.80547  22216022.030    22216020.9374   22216022.5224
        45.1004         42.5004
  -8325096.72645  -6472376.79146  22423904.349    22423903.8324   22423906.3204
        44.4004         41.2004
  -5576304.00645  -4328219.98547  21974355.271    21974355.5024   21974360.5854
        45.8004         43.2004
 -21757786.70246 -16942753.78747  20741963.660    20741963.2644   20741963.6794
        49.1004         46.3004
  -2798686.27644  -2168677.05446  23847666.642    23847666.8544   23847670.0024
        40.6004         37.9004
  -9446085.39145  -7083757.40246  22371149.540    22371147.9504   22371149.4314
        44.2004         41.4004
 -18482220.06247 -14389279.40347  20854540.053    20854540.6334   20854544.8784
        49.6004         46.8004
 -14026398.82746 -10910689.55247  21548132.848    21548132.6624   21548137.1274
        46.7004         44.0004
  -3154602.64143  -2442034.99346  23311525.788    23311525.7374   23311531.8674
        40.1004         37.6004
 16  6  9  0 14 30.0000000  0  9G19G17G 6G23G31G22G 3G 9G 1
 -15431794.15645 -12002568.76047  22220872.729    22220871.7664   22220872.7794
        45.3004         42.6004
  -8263433.03245  -6424327.18546  22435637.697    22435637.7474   22435640.8094
        44.2004         41.4004
  -5654967.36045  -4389516.07947  21959385.420    21959386.1104   21959390.9024
        45.8004         43.2004
 -21785471.14446 -16964326.06947  20736694.962    20736695.0014   20736695.4714
        49.1004         46.3004
  -2751099.19144  -2131596.20246  23856723.914    23856722.4764   23856725.3734
        40.6004         38.1004
  -9371407.72145  -7025567.03346  22385360.711    22385359.0664   22385359.9974
        44.2004         41.4004
 -18435987.63747 -14353254.13547  20863338.339    20863338.6224   20863342.5144
        49.8004         47.0004
 -14106741.37246 -10973294.12147  21532843.940    21532843.5664   21532847.9544
        46.7004         43.9004
  -3051491.88843  -2361688.96946  23331147.462    23331146.8364   23331153.0164
        40.1004         37.3004
 16  6  9  0 15  0.0000000  0  9G19G17G 6G23G31G22G 3G 9G 1
 -15405694.10345 -11982231.04847  22225839.251    22225838.3054   22225839.9434
        45.8004         43.0004
  -8201310.86945  -6375920.32346  22447458.965    22447459.5474   22447463.0344
        44.4004         41.8004
  -5733306.58545  -4450559.61247  21944478.807    21944478.4044   21944483.8084
        46.0004         43.3004
 -21812678.92146 -16985526.92747  20731517.962    20731517.8864   20731518.1274
        49.3004         46.5004
  -2702977.73543  -2094098.96346  23865878.880    23865879.6494   23865883.3314
        40.4004         37.9004
  -9296548.36945  -6967235.10246  22399604.742    22399603.6784   22399605.5034
        44.2004         41.4004
 -18389452.76447 -14316993.19747  20872193.023    20872193.8944   20872198.1404
        49.8004         47.0004
 -14186704.72346 -11035603.21347  21517626.920    21517626.8974   21517631.3334
        46.7004         43.9004
  -2948183.93043  -2281189.26946  23350804.600    23350806.0214   23350812.3814
        40.1004         37.6004
 16  6  9  0 15 30.0000000  0  9G19G17G 6G23G31G22G 3G 9G 1
 -15378986.12345 -11961419.63247  22230921.619    22230920.8134   22230922.3634
        46.0004         43.2004
  -8138733.14445  -6327158.46646  22459367.375    22459367.5754   22459370.5964
        44.4004         41.6004
  -5811319.36845  -4511348.78347  21929633.585    21929633.8344   21929638.5544
        46.0004         43.5004
 -21839409.94946 -17006356.29247  20726431.473    20726430.9334   20726431.1874
        49.3004         46.5004
  -2654323.42243  -2056186.53046  23875137.900    23875137.6034   23875140.3364
        40.3004         37.8004
  -9221508.06045  -6908762.16746  22413885.884    22413883.3014   22413884.9394
        44.2004         41.2004
 -18342616.10747 -14280497.11147  20881106.396    20881106.4514   20881110.8924
        49.8004         46.8004
 -14266287.31746 -11097615.61347  21502482.207    21502483.1284   21502487.4394
        46.9004         44.0004
  -2844680.36443  -2200537.15846  23370503.235    23370502.1504   23370507.6774
        39.9004         37.3004
 16  6  9  0 16  0.0000000  0  9G19G17G 6G23G31G22G 3G 9G 1
 -15351671.64845 -11940135.62147  22236119.786    22236118.7614   22236119.6354
        46.0004         43.0004
  -8075702.32845  -6278043.57646  22471361.762    22471361.5034   22471364.4134
        44.4004         41.6004
  -5889003.40345  -4571881.77647  21914850.420    21914850.6044   21914855.7994
        46.3004         43.7004
 -21865663.67646 -17026813.74247  20721435.331    20721434.9144   20721435.2024
        49.3004         46.5004
  -2605137.84643  -2017860.12046  23884499.411    23884500.4014   23884501.1134
        40.1004         37.8004
  -9146287.25245  -6850148.56446  22428197.816    22428197.5054   22428198.9054
        43.9004         41.1004
 -18295478.38447 -14243766.42147  20890076.041    20890076.1694   20890080.6714
        49.6004         46.8004
 -14345487.61246 -11159330.12147  21487411.844    21487411.5624   21487416.3334
        46.9004         44.0004
  -2740982.90543  -2119733.95146  23390234.401    23390235.6614   23390240.7364
        39.7004         37.3004
 16  6  9  0 16 30.0000000  0  9G19G17G 6G23G31G22G 3G 9G 1
 -15323751.59345 -11918379.73247  22241433.392    22241431.5894   22241433.0844
        45.8004         42.8004
  -8012220.50245  -6228577.24946  22483442.096    22483442.7144   22483445.2074
        44.4004         41.6004
  -5966356.36645  -4632156.79347  21900130.412    21900130.7784   21900136.0344
        46.3004         43.5004
 -21891440.17646 -17046899.31847  20716530.461    20716530.2264   20716530.4734
        49.3004         46.5004
  -2555422.75043  -1979121.10946  23893960.730    23893959.6994   23893960.8964
        40.3004         37.8004
  -9070886.93545  -6791395.08346  22442546.617    22442546.0304   22442547.6394
        43.9004         41.1004
 -18248040.28346 -14206801.67847  20899102.832    20899103.1574   20899108.0814
        49.5004         46.6004
 -14424304.03946 -11220745.49547  21472413.395    21472413.6694   21472417.8364
        47.0004         44.2004
  -2637093.25543  -2038780.96346  23410003.920    23410004.0724   23410010.4774
        39.6004         36.9004
 16  6  9  0 17  0.0000000  0  9G19G17G 6G23G31G22G 3G 9G 1
 -15295227.54445 -11896153.18647  22246860.244    22246859.7334   22246861.5274
        45.6004         42.8004
  -7948290.28445  -6178761.49247  22495608.068    22495607.8354   22495611.3934
        44.6004         42.1004
  -6043375.96345  -4692172.05347  21885474.514    21885474.4714   21885479.8554
        46.2004         43.3004
 -21916739.28446 -17066612.89247  20711716.146    20711715.4844   20711715.8594
        49.3004         46.5004
  -2505179.70343  -1939970.72046  23903519.761    23903520.3774   23903521.8074
        40.3004         37.8004
  -8995307.83245  -6732502.30946  22456929.763    22456928.3464   22456929.3164
        43.9004         41.2004
 -18200302.47646 -14169603.39647  20908187.113    20908187.5474   20908192.3034
        49.5004         46.6004
 -14502735.10346 -11281860.59547  21457488.371    21457488.2794   21457492.7974
        47.0004         44.2004
  -2533013.06243  -1957679.54946  23429813.259    23429811.1234   23429815.8844
        39.4004         36.9004
 16  6  9  0 17 30.0000000  0  9G19G17G 6G23G31G22G 3G 9G 1
 -15266101.12145 -11873457.28647  22252403.232    22252402.1944   22252404.1104
        45.8004         43.0004
  -7883913.71145  -6128597.94647  22507858.851    22507858.8524   22507862.4484
        44.8004         42.1004
  -6120059.85145  -4751925.71647  21870881.038    21870882.0394   21870886.7934
        46.0004         43.2004
 -21941560.78746 -17085954.31347  20706992.607    20706992.3824   20706992.4624
        49.3004         46.5004
  -2454410.60243  -1900410.40946  23913182.425    23913182.3304   23913183.3024
        40.4004         37.9004
  -8919550.64045  -6673470.75446  22471345.645    22471344.7534   22471346.2144
        43.9004         41.1004
 -18152265.69046 -14132172.14247  20917327.583    20917328.3024   20917333.4144
        49.3004         46.5004
 -14580779.29146 -11342674.22547  21442637.050    21442637.3254   21442641.4154
        47.0004         44.0004
  -2428744.06743  -1876430.98946  23449652.204    23449651.6174   23449658.4014
        39.0004         36.7004
 16  6  9  0 18  0.0000000  0  9G19G17G 6G23G31G22G 3G 9G 1
 -15236373.41445 -11850292.84847  22258060.015    22258059.2694   22258060.6744
        45.8004         43.0004
  -7819093.54545  -6078088.75346  22520194.169    22520194.0234   22520197.3794
        44.6004         41.8004
  -6196405.74945  -4811416.00947  21856353.160    21856354.0774   21856358.7774
        46.0004         43.2004
 -21965904.60446 -17104923.50947  20702360.663    20702359.7614   20702360.0314
        49.3004         46.6004
  -2403116.62944  -1860441.06946  23922943.661    23922943.3634   23922943.1294
        40.6004         37.9004
  -8843616.12745  -6614301.02446  22485794.525    22485793.9264   22485795.2634
        43.7004         40.9004
 -18103930.58946 -14094508.42747  20926525.731    20926526.2104   20926531.1394
        49.3004         46.5004
 -14658435.12046 -11403185.23947  21427860.036    21427859.6904   21427864.3564
        46.9004         44.0004
  -2324287.93543  -1795036.62146  23469530.048    23469528.7244   23469535.9004
        38.9004         36.7004
 16  6  9  0 18 30.0000000  0  9G19G17G 6G23G31G22G 3G 9G 1
 -15206045.75745 -11826660.91947  22263831.053    22263830.1474   22263832.7124
        45.8004         42.8004
  -7753832.44845  -6027235.95646  22532612.870    22532612.7624   22532615.2894
        44.4004         41.4004
  -6272411.33345  -4870641.14247  21841889.606    21841890.3574   21841895.4084
        46.2004         43.5004
 -21989770.59846 -17123520.38447  20697818.680    20697818.2254   20697818.6244
        49.3004         46.6004
  -2351300.33644  -1820064.72246  23932803.992    23932803.9644   23932804.2164
        40.6004         37.9004
  -8767504.99345  -6554993.65946  22500278.475    22500278.1664   22500278.9814
        43.7004         41.1004
 -18055297.89946 -14056612.83047  20935780.427    20935780.7574   20935785.5244
        49.1004         46.5004
 -14735701.03246 -11463392.42447  21413156.109    21413156.5464   21413160.5704
        46.9004         44.0004
  -2219646.36743  -1713497.74946  23489441.996    23489442.2164   23489448.7494
        38.9004         36.7004
 16  6  9  0 19  0.0000000  0  9G19G17G 6G23G31G22G 3G 9G 1
 -15175119.66145 -11802562.67147  22269715.789    22269715.1764   22269717.1064
        45.8004         42.8004
  -7688132.22345  -5976041.00446  22545115.039    22545114.3964   22545116.6944
        44.1004         41.1004
  -6348074.29845  -4929599.28947  21827491.226    21827492.0404   21827497.1824
        46.3004         43.7004
 -22013158.50046 -17141744.72047  20693367.862    20693367.5124   20693367.7894
        49.3004         46.5004
  -2298962.60244  -1779282.09646  23942763.639    23942763.7714   23942764.0644
        40.6004         37.9004
  -8691217.54845  -6495548.92146  22514796.165    22514794.5344   22514796.4674
        43.9004         40.9004
 -18006368.29746 -14018485.87547  20945091.679    20945092.0354   20945096.4834
        49.1004         46.3004
 -14812575.59746 -11523294.67847  21398527.655    21398527.5254   21398531.7434
        47.0004         44.2004
  -2114821.10843  -1631815.72346  23509387.081    23509390.2384   23509395.0034
        39.0004         36.6004
 16  6  9  0 19 30.0000000  0  9G19G17G 6G23G31G22G 3G 9G 1
 -15143596.39845 -11777999.08147  22275714.808    22275713.7794   22275715.7374
        45.6004         42.6004
  -7621996.04945  -5924506.35146  22557698.958    22557699.7124   22557702.5124
        43.6004         40.7004
  -6423392.32146  -4988288.64647  21813159.035    21813159.6744   21813165.3734
        46.7004         44.0004
 -22036068.41746 -17159596.59847  20689008.345    20689008.3234   20689008.3184
        49.3004         46.5004
  -2246105.64943  -1738094.89146  23952820.133    23952820.1334   23952822.2954
        40.3004         37.6004
  -8614754.85845  -6435967.63046  22529346.301    22529345.0534   22529346.2694
        43.7004         40.9004
 -17957142.47446 -13980128.09247  20954459.081    20954459.3714   20954463.7474
        49.1004         46.3004
 -14889057.31446 -11582890.81047  21383974.013    21383973.9184   21383977.8244
        47.2004         44.2004
  -2009813.78943  -1549991.85046  23529372.154    23529371.8034   23529378.5734
        39.0004         36.7004
 16  6  9  0 20  0.0000000  0  9G19G17G 6G23G31G22G 3G 9G 1
 -15111477.54445 -11752971.40847  22281826.421    22281825.7964   22281828.0044
        45.5004         42.6004
  -7555426.16345  -5872633.72446  22570367.238    22570367.1324   22570370.1084
        43.6004         41.1004
  -6498363.10346  -5046707.43647  21798892.249    21798892.6754   21798899.1864
        46.7004         43.9004
 -22058500.21446 -17177075.90847  20684739.942    20684739.5454   20684739.4344
        49.3004         46.5004
  -2192731.16143  -1696504.39846  23962976.650    23962977.2714   23962978.5574
        40.1004         37.8004
  -8538117.47245  -6376250.18346  22543928.485    22543928.1234   22543930.3384
        43.7004         40.9004
 -17907621.14546 -13941540.05247  20963883.039    20963883.2884   20963887.4324
        49.1004         46.5004
 -14965144.73546 -11642179.69147  21369494.411    21369494.8024   21369499.2284
        47.2004         44.2004
  -1904626.15843  -1468027.48946  23549391.204    23549389.0804   23549394.6134
        39.0004         36.7004
 16  6  9  0 20 30.0000000  0  9G19G17G 6G23G31G22G 3G 9G 1
 -15078764.76445 -11727480.94247  22288052.171    22288051.3024   22288052.7174
        45.6004         43.0004
  -7488425.36045  -5820425.32246  22583117.454    22583118.4904   22583120.3804
        43.7004         41.1004
  -6572984.35046  -5104853.84547  21784692.108    21784692.7494   21784698.1614
        46.5004         43.5004
 -22080453.82446 -17194182.61247  20680562.342    20680561.7094   20680561.8364
        49.3004         46.5004
  -2138840.90343  -1654512.00946  23973233.184    23973233.5484   23973234.0964
        40.4004         37.9004
  -8461306.16745  -6316397.24346  22558547.181    22558545.6934   22558546.8244
        43.7004         41.1004
 -17857804.99146 -13902722.28247  20973362.277    20973362.7584   20973367.1424
        49.1004         46.3004
 -15040836.39046 -11701160.19447  21355090.832    21355090.6734   21355095.7474
        47.2004         44.5004
  -1799259.96943  -1385923.98246  23569439.314    23569438.9694   23569446.6204
        39.0004         36.7004
 16  6  9  0 21  0.0000000  0  9G19G17G 6G23G31G22G 3G 9G 1
 -15045459.15545 -11701528.51847  22294389.468    22294388.6124   22294391.2844
        45.6004         42.8004
  -7420995.80445  -5767882.84646  22595949.231    22595948.9894   22595951.2304
        43.7004         41.1004
  -6647253.70846  -5162726.06247  21770559.276    21770559.9484   21770565.5914
        46.5004         43.9004
 -22101929.12746 -17210916.60647  20676475.649    20676474.8944   20676475.4744
        49.5004         46.6004
  -2084436.62143  -1612119.08146  23983586.414    23983586.4574   23983586.6254
        40.4004         37.8004
  -8384321.34145  -6256409.08546  22573196.556    22573195.4254   22573196.4844
        43.7004         40.9004
 -17807694.73646 -13863675.33147  20982898.160    20982898.1364   20982902.9604
        49.1004         46.3004
 -15116130.81446 -11759831.15847  21340762.726    21340762.8544   21340767.8354
        47.4004         44.5004
  -1693716.88143  -1303682.62446  23589521.795    23589524.2244   23589530.5064
        39.2004         36.7004
 16  6  9  0 21 30.0000000  0  9G19G17G 6G23G31G22G 3G 9G 1
 -15011563.22445 -11675116.11347  22300839.293    22300838.8084   22300841.1774
        45.6004         42.8004
  -7353140.23245  -5715008.39346  22608861.481    22608861.8144   22608864.0084
        43.9004         41.2004
  -6721168.91546  -5220322.31047  21756493.787    21756493.4694   21756499.8714
        46.5004         43.5004
 -22122926.08146 -17227277.86447  20672479.641    20672479.4714   20672479.7554
        49.5004         46.6004
  -2029520.21043  -1569327.09946  23994034.874    23994035.2614   23994036.6244
        40.1004         37.6004
  -8307164.18145  -6196286.63946  22587877.940    22587877.9944   22587879.2454
        43.6004         40.7004
 -17757291.03246 -13824399.72847  20992489.794    20992489.7764   20992494.5454
        49.1004         46.3004
 -15191026.62046 -11818191.52047  21326510.250    21326510.6594   21326515.5474
        47.5004         44.7004
  -1587998.65843  -1221304.80746  23609640.176    23609639.8424   23609648.5304
        39.0004         36.7004
 16  6  9  0 22  0.0000000  0  9G19G17G 6G23G31G22G 3G 9G 1
 -14977077.57845 -11648244.18347  22307402.679    22307401.8224   22307403.7404
        45.6004         42.8004
  -7284861.02745  -5661803.81746  22621854.081    22621854.5104   22621857.1684
        44.1004         41.4004
  -6794727.64446  -5277640.79047  21742495.367    21742496.1874   21742502.1434
        46.5004         43.7004
 -22143444.44146 -17243266.18747  20668574.887    20668574.6704   20668575.7974
        49.5004         46.8004
  -1974093.41443  -1526137.42846  24004582.796    24004583.4534   24004584.1254
        40.1004         37.6004
  -8229835.08445  -6136030.21546  22602593.594    22602592.0234   22602593.9174
        43.6004         40.7004
 -17706594.60746 -13784896.01747  21002136.403    21002137.0304   21002142.1134
        49.1004         46.3004
 -15265522.38346 -11876240.14147  21312334.411    21312334.4244   21312339.3144
        47.5004         44.7004
  -1482106.95443  -1138791.81846  23629792.527    23629790.8054   23629798.0714
        38.9004         36.2004
 16  6  9  0 22 30.0000000  0  9G19G17G 6G23G31G22G 3G 9G 1
 -14942003.68745 -11620913.89047  22314077.084    22314075.5964   22314077.7554
        45.5004         42.5004
  -7216160.91345  -5608271.28146  22634927.997    22634928.4664   22634930.1664
        44.1004         41.4004
  -6867927.58946  -5334679.71147  21728566.444    21728566.9194   21728572.9694
        46.5004         43.9004
 -22163484.33646 -17258881.68847  20664762.075    20664761.5274   20664761.8834
        49.5004         46.8004
  -1918158.43243  -1482551.75146  24015227.141    24015227.7184   24015228.1654
        39.9004         37.4004
  -8152334.68244  -6075640.30846  22617341.828    22617340.5834   22617341.5164
        43.4004         40.6004
 -17655606.16446 -13745164.77047  21011839.668    21011839.9224   21011844.7044
        49.1004         46.3004
 -15339616.70446 -11933975.95147  21298235.449    21298235.2194   21298239.6994
        47.7004         44.9004
  -1376043.58043  -1056145.05846  23649975.277    23649974.5194   23649981.3744
        38.5004         36.0004
 16  6  9  0 23  0.0000000  0  9G19G17G 6G23G31G22G 3G 9G 1
 -14906343.48445 -11593126.72147  22320862.368    22320861.0064   22320863.4214
        45.1004         42.3004
  -7147042.62045  -5554412.89246  22648081.629    22648081.5334   22648083.4944
        44.2004         41.6004
  -6940766.45346  -5391437.25347  21714705.358    21714706.0964   21714711.5804
        46.5004         43.7004
 -22183046.15646 -17274124.65447  20661039.135    20661038.7774   20661039.1284
        49.5004         46.6004
  -1861717.00943  -1438571.44246  24025967.537    24025967.4474   24025967.3114
        39.4004         36.9004
  -8074664.12244  -6015117.81746  22632122.155    22632121.1924   22632122.1544
        43.4004         40.6004
 -17604326.37746 -13705206.50547  21021597.522    21021598.0134   21021602.7534
        49.1004         46.3004
 -15413308.17346 -11991397.86047  21284211.452    21284211.5964   21284217.0064
        47.7004         44.9004
  -1269810.25043   -973365.86946  23670190.413    23670188.8214   23670196.8974
        38.5004         36.2004
 16  6  9  0 23 30.0000000  0  9G19G17G 6G23G31G22G 3G 9G 1
 -14870098.82345 -11564884.13147  22327758.923    22327758.6954   22327760.9384
        45.3004         42.6004
  -7077508.25045  -5500230.27246  22661312.162    22661312.7054   22661315.6034
        44.2004         41.4004
  -7013241.94346  -5447911.64747  21700913.589    21700914.5164   21700920.0244
        46.5004         43.7004
 -22202129.71646 -17288994.95147  20657407.489    20657407.1914   20657407.7754
        49.5004         46.8004
  -1804770.64843  -1394197.67346  24036804.690    24036803.5564   24036805.8324
        39.4004         36.9004
  -7996823.51244  -5954462.81346  22646933.899    22646934.0284   22646934.6274
        43.4004         40.7004
 -17552755.94946 -13665021.76547  21031411.267    21031411.7444   21031416.5374
        49.1004         46.5004
 -15486595.39946 -12048504.77247  21270265.552    21270265.5794   21270270.7624
        47.7004         44.9004
  -1163408.67643   -890455.59346  23690436.640    23690436.6874   23690443.4764
        38.5004         36.0004
 16  6  9  0 24  0.0000000  0  9G19G17G 6G23G31G22G 3G 9G 1
 -14833270.96645 -11536187.11547  22334768.604    22334767.1754   22334770.1974
        45.6004         43.0004
  -7007560.80145  -5445725.78146  22674622.823    22674622.7114   22674626.0734
        44.1004         40.9004
  -7085351.74146  -5504101.09747  21687192.088    21687192.7054   21687197.9274
        46.5004         43.9004
 -22220734.90446 -17303492.49147  20653867.638    20653867.2014   20653867.4604
        49.5004         46.8004
  -1747321.34343  -1349432.01946  24047735.458    24047735.5374   24047736.7964
        39.2004         36.7004
  -7918813.75644  -5893676.01546  22661779.421    22661778.4704   22661779.9184
        43.4004         40.7004
 -17500895.58146 -13624611.09547  21041280.338    21041280.8484   21041285.0884
        49.1004         46.5004
 -15559476.99246 -12105295.61247  21256396.726    21256396.7404   21256401.6414
        47.7004         44.7004
  -1056840.56343   -807415.52546  23710715.508    23710716.7754   23710723.2374
        38.5004         36.2004
 16  6  9  0 24 30.0000000  0  9G19G17G 6G23G31G22G 3G 9G 1
 -14795862.03445 -11507037.30147  22341887.177    22341886.1824   22341887.8974
        45.8004         43.0004
  -6937203.01845  -5390901.54646  22688011.150    22688010.6864   22688014.0534
        43.6004         40.6004
  -7157093.57046  -5560003.80947  21673540.240    21673540.5294   21673545.8904
        46.7004         43.9004
 -22238861.76747 -17317617.31947  20650417.956    20650417.6464   20650418.1304
        49.6004         47.0004
  -1689371.28843  -1304276.11546  24058761.825    24058761.9304   24058764.5984
        39.2004         37.1004
  -7840635.49044  -5832757.90046  22676657.332    22676655.4674   22676656.9224
        43.4004         40.6004
 -17448745.95746 -13583975.03147  21051204.110    21051204.5374   21051208.9154
        49.1004         46.3004
 -15631951.62246 -12161769.33247  21242605.522    21242605.4894   21242609.6274
        47.7004         44.7004
   -950107.72443   -724247.08846  23731025.488    23731027.5214   23731033.6114
        38.5004         36.4004
 16  6  9  0 25  0.0000000  0  9G19G17G 6G23G31G22G 3G 9G 1
 -14757873.62945 -11477435.94047  22349115.361    22349115.1024   22349116.3474
        45.5004         42.5004
  -6866437.44644  -5335759.55046  22701477.712    22701478.3404   22701480.7124
        43.4004         40.7004
  -7228465.11946  -5615617.99147  21659958.509    21659958.9884   21659964.7264
        46.9004         44.0004
 -22256510.50247 -17331369.57647  20647059.262    20647059.2754   20647059.6664
        49.6004         47.0004
  -1630922.44143  -1258731.57946  24069885.663    24069885.7894   24069888.4204
        39.6004         37.3004
  -7762289.65844  -5771709.20646  22691564.764    22691564.4464   22691565.3424
        43.4004         40.7004
 -17396307.78446 -13543114.12247  21061182.478    21061183.1324   21061187.2654
        49.1004         46.3004
 -15704017.89446 -12217924.85047  21228891.174    21228891.4344   21228895.5464
        47.5004         44.7004
   -843211.81343   -640951.59946  23751368.777    23751368.2924   23751374.8354
        38.3004         36.0004
 16  6  9  0 25 30.0000000  0  9G19G17G 6G23G31G22G 3G 9G 1
 -14719307.24845 -11447384.21347  22356453.775    22356453.4604   22356455.8164
        45.3004         42.5004
  -6795266.63145  -5280301.78846  22715021.491    22715021.5164   22715025.1474
        43.6004         40.9004
  -7299464.09946  -5670941.85147  21646447.715    21646448.4974   21646453.7844
        46.9004         44.0004
 -22273681.20347 -17344749.33947  20643791.914    20643791.2494   20643792.1804
        49.6004         46.8004
  -1571976.65343  -1212799.80646  24081103.946    24081102.8244   24081104.5124
        39.7004         37.4004
  -7683776.77844  -5710530.35046  22706506.401    22706504.7404   22706505.9634
        43.4004         40.6004
 -17343581.78246 -13502028.93147  21071215.817    21071216.0474   21071220.9844
        49.1004         46.1004
 -15775674.52246 -12273761.16847  21215255.234    21215255.7374   21215260.3454
        47.5004         44.7004
   -736154.67543   -557530.48146  23771742.867    23771742.4734   23771747.8694
        38.3004         36.0004
 16  6  9  0 26  0.0000000  0  9G19G17G 6G23G31G22G 3G 9G 1
 -14680164.52445 -11416883.40847  22363903.752    22363902.3414   22363904.1204
        45.3004         42.6004
  -6723693.05744  -5224530.19946  22728640.856    22728641.5284   22728644.5324
        43.4004         40.6004
  -7370088.22246  -5725973.63447  21633008.964    21633009.2794   21633014.5814
        46.9004         44.0004
 -22290373.82047 -17357756.57047  20640615.424    20640615.1664   20640615.4334
        49.6004         46.8004
  -1512535.79743  -1166482.27646  24092414.666    24092414.0554   24092415.9724
        39.4004         37.1004
  -7605097.59545  -5649221.89846  22721477.013    22721476.4264   22721477.9564
        43.6004         40.7004
 -17290568.64646 -13460719.99647  21081303.794    21081304.2574   21081309.0394
        48.9004         46.1004
 -15846920.13746 -12329277.21347  21201697.865    21201697.9344   21201703.0694
        47.7004         44.9004
   -628938.01543   -473985.05245  23792142.374    23792143.8864   23792150.3754
        38.2004         35.9004
 16  6  9  0 26 30.0000000  0  9G19G17G 6G23G31G22G 3G 9G 1
 -14640447.33145 -11385934.95647  22371461.410    22371460.1104   22371461.8424
        45.1004         42.1004
  -6651719.70244  -5168447.08746  22742336.529    22742336.7644   22742339.9174
        43.4004         40.6004
  -7440335.20246  -5780711.53047  21619640.945    21619641.9064   21619647.1184
        46.9004         44.0004
 -22306588.43046 -17370391.32447  20637529.848    20637529.4684   20637529.7364
        49.5004         46.8004
  -1452601.90343  -1119780.54546  24103819.066    24103819.1394   24103821.1894
        39.2004         36.9004
  -7526252.73044  -5587784.35146  22736481.349    22736479.8394   22736481.6324
        43.4004         40.6004
 -17237269.04046 -13419187.85147  21091446.403    21091446.6234   21091451.4254
        48.9004         45.9004
 -15917753.42046 -12384471.96647  21188219.264    21188219.1734   21188223.8324
        47.9004         45.1004
   -521563.51743   -390316.63245  23812575.662    23812575.3324   23812583.6764
        37.8004         35.5004
 16  6  9  0 27  0.0000000  0  9G19G17G 6G23G31G22G 3G 9G 1
 -14600157.71645 -11354540.44747  22379127.994    22379126.4384   22379128.4404
        44.9004         42.1004
  -6579349.18045  -5112054.50546  22756109.503    22756109.8334   22756112.1034
        43.7004         41.1004
  -7510202.74946  -5835153.77047  21606345.594    21606346.3064   21606351.9054
        47.0004         44.2004
 -22322325.12646 -17382653.67747  20634535.295    20634534.8834   20634535.3744
        49.5004         46.8004
  -1392176.98843  -1072696.26546  24115315.170    24115316.9054   24115320.0624
        39.0004         36.7004
  -7447242.86844  -5526218.23846  22751516.012    22751514.7894   22751517.4514
        43.4004         40.4004
 -17183683.66246 -13377433.02247  21101643.212    21101643.5714   21101648.4304
        48.9004         46.1004
 -15988173.06746 -12439344.40347  21174818.641    21174818.7994   21174823.2684
        47.9004         45.1004
   -414033.00242   -306526.66245  23833042.428    23833039.2604   23833044.6804
        37.5004         35.3004
 16  6  9  0 27 30.0000000  0  9G19G17G 6G23G31G22G 3G 9G 1
 -14559297.41045 -11322701.25447  22386903.809    22386902.2844   22386903.8454
        44.9004         42.3004
  -6506584.10145  -5055354.47746  22769955.401    22769955.5004   22769958.5714
        43.7004         41.1004
  -7579688.59646  -5889298.59047  21593122.876    21593123.8844   21593128.9224
        47.0004         44.2004
 -22337584.21647 -17394543.87747  20631631.530    20631631.1994   20631631.4504
        49.6004         46.8004
  -1331263.23843  -1025231.07246  24126907.969    24126908.1504   24126909.8324
        38.9004         36.6004
  -7368068.58144  -5464524.01246  22766583.249    22766582.2404   22766583.2134
        43.4004         40.7004
 -17129813.25046 -13335456.08147  21111894.494    21111894.9194   21111899.4854
        48.8004         45.9004
 -16058177.78346 -12493893.52747  21161496.765    21161497.1284   21161501.6944
        47.9004         45.2004
   -306348.16442   -222616.43045  23853532.863    23853531.2044   23853537.4324
        37.3004         35.2004
 16  6  9  0 28  0.0000000  0  9G19G17G 6G23G31G22G 3G 9G 1
 -14517867.86645 -11290418.51647  22394787.956    22394786.3234   22394787.6734
        44.9004         42.1004
  -6433427.48045  -4998349.34546  22783877.609    22783877.1474   22783880.2624
        43.9004         41.2004
  -7648790.44546  -5943144.17747  21579972.901    21579973.0854   21579979.5044
        47.0004         44.0004
 -22352365.74747 -17406061.95147  20628818.804    20628818.6514   20628818.7404
        49.6004         47.0004
  -1269862.51243   -977386.36346  24138593.107    24138593.7284   24138594.1334
        38.7004         36.4004
  -7288730.42044  -5402702.06746  22781680.253    22781679.2884   22781681.2104
        43.4004         40.7004
 -17075658.45846 -13293257.54447  21122199.363    21122200.1604   21122205.4054
        48.8004         45.9004
 -16127766.31346 -12548118.34847  21148254.800    21148255.1254   21148259.4914
        48.1004         45.2004
   -198510.85842   -138587.38745  23874050.382    23874051.1624   23874057.7994
        37.1004         35.2004
 16  6  9  0 28 30.0000000  0  9G19G17G 6G23G31G22G 3G 9G 1
 -14475871.30645 -11257693.93546  22402778.606    22402777.9784   22402779.6384
        44.6004         41.8004
  -6359881.62645  -4941040.91646  22797872.994    22797873.3394   22797876.2484
        44.2004         41.4004
  -7717506.00346  -5996688.76347  21566896.597    21566897.5394   21566903.2554
        47.0004         44.4004
 -22366669.55547 -17417207.77347  20626096.682    20626096.5524   20626096.7874
        49.6004         47.0004
  -1207976.93843   -929163.85446  24150370.155    24150370.6714   24150371.5904
        38.5004         36.4004
  -7209229.70644  -5340753.46646  22796809.333    22796807.5714   22796809.2334
        43.2004         40.4004
 -17021220.00946 -13250837.97647  21132559.083    21132559.4124   21132564.1234
        48.8004         45.9004
 -16196937.34046 -12602017.83547  21135092.407    21135092.2914   21135097.0184
        48.2004         45.4004
    -90522.83242    -54440.85345  23894593.025    23894598.0524   23894607.3374
        37.1004         35.0004
 16  6  9  0 29  0.0000000  0  9G19G17G 6G23G31G22G 3G 9G 1
 -14433309.66745 -11224529.02046  22410877.291    22410876.2554   22410878.1884
        44.2004         41.2004
  -6285949.48545  -4883431.46946  22811941.423    22811941.3264   22811944.2044
        44.2004         41.2004
  -7785833.04546  -6049930.61747  21553894.882    21553895.4454   21553900.9914
        47.0004         44.4004
 -22380496.47747 -17427981.99247  20623465.297    20623465.0824   20623465.6464
        49.6004         47.0004
  -1145608.46843   -880565.09445  24162237.761    24162238.2474   24162238.4184
        38.3004         35.9004
  -7129566.41344  -5278678.19046  22811967.647    22811967.3564   22811967.6824
        43.0004         40.0004
 -16966498.58746 -13208197.91847  21142972.504    21142972.9664   21142977.5124
        48.8004         45.9004
 -16265689.65846 -12655591.06147  21122008.898    21122009.4174   21122013.7024
        48.2004         45.4004
     17614.17842     29821.76145  23915177.181    23915178.3284   23915185.4844
        37.0004         35.0004
 16  6  9  0 29 30.0000000  0  9G19G17G 6G23G31G22G 3G 9G 1
 -14390184.59845 -11190925.07546  22419084.017    22419082.9154   22419085.5374
        44.2004         41.6004
  -6211633.63845  -4825523.04046  22826083.325    22826083.4264   22826085.6454
        43.9004         41.1004
  -7853769.29046  -6102867.93947  21540966.499    21540967.5834   21540973.0344
        47.0004         44.0004
 -22393846.45147 -17438384.56047  20620925.271    20620925.0114   20620925.3824
        49.8004         47.2004
  -1082759.13943   -831591.62946  24174197.097    24174197.4054   24174198.3174
        38.5004         36.6004
  -7049741.59044  -5216477.05546  22827159.531    22827157.5634   22827158.5974
        42.9004         40.0004
 -16911494.91746 -13165337.91347  21153439.208    21153439.5384   21153444.3984
        48.8004         45.8004
 -16334021.95846 -12708836.99947  21109005.896    21109005.7524   21109010.5254
        48.4004         45.4004
    125898.48442    114199.07545  23935785.729    23935783.8364   23935790.6624
        37.0004         35.0004
 16  6  9  0 30  0.0000000  0  9G19G17G 6G23G31G22G 3G 9G 1
 -14346497.84845 -11156883.46946  22427397.719    22427396.8194   22427398.3864
        44.6004         41.9004
  -6136936.89445  -4767317.83546  22840298.064    22840298.3394   22840300.7054
        43.9004         40.9004
  -7921312.43746  -6155498.96447  21528114.282    21528114.5864   21528120.1404
        47.0004         44.0004
 -22406719.36347 -17448415.39347  20618475.583    20618475.4144   20618475.5474
        49.8004         47.2004
  -1019431.07743   -782245.13646  24186249.547    24186250.1544   24186248.7094
        38.5004         36.0004
  -6969756.01544  -5154150.63746  22842378.066    22842377.8924   22842379.0794
        42.7004         39.9004
 -16856209.68246 -13122258.52047  21163959.691    21163960.2284   21163964.5704
        48.6004         45.9004
 -16401933.04646 -12761754.71747  21096082.965    21096082.7834   21096087.3544
        48.4004         45.4004
    234328.17142    198689.71245  23956419.058    23956417.4894   23956424.3624
        36.6004         34.6004
 16  6  9  0 30 30.0000000  0  9G19G17G 6G23G31G22G 3G 9G 1
 -14302251.64445 -11122405.91846  22435817.755    22435816.5844   22435818.1744
        44.6004         41.8004
  -6061862.19045  -4708818.06446  22854583.411    22854583.8004   22854587.5114
        43.7004         40.9004
  -7988460.25146  -6207821.93347  21515336.247    21515336.5494   21515342.1214
        47.0004         44.2004
 -22419115.74147 -17458074.90047  20616117.147    20616116.4564   20616116.7204
        49.8004         47.0004
   -955626.56443   -732527.34546  24198390.318    24198390.5154   24198390.4854
        38.3004         36.2004
  -6889609.99944  -5091699.21946  22857630.038    22857629.1254   22857630.7534
        42.7004         40.0004
 -16800643.58246 -13078960.25747  21174534.065    21174534.4544   21174538.8854
        48.8004         45.9004
 -16469421.67246 -12814343.24647  21083239.472    21083239.9764   21083244.7474
        48.2004         45.2004
    342901.59842    283292.37145  23977078.215    23977077.3114   23977084.5884
        36.3004         34.1004
 16  6  9  0 31  0.0000000  0  9G19G17G 6G23G31G22G 3G 9G 1
 -14257448.10645 -11087494.07846  22444343.471    22444342.5374   22444343.5824
        44.4004         41.8004
  -5986411.80545  -4650025.57346  22868941.573    22868941.0414   22868943.9734
        43.6004         40.6004
  -8055210.48546  -6259835.08847  21502634.729    21502635.0914   21502640.0264
        47.2004         44.5004
 -22431035.78647 -17467363.24547  20613848.333    20613847.9984   20613848.1754
        49.8004         47.0004
   -891347.51843   -682439.83046  24210621.462    24210621.8164   24210624.0824
        38.5004         36.2004
  -6809304.42244  -5029123.44246  22872913.124    22872911.0904   22872912.2754
        42.7004         40.0004
 -16744797.30346 -13035443.69147  21185160.684    21185161.3334   21185165.7544
        48.8004         45.8004
 -16536486.63546 -12866601.65347  21070477.607    21070477.4514   21070482.5944
        48.1004         45.2004
    451616.89042    368005.57045  23997766.969    23997766.1154   23997773.7534
        36.1004         34.3004
 16  6  9  0 31 30.0000000  0  9G19G17G 6G23G31G22G 3G 9G 1
 -14212089.03445 -11052149.35346  22452975.013    22452974.3484   22452975.6834
        44.6004         41.9004
  -5910589.08944  -4590942.97346  22883369.976    22883370.9164   22883373.3854
        43.2004         40.4004
  -8121560.68746  -6311536.54647  21490008.536    21490008.9204   21490013.3544
        47.4004         44.5004
 -22442479.53247 -17476280.44847  20611670.763    20611670.1754   20611670.5574
        49.8004         47.0004
   -826596.10843   -631984.27345  24222944.222    24222944.0864   24222944.4154
        38.0004         35.5004
  -6728839.97644  -4966423.90846  22888224.123    22888222.3854   22888224.2274
        42.7004         40.0004
 -16688671.56246 -12991709.34947  21195841.240    21195842.2184   21195846.4884
        48.6004         45.9004
 -16603126.76046 -12918529.00447  21057797.043    21057796.7864   21057801.5514
        48.2004         45.2004
    560472.27742    452827.94245  24018480.070    24018479.5954   24018487.0074
        36.1004         34.3004
 16  6  9  0 32  0.0000000  0  9G19G17G 6G23G31G22G 3G 9G 1
 -14166176.32445 -11016373.23747  22461711.670    22461710.6274   22461712.3254
        44.8004         42.1004
  -5834396.30044  -4531571.97046  22897869.651    22897869.8464   22897873.1364
        43.0004         40.4004
  -8187508.95046  -6362924.79347  21477458.348    21477458.8974   21477464.5124
        47.4004         44.7004
 -22453447.52547 -17484826.93447  20609583.807    20609583.4864   20609583.6314
        49.8004         47.2004
   -761374.42843   -581162.19545  24235356.706    24235357.3684   24235356.0684
        38.0004         35.7004
  -6648217.36444  -4903601.08646  22903565.709    22903565.6314   22903566.6484
        42.9004         40.2004
 -16632267.03446 -12947757.77847  21206574.331    21206574.9374   21206579.9994
        48.6004         45.6004
 -16669340.82146 -12970124.36747  21045196.697    21045196.5974   21045200.9294
        48.2004         45.4004
    669466.02642    537758.13945  24039222.087    24039223.4934   24039227.0784
        35.9004         34.1004
 16  6  9  0 32 30.0000000  0  9G19G17G 6G23G31G22G 3G 9G 1
 -14119712.16945 -10980167.41146  22470553.902    22470552.8644   22470554.3044
        44.8004         41.6004
  -5757836.90644  -4471915.31246  22912437.974    22912438.6994   22912440.7534
        43.0004         40.0004
  -8253052.86746  -6413997.96047  21464985.562    21464986.7024   21464991.6774
        47.4004         44.5004
 -22463939.96947 -17493002.85747  20607587.322    20607587.0044   20607586.9204
        50.0004         47.2004
   -695684.80443   -529975.51846  24247857.635    24247856.8124   24247858.3824
        38.2004         36.0004
  -6567437.46744  -4840655.74146  22918940.078    22918938.1114   22918938.8464
        42.9004         40.2004
 -16575584.43046 -12903589.52447  21217361.157    21217361.2354   21217366.2424
        48.4004         45.6004
 -16735127.65846 -13021386.82947  21032677.363    21032677.6484   21032682.6114
        48.4004         45.6004
    778596.37542    622794.76445  24059989.156    24059987.9704   24059994.8104
        35.9004         34.1004
 16  6  9  0 33  0.0000000  0  9G19G17G 6G23G31G22G 3G 9G 1
 -14072698.64645 -10943533.49846  22479499.989    22479499.0604   22479500.5654
        44.4004         41.6004
  -5680913.13144  -4411974.72446  22927076.604    22927075.8024   22927077.4304
        42.7004         39.9004
  -8318190.21746  -6464754.33047  21452590.877    21452591.5824   21452595.9054
        47.4004         44.5004
 -22473957.01747 -17500808.34047  20605681.012    20605680.3654   20605680.6054
        50.0004         47.2004
   -629529.43043   -478425.94445  24260445.955    24260446.7514   24260446.0694
        38.2004         35.9004
  -6486500.70544  -4777588.13846  22934338.876    22934338.9524   22934339.9304
        42.9004         40.0004
 -16518624.45646 -12859205.13447  21228199.135    21228199.8244   21228205.0004
        48.2004         45.4004
 -16800486.10546 -13072315.47747  21020240.339    21020240.2824   21020245.3204
        48.4004         45.6004
    887861.50742    707936.44145  24080783.215    24080782.1314   24080791.1664
        35.9004         34.1004
 16  6  9  0 33 30.0000000  0  9G19G17G 6G23G31G22G 3G 9G 1
 -14025137.58745 -10906472.94246  22488550.876    22488550.0734   22488551.7414
        44.4004         41.6004
  -5603628.11844  -4351752.64246  22941783.783    22941783.2204   22941785.1364
        42.5004         39.9004
  -8382918.70446  -6515192.11547  21440273.551    21440274.3034   21440278.6364
        47.5004         44.7004
 -22483499.08447 -17508243.71947  20603864.961    20603864.7064   20603864.8274
        50.0004         47.2004
   -562910.27243   -426514.92645  24273122.748    24273123.3514   24273123.7844
        38.0004         35.7004
  -6405407.54044  -4714398.67546  22949770.617    22949769.7364   22949771.1014
        42.7004         39.9004
 -16461387.82746 -12814605.18047  21239091.842    21239091.9094   21239096.8124
        48.2004         45.4004
 -16865415.01646 -13122909.43047  21007884.539    21007884.8154   21007889.8004
        48.4004         45.6004
    997259.64142    793181.72045  24101601.341    24101599.3024   24101608.4004
        35.9004         34.3004
 16  6  9  0 34  0.0000000  0  9G19G17G 6G23G31G22G 3G 9G 1
 -13977031.19145 -10868987.45546  22497705.344    22497704.0624   22497705.8074
        44.6004         41.8004
  -5525984.52544  -4291251.16246  22956558.463    22956558.8994   22956560.7594
        42.9004         40.2004
  -8447236.16646  -6565309.60747  21428034.251    21428035.0124   21428040.0714
        47.5004         44.7004
 -22492566.34347 -17515309.10747  20602139.485    20602139.3524   20602139.4754
        50.0004         47.2004
   -495829.73343   -374244.41845  24285888.311    24285888.3544   24285890.0974
        37.8004         35.9004
  -6324158.68844  -4651087.88146  22965232.348    22965230.0634   22965231.8694
        42.5004         39.5004
 -16403875.18846 -12769790.14747  21250035.926    21250036.3004   21250040.8444
        48.2004         45.2004
 -16929913.24846 -13173167.78247  20995611.840    20995611.4124   20995615.8134
        48.4004         45.6004
   1106788.97942    878529.23345  24122440.346    24122442.8074   24122448.4724
        35.7004         34.0004
 16  6  9  0 34 30.0000000  0  9G19G17G 6G23G31G22G 3G 9G 1
 -13928381.66945 -10831078.74346  22506962.889    22506961.6434   22506963.7004
        44.8004         41.9004
  -5447985.16744  -4230472.47046  22971401.508    22971401.4284   22971403.5094
        43.0004         40.4004
  -8511140.31646  -6615105.03447  21415873.690    21415874.0914   21415879.1654
        47.7004         44.7004
 -22501159.11047 -17522004.76447  20600504.342    20600504.1714   20600504.2714
        50.0004         47.2004
   -428289.93343   -321616.06546  24298740.878    24298739.7744   24298741.9634
        38.0004         36.0004
  -6242754.90744  -4587656.38146  22980721.428    22980720.8424   22980721.8334
        42.2004         39.2004
 -16346087.29346 -12724760.62747  21261032.434    21261033.0054   21261037.8244
        48.1004         45.2004
 -16993979.70246 -13223089.67747  20983419.605    20983419.4914   20983424.0124
        48.4004         45.6004
   1216447.72542    963977.60045  24143305.004    24143308.5164   24143316.6724
        35.7004         34.0004
 16  6  9  0 35  0.0000000  0  9G19G17G 6G23G31G22G 3G 9G 1
 -13879191.04545 -10792748.39646  22516323.350    22516322.0374   22516324.4694
        44.8004         41.9004
  -5369632.78444  -4169418.68446  22986310.684    22986310.9454   22986314.1134
        43.0004         40.4004
  -8574628.99046  -6664576.73047  21403791.930    21403792.3534   21403797.5014
        47.7004         44.9004
 -22509277.76347 -17528330.98247  20598959.669    20598959.0524   20598959.2664
        49.8004         47.2004
   -360293.27743   -268631.69346  24311679.627    24311679.4144   24311680.4814
        38.2004         36.0004
  -6161197.08244  -4524104.82446  22996242.100    22996241.3364   22996243.6474
        42.2004         39.3004
 -16288024.80346 -12679517.14447  21272082.375    21272082.4164   21272086.6364
        48.1004         45.4004
 -17057613.19446 -13272674.20047  20971310.766    20971310.5944   20971315.2354
        48.6004         45.8004
   1326234.09342   1049525.42045  24164197.666    24164200.3564   24164206.1004
        35.7004         34.0004
 16  6  9  0 35 30.0000000  0  9G19G17G 6G23G31G22G 3G 9G 1
 -13829461.40345 -10753998.04047  22525786.052    22525786.2524   22525787.6674
        44.9004         42.3004
  -5290930.12144  -4108091.97746  23001287.797    23001286.7784   23001289.9184
        43.2004         40.4004
  -8637699.93346  -6713722.91147  21391790.678    21391790.6014   21391795.8454
        47.9004         45.2004
 -22516922.84447 -17534288.18547  20597504.409    20597504.0514   20597504.7984
        49.8004         47.0004
   -291841.76643   -215292.88845  24324703.988    24324704.6214   24324706.9744
        38.2004         35.9004
  -6079485.77944  -4460433.69946  23011792.503    23011791.1874   23011791.6734
        42.2004         39.5004
 -16229688.41346 -12634060.23247  21283183.044    21283183.2094   21283188.0864
        48.1004         45.4004
 -17120812.64946 -13321920.50447  20959284.513    20959284.4014   20959288.7824
        48.6004         45.8004
   1436146.29642   1135171.28645  24185119.348    24185118.7714   24185121.4384
        35.7004         34.1004
 16  6  9  0 36  0.0000000  0  9G19G17G 6G23G31G22G 3G 9G 1
 -13779194.85245 -10714829.32847  22535352.676    22535351.3584   22535353.2114
        45.1004         42.5004
  -5211880.51744  -4046494.92046  23016329.972    23016330.8214   23016332.5914
        43.2004         40.6004
  -8700350.93946  -6762541.86447  21379867.668    21379868.4294   21379873.8584
        47.9004         45.1004
 -22524094.39847 -17539876.40847  20596139.330    20596139.0114   20596139.9464
        49.8004         47.0004
   -222937.42343   -161601.24145  24337817.319    24337817.3724   24337818.5514
        38.2004         35.9004
  -5997621.50844  -4396643.35446  23027368.940    23027367.7784   23027370.7824
        42.0004         39.2004
 -16171078.85546 -12588390.45847  21294336.287    21294336.6164   21294341.2054
        48.2004         45.4004
 -17183577.02946 -13370827.79947  20947340.466    20947340.4214   20947345.7554
        48.8004         45.9004
   1546182.56042   1220913.79745  24206061.567    24206056.7244   24206060.0744
        35.6004         34.0004
 16  6  9  0 36 30.0000000  0  9G19G17G 6G23G31G22G 3G 9G 1
 -13728393.55745 -10675243.91247  22545019.015    22545018.5144   22545020.5584
        45.3004         42.3004
  -5132486.91544  -3984629.80246  23031437.320    23031437.8654   23031441.1284
        43.2004         40.4004
  -8762579.82446  -6811031.90547  21368025.840    21368026.6134   21368032.0174
        47.9004         45.2004
 -22530793.29547 -17545096.32147  20594864.655    20594864.7474   20594865.1294
        49.8004         47.2004
   -153582.94043   -107558.77245  24351012.869    24351013.0104   24351015.8794
        38.0004         35.9004
  -5915605.01744  -4332734.42146  23042976.953    23042976.1034   23042977.0834
        41.8004         39.2004
 -16112196.83346 -12542508.37447  21305541.011    21305541.2634   21305546.0524
        48.2004         45.4004
 -17245905.23946 -13419395.22147  20935479.852    20935480.0324   20935484.7134
        48.8004         45.9004
   1656341.02642   1306751.57645  24227023.300    24227019.4874   24227024.4364
        35.7004         34.1004
 16  6  9  0 37  0.0000000  0  9G19G17G 6G23G31G22G 3G 9G 1
 -13677059.85145 -10635243.62547  22554788.165    22554786.7594   22554789.1684
        44.9004         42.1004
  -5052751.87044  -3922498.62046  23046610.727    23046611.5324   23046614.9924
        43.2004         40.4004
  -8824384.39146  -6859191.30947  21356265.363    21356265.4804   21356270.8744
        48.2004         45.4004
 -22537019.50447 -17549947.90347  20593680.457    20593679.6694   20593680.5214
        49.8004         47.2004
    -83780.61343    -53167.43146  24364296.928    24364297.1154   24364300.3414
        38.2004         36.2004
  -5833437.39144  -4268707.70246  23058611.790    23058611.9604   23058613.0864
        41.8004         39.3004
 -16053043.03046 -12496414.51747  21316797.755    21316797.8584   21316802.4244
        48.2004         45.4004
 -17307796.15546 -13467621.88947  20923702.638    20923702.5484   20923707.0684
        48.8004         45.9004
   1766619.88042   1392683.15645  24248005.117    24248005.8024   24248008.4534
        35.2004         33.4004
 16  6  9  0 37 30.0000000  0  9G19G17G 6G23G31G22G 3G 9G 1
 -13625195.98445 -10594830.24247  22564656.865    22564655.8234   22564658.4434
        44.9004         42.1004
  -4972678.26444  -3860103.63246  23061850.005    23061848.5964   23061851.9474
        43.0004         40.0004
  -8885762.37546  -6907018.30647  21344585.761    21344585.9364   21344591.1454
        48.2004         45.4004
 -22542773.58647 -17554431.59947  20592585.558    20592584.8314   20592585.3074
        49.8004         47.0004
    -13532.55743      1571.28246  24377664.430    24377664.3474   24377667.5234
        38.7004         36.4004
  -5751118.48244  -4204563.12246  23074278.988    23074277.0494   23074278.3604
        41.8004         39.2004
 -15993618.12746 -12450109.40247  21328105.586    21328106.2504   21328111.0534
        48.2004         45.6004
 -17369248.83146 -13515507.07147  20912008.678    20912008.2904   20912012.9484
        48.8004         45.8004
   1877017.44942   1478707.23545  24269010.305    24269014.2324   24269018.3774
        35.2004         33.6004
 16  6  9  0 38  0.0000000  0  9G19G17G 6G23G31G22G 3G 9G 1
 -13572804.34645 -10554005.60446  22574626.708    22574625.7734   22574627.8264
        44.8004         41.9004
  -4892268.90544  -3797447.00146  23077150.051    23077149.6974   23077152.6534
        42.7004         39.7004
  -8946711.67346  -6954511.27147  21332987.306    21332987.7284   21332993.1234
        48.4004         45.6004
 -22548055.61647 -17558547.46347  20591579.582    20591579.6604   20591580.2414
        49.8004         47.0004
     57158.98643     56655.59346  24391117.346    24391116.7654   24391120.6604
        39.0004         36.7004
  -5668649.39044  -4140301.50046  23089970.064    23089970.1254   23089971.5084
        41.8004         39.2004
 -15933922.85546 -12403593.62047  21339465.255    21339465.6344   21339470.4434
        48.2004         45.4004
 -17430262.13146 -13563049.89047  20900398.109    20900398.4114   20900402.5024
        48.8004         45.9004
   1987531.81442   1564822.31745  24290041.908    24290043.9924   24290046.3744
        34.9004         33.3004
 16  6  9  0 38 30.0000000  0  9G19G17G 6G23G31G22G 3G 9G 1
 -13519886.89945 -10512771.23646  22584696.366    22584695.4214   22584697.6894
        44.6004         41.8004
  -4811526.74544  -3734531.04846  23092516.453    23092516.9034   23092517.3624
        42.3004         39.5004
  -9007230.08346  -7001668.47247  21321470.758    21321471.2334   21321477.0974
        48.4004         45.6004
 -22552866.54147 -17562296.23647  20590664.715    20590664.1704   20590664.7654
        49.8004         47.0004
    128291.89843    112083.79846  24404653.509    24404653.4524   24404655.5554
        39.0004         36.7004
  -5586030.65244  -4075923.27446  23105693.502    23105692.1514   23105694.3664
        41.8004         39.2004
 -15873957.89946 -12356867.69047  21350876.380    21350877.0694   21350881.8184
        48.2004         45.6004
 -17490835.08446 -13610249.58147  20888871.696    20888871.5454   20888876.1534
        48.9004         46.1004
   2098161.14941   1651026.97745  24311092.206    24311096.1714   24311103.2514
        34.3004         32.9004
 16  6  9  0 39  0.0000000  0  9G19G17G 6G23G31G22G 3G 9G 1
 -13466445.88345 -10471128.89846  22594865.103    22594864.3114   22594867.1884
        44.4004         41.6004
  -4730454.94944  -3671358.24846  23107942.503    23107943.1474   23107943.9164
        42.2004         39.3004
  -9067315.40346  -7048488.19947  21310037.069    21310037.3684   21310042.7524
        48.4004         45.8004
 -22557206.55147 -17565678.05647  20589838.628    20589838.3764   20589839.1724
        49.8004         47.0004
    199863.55543    167853.89246  24418273.051    24418273.8364   24418275.3264
        39.4004         37.1004
  -5503263.09644  -4011429.09046  23121443.361    23121441.8494   23121444.0514
        41.8004         39.0004
 -15813723.96946 -12309932.18547  21362338.188    21362338.8244   21362343.4204
        48.2004         45.4004
 -17550966.66846 -13657105.34847  20877429.097    20877428.8444   20877433.4814
        49.1004         46.3004
   2208903.72542   1737319.89645  24332162.633    24332166.1564   24332174.0794
        34.5004         33.1004
 16  6  9  0 39 30.0000000  0  9G19G17G 6G23G31G22G 3G 9G 1
 -13412483.63345 -10429080.40746  22605133.878    22605133.7374   22605135.7924
        44.4004         41.6004
  -4649056.22844  -3607930.67046  23123432.185    23123432.9304   23123435.2594
        42.2004         39.7004
  -9126965.48646  -7094968.78047  21298685.760    21298686.2744   21298691.8534
        48.4004         45.4004
 -22561076.20947 -17568693.36947  20589102.136    20589101.8924   20589102.6694
        49.8004         47.2004
    271871.43543    223963.87246  24431977.183    24431976.9984   24431979.3384
        39.7004         37.3004
  -5420347.59344  -3946819.61646  23137222.391    23137220.6764   23137221.5864
        41.6004         39.2004
 -15753221.71546 -12262787.59647  21373851.041    21373851.3534   21373856.7504
        48.2004         45.2004
 -17610655.87246 -13703616.40347  20866070.012    20866070.2124   20866074.5504
        49.1004         46.1004
   2319757.67041   1823699.55545  24353263.885    24353263.0594   24353269.9824
        34.2004         32.9004
 16  6  9  0 40  0.0000000  0  9G19G17G 6G23G31G22G 3G 9G 1
 -13358002.62345 -10386627.69046  22615502.087    22615500.4834   22615503.2624
        44.2004         41.4004
  -4567333.53844  -3544250.67346  23138983.084    23138982.6554   23138986.5914
        42.3004         39.3004
  -9186178.18546  -7141108.54747  21287417.948    21287418.7344   21287423.9714
        48.4004         45.6004
 -22564475.80047 -17571342.39847  20588455.038    20588455.0554   20588455.8134
        49.8004         47.2004
    344313.53743    280412.21046  24445760.353    24445761.8094   24445765.2214
        39.7004         37.3004
  -5337284.43744  -3882095.09946  23153027.153    23153027.0164   23153028.3364
        41.6004         39.0004
 -15692451.91746 -12215434.52147  21385415.536    21385415.7964   21385421.6434
        48.2004         45.4004
 -17669901.73446 -13749781.99447  20854796.062    20854795.8544   20854800.7234
        49.1004         46.3004
   2430721.25041   1910164.67045  24374379.326    24374377.6284   24374382.7204
        34.0004         33.1004
 16  6  9  0 40 30.0000000  0  9G19G17G 6G23G31G22G 3G 9G 1
 -13303005.01745 -10343772.43246  22625967.852    22625966.7294   22625968.8004
        44.1004         41.2004
  -4485289.91044  -3480320.61546  23154594.597    23154595.2044   23154597.9294
        41.6004         38.8004
  -9244951.31146  -7186905.78547  21276234.030    21276234.7824   21276239.5844
        48.2004         45.4004
 -22567405.93347 -17573625.61747  20587897.628    20587897.5944   20587898.2064
        49.8004         47.2004
    417187.35843    337196.98046  24459630.229    24459630.7384   24459632.8124
        39.7004         37.4004
  -5254074.55444  -3817256.25246  23168864.289    23168862.6774   23168862.8994
        41.6004         39.2004
 -15631415.21346 -12167873.49447  21397029.594    21397029.9084   21397035.5724
        48.1004         45.2004
 -17728703.26746 -13795601.36747  20843605.921    20843606.3204   20843611.4554
        49.1004         46.3004
   2541792.54741   1996713.73945  24395514.768    24395515.7684   24395519.3574
        34.2004         33.1004
 16  6  9  0 41  0.0000000  0  9G19G17G 6G23G31G22G 3G 9G 1
 -13247493.21045 -10300516.50146  22636532.368    22636531.4954   22636532.4844
        44.2004         41.6004
  -4402927.92944  -3416142.47946  23170268.832    23170268.6674   23170271.7894
        41.5004         38.8004
  -9303282.73446  -7232358.86147  21265133.943    21265134.0824   21265139.4994
        48.2004         45.4004
 -22569867.14047 -17575543.43747  20587430.061    20587429.3744   20587429.8004
        50.0004         47.2004
    490490.52943    394316.29046  24473579.610    24473579.2794   24473580.9244
        39.9004         37.6004
  -5170718.37844  -3752303.39846  23184724.333    23184725.1134   23184725.3244
        41.5004         39.0004
 -15570112.23346 -12120104.94447  21408696.626    21408696.3654   21408702.1994
        48.1004         45.2004
 -17787059.52546 -13841073.74947  20832501.647    20832501.8054   20832506.6804
        49.1004         46.3004
   2652969.79341   2083345.32645  24416667.969    24416669.8524   24416676.4694
        34.0004         32.6004
 16  6  9  0 41 30.0000000  0  9G19G17G 6G23G31G22G 3G 9G 1
 -13191469.68945 -10256861.82247  22647193.063    22647191.7804   22647193.9634
        44.8004         42.1004
  -4320250.26744  -3351718.35846  23186001.560    23186001.5214   23186004.8614
        41.3004         38.5004
  -9361170.30146  -7277466.05147  21254118.144    21254118.3444   21254124.0084
        48.1004         45.2004
 -22571859.90447 -17577096.23247  20587050.063    20587049.8564   20587050.5004
        49.8004         47.2004
    564220.86843    451768.45646  24487609.412    24487609.1924   24487611.7964
        39.9004         37.6004
  -5087216.71444  -3687237.19746  23200617.231    23200615.4924   23200614.9624
        41.3004         38.6004
 -15508543.81346 -12072129.55647  21420411.733    21420412.0504   21420417.5054
        47.9004         45.1004
 -17844969.52946 -13886198.41447  20821481.870    20821482.0744   20821486.2904
        49.3004         46.5004
   2764251.26641   2170058.16345  24437843.803    24437844.5204   24437853.7834
        33.8004         32.7004
 16  6  9  0 42  0.0000000  0  9G19G17G 6G23G31G22G 3G 9G 1
 -13134936.64745 -10212810.11446  22657949.765    22657949.2644   22657950.9504
        44.6004         41.6004
  -4237261.00644  -3287051.44046  23201794.385    23201795.1864   23201795.6134
        40.8004         37.9004
  -9418611.90746  -7322225.73747  21243187.654    21243188.2194   21243193.1734
        48.1004         45.2004
 -22573384.85647 -17578284.50647  20586759.960    20586759.5214   20586760.3684
        49.8004         47.2004
    638375.80643    509551.48546  24501720.466    24501720.8234   24501723.3884
        39.9004         37.4004
  -5003570.08544  -3622058.00546  23216530.566    23216529.6704   23216531.0904
        40.9004         37.9004
 -15446710.62846 -12023947.86147  21432178.368    21432178.9474   21432184.2404
        47.9004         45.1004
 -17902432.38646 -13930974.65547  20810546.867    20810547.1414   20810551.4814
        49.3004         46.5004
   2875635.06441   2256850.72545  24459041.989    24459046.2504   24459048.4604
        33.8004         32.7004
 16  6  9  0 42 30.0000000  0  9G19G17G 6G23G31G22G 3G 9G 1
 -13077896.61945 -10168363.32046  22668804.136    22668802.9874   22668806.0834
        44.2004         41.4004
  -4153962.44644  -3222143.48846  23217645.491    23217644.7414   23217647.8724
        40.6004         37.9004
  -9475605.41146  -7366636.24447  21232341.687    21232342.4454   21232347.6674
        48.2004         45.6004
 -22574442.25847 -17579108.44947  20586559.192    20586558.6874   20586559.1654
        49.8004         47.2004
    712952.79043    567663.40346  24515912.364    24515913.3824   24515915.4274
        40.1004         37.8004
  -4919779.27444  -3556766.48946  23232478.284    23232476.7994   23232476.5514
        40.9004         38.1004
 -15384613.38346 -11975560.41147  21443995.721    21443995.7704   21444000.8304
        47.9004         45.1004
 -17959447.12946 -13975401.71447  20799697.560    20799697.3024   20799701.9824
        49.3004         46.5004
   2987119.30841   2343721.57945  24480253.267    24480256.8334   24480263.0974
        33.7004         32.6004
 16  6  9  0 43  0.0000000  0  9G19G17G 6G23G31G22G 3G 9G 1
 -13020351.87745 -10123523.28946  22679755.111    22679754.4324   22679755.4354
        43.9004         41.1004
  -4070357.42644  -3156996.71446  23233554.256    23233554.0744   23233557.2994
        40.9004         38.5004
  -9532148.66346  -7410695.92347  21221582.256    21221583.0754   21221587.4034
        48.4004         45.8004
 -22575033.00747 -17579568.77147  20586446.170    20586446.1514   20586446.7224
        49.8004         47.2004
    787949.78643    626102.59846  24530183.680    24530184.0124   24530187.0594
        40.3004         37.9004
  -4835845.01944  -3491363.18246  23248449.082    23248448.2874   23248449.2734
        40.8004         38.3004
 -15322252.73546 -11926967.71047  21455862.481    21455862.5904   21455867.7004
        47.9004         45.1004
 -18016012.88746 -14019478.91147  20788933.885    20788933.4924   20788938.2244
        49.5004         46.6004
   3098702.19651   2430669.28655  24501485.144    24501487.9234   24501498.0104
        33.7004         32.4004
 16  6  9  0 43 30.0000000  0  9G19G17G 6G23G31G22G 3G 9G 1
 -12962304.81145 -10078291.84246  22690801.901    22690800.6254   22690801.8774
        43.9004         41.4004
  -3986449.09444  -3091613.62746  23249521.904    23249521.2354   23249525.1274
        41.1004         38.5004
  -9588239.63746  -7454403.17647  21210908.773    21210909.2424   21210913.4804
        48.4004         45.4004
 -22575157.19547 -17579665.53347  20586422.950    20586422.5904   20586422.9754
        49.8004         47.2004
    863364.17243    684867.03646  24544534.938    24544535.1994   24544536.4044
        39.7004         37.1004
  -4751767.75344  -3425848.44546  23264446.645    23264446.3744   23264447.8984
        40.6004         37.9004
 -15259629.41846 -11878170.33547  21467780.108    21467779.8504   21467784.4774
        47.9004         45.2004
 -18072128.77046 -14063205.56047  20778254.930    20778254.9494   20778259.9704
        49.3004         46.5004
   3210382.02841   2517692.49945  24522744.716    24522741.9774   24522750.5604
        33.8004         32.9004
 16  6  9  0 44  0.0000000  0  9G19G17G 6G23G31G22G 3G 9G 1
 -12903757.80045 -10032670.81046  22701942.521    22701942.0384   22701943.5394
        44.2004         41.4004
  -3902240.40744  -3025996.46846  23265546.793    23265546.7224   23265550.2034
        41.3004         39.0004
  -9643876.16446  -7497756.30547  21200321.352    21200321.5964   21200326.3264
        48.2004         45.4004
 -22574815.80347 -17579399.50647  20586488.128    20586487.4964   20586488.1014
        50.0004         47.2004
    939193.58243    743954.85946  24558964.814    24558964.1044   24558966.7374
        39.2004         36.7004
  -4667547.90844  -3360222.63046  23280477.121    23280474.4194   23280474.9904
        40.8004         38.3004
 -15196744.09946 -11829168.80147  21479745.630    21479746.4224   21479751.0564
        47.9004         45.1004
 -18127793.83946 -14106580.94347  20767662.063    20767662.5504   20767666.8534
        49.5004         46.5004
   3322156.88241   2604789.78545  24544011.821    24544013.0064   24544019.2924
        33.5004         32.6004
 16  6  9  0 44 30.0000000  0  9G19G17G 6G23G31G22G 3G 9G 1
 -12844713.77645  -9986662.49046  22713179.251    22713177.8034   22713179.2134
        44.1004         41.2004
  -3817734.05244  -2960147.40246  23281628.301    23281628.4224   23281629.9274
        41.5004         38.6004
  -9699056.13546  -7540753.67047  21189820.601    21189821.4514   21189825.9514
        48.2004         45.4004
 -22574009.16947 -17578770.94947  20586641.477    20586641.2654   20586641.5574
        50.0004         47.2004
   1015435.56743    803364.19046  24573472.675    24573473.1904   24573475.1794
        39.4004         37.1004
  -4583186.91744  -3294486.78546  23296527.403    23296526.9744   23296528.7834
        40.6004         37.9004
 -15133597.49146 -11779963.65247  21491762.783    21491762.8064   21491767.4244
        47.9004         45.1004
 -18183007.29346 -14149604.40447  20757155.550    20757155.7984   20757159.6074
        49.3004         46.5004
   3434024.92941   2691959.69545  24565304.438    24565304.6944   24565308.1544
        33.7004         32.7004
 16  6  9  0 45  0.0000000  0  9G19G17G 6G23G31G22G 3G 9G 1
 -12785174.96745  -9940268.62846  22724507.784    22724506.9784   22724507.8054
        43.9004         41.1004
  -3732933.33544  -2894068.93646  23297764.386    23297765.4134   23297768.3404
        41.5004         38.8004
  -9753777.51646  -7583393.70147  21179407.673    21179408.2264   21179413.0014
        48.4004         45.6004
 -22572737.89347 -17577780.34047  20586883.622    20586883.0134   20586883.3264
        50.0004         47.2004
   1092087.75943    863093.12746  24588059.511    24588059.0394   24588061.4394
        39.0004         36.4004
  -4498684.94243  -3228641.11146  23312609.568    23312607.2164   23312608.3054
        40.4004         37.9004
 -15070190.31946 -11730555.48047  21503828.547    21503829.0584   21503833.3674
        47.9004         44.9004
 -18237768.21946 -14192275.23447  20746735.125    20746734.7164   20746738.9584
        49.3004         46.5004
   3545984.37641   2779200.87345  24586610.922    24586608.2964   24586613.5354
        33.8004         32.7004
 16  6  9  0 45 30.0000000  0  9G19G17G 6G23G31G22G 3G 9G 1
 -12725143.72345  -9893491.05746  22735931.312    22735930.9464   22735931.8514
        43.7004         40.9004
  -3647841.17144  -2827763.38646  23313958.053    23313957.8684   23313960.6204
        41.6004         39.2004
  -9808038.21646  -7625674.75647  21169082.086    21169082.2254   21169087.1724
        48.4004         45.4004
 -22571002.67847 -17576428.22147  20587213.725    20587213.3794   20587213.5334
        50.0004         47.2004
   1169147.64743    923139.79346  24602724.408    24602724.9134   24602724.8444
        38.7004         36.4004
  -4414042.53143  -3162686.00146  23328713.726    23328714.4744   23328715.3914
        40.4004         38.1004
 -15006523.24946 -11680944.78647  21515943.695    21515944.1894   21515948.6974
        47.7004         44.7004
 -18292075.84246 -14234592.85347  20736400.002    20736399.7094   20736404.8024
        49.3004         46.5004
   3658033.44341   2866511.81945  24607935.644    24607930.6154   24607939.2124
        33.3004         32.0004
 16  6  9  0 46  0.0000000  0  9G19G17G 6G23G31G22G 3G 9G 1
 -12664622.25045  -9846331.47546  22747449.230    22747448.1304   22747448.5344
        43.7004         41.1004
  -3562460.52644  -2761233.04346  23330204.963    23330204.4264   23330206.7594
        41.3004         38.5004
  -9861836.16046  -7667595.22947  21158844.670    21158845.0364   21158850.1644
        48.4004         45.6004
 -22568804.02547 -17574714.98347  20587632.060    20587631.7254   20587631.8144
        50.0004         47.2004
   1246612.48343    983501.96146  24617465.698    24617465.8264   24617467.2824
        39.0004         36.9004
  -4329260.60143  -3096622.16446  23344848.311    23344847.8294   23344848.7474
        40.4004         37.9004
 -14942597.02746 -11631132.15447  21528108.266    21528108.7884   21528113.1154
        47.5004         44.7004
 -18345929.32046 -14276556.59147  20726151.739    20726151.7194   20726156.9564
        49.5004         46.6004
   3770170.14541   2953891.06245  24629274.891    24629268.4634   24629271.4884
        33.7004         32.6004
 16  6  9  0 46 30.0000000  0  9G19G17G 6G23G31G22G 3G 9G 1
 -12603613.72945  -9798792.37546  22759058.791    22759057.3144   22759058.5634
        43.9004         41.1004
  -3476794.46644  -2694480.30546  23346506.469    23346506.8944   23346510.0334
        41.3004         38.6004
  -9915169.29846  -7709153.50747  21148695.728    21148696.0414   21148701.0784
        48.4004         45.8004
 -22566142.62147 -17572641.15747  20588138.228    20588138.0254   20588138.2764
        49.8004         47.2004
   1324480.33443   1044178.15446  24632282.103    24632282.7374   24632282.9534
        39.0004         36.6004
  -4244339.82543  -3030450.16946  23361009.366    23361007.9894   23361008.5774
        40.4004         37.9004
 -14878412.26946 -11581118.06947  21540321.982    21540322.4704   21540327.7674
        47.5004         44.5004
 -18399327.78646 -14318165.78047  20715991.252    20715991.2004   20715995.3534
        49.5004         46.8004
   3882392.80951   3041337.28855  24650623.699    24650621.9114   24650627.5014
        33.3004         32.0004
 16  6  9  0 47  0.0000000  0  9G19G17G 6G23G31G22G 3G 9G 1
 -12542120.60445  -9750875.66546  22770760.773    22770758.8654   22770760.2374
        43.9004         40.9004
  -3390845.99344  -2627507.49446  23362862.632    23362862.0924   23362865.2844
        41.3004         38.5004
  -9968035.58646  -7750348.01547  21138635.375    21138635.8994   21138640.7954
        48.6004         45.6004
 -22563019.13447 -17570207.26347  20588732.603    20588732.4554   20588732.6964
        49.8004         47.2004
   1402748.47043   1105166.26346  24647176.892    24647177.4304   24647177.6354
        38.7004         36.4004
  -4159280.78543  -2964170.42746  23377195.219    23377195.0614   23377194.4594
        40.1004         37.8004
 -14813969.76146 -11530903.13647  21552585.285    21552585.3134   21552590.5724
        47.4004         44.5004
 -18452270.48847 -14359419.81647  20705916.216    20705916.1694   20705920.7704
        49.6004         46.8004
   3994699.43151   3128848.96055  24671992.258    24671992.9094   24672001.9944
        32.8004         32.0004
 16  6  9  0 47 30.0000000  0  9G19G17G 6G23G31G22G 3G 9G 1
 -12480145.27345  -9702583.23446  22782552.669    22782551.2884   22782553.5584
        43.6004         40.4004
  -3304618.21044  -2560317.02646  23379269.424    23379269.4664   23379274.1504
        40.8004         38.3004
 -10020432.98446  -7791177.14247  21128664.274    21128664.9804   21128670.0834
        48.6004         45.8004
 -22559434.66847 -17567414.16747  20589414.751    20589414.1234   20589414.6444
        49.8004         47.0004
   1481414.28143   1166464.28846  24662146.896    24662147.2234   24662146.9244
        39.0004         36.7004
  -4074084.15943  -2897783.45546  23393406.313    23393405.7634   23393407.5114
        40.1004         37.6004
 -14749270.20446 -11480487.90647  21564896.851    21564897.4934   21564902.6914
        47.4004         44.5004
 -18504756.64547 -14400318.10847  20695928.590    20695928.3104   20695932.8754
        49.6004         46.6004
   4107088.28851   3216424.76255  24693370.402    24693377.8794   24693385.0234
        32.8004         32.0004
 16  6  9  0 48  0.0000000  0  9G19G17G 6G23G31G22G 3G 9G 1
 -12417690.15644  -9653916.92146  22794437.954    22794436.9384   22794438.5124
        43.2004         40.6004
  -3218114.06444  -2492911.24246  23395732.314    23395732.5554   23395734.4334
        40.9004         38.5004
 -10072359.44046  -7831639.30747  21118783.466    21118783.8584   21118788.9104
        48.6004         45.8004
 -22555389.39547 -17564262.00647  20590184.463    20590184.3364   20590184.4584
        49.8004         47.2004
   1560475.29843   1228070.23846  24677191.279    24677192.0404   24677191.2624
        38.9004         36.4004
  -3988750.61443  -2831289.81846  23409646.763    23409644.9524   23409646.1644
        40.1004         37.8004
 -14684314.23846 -11429872.88347  21577258.070    21577258.4614   21577263.3004
        47.4004         44.5004
 -18556785.42546 -14440860.00547  20686027.141    20686027.5884   20686031.9164
        49.5004         46.6004
   4219557.62951   3304063.21455  24714780.251    24714785.4044   24714783.2084
        32.4004         31.9004
 16  6  9  0 48 30.0000000  0  9G19G17G 6G23G31G22G 3G 9G 1
 -12354758.12345  -9604879.00846  22806414.678    22806413.6564   22806414.1764
        43.7004         41.4004
  -3131336.49344  -2425292.40446  23412246.447    23412246.0874   23412247.9074
        41.1004         38.6004
 -10123812.95746  -7871732.94847  21108991.910    21108992.4464   21108997.4984
        48.6004         45.8004
 -22550883.89647 -17560751.21947  20591042.254    20591041.8944   20591041.9844
        49.8004         47.2004
   1639929.20943   1289982.32045  24692311.585    24692310.6034   24692310.1004
        38.3004         35.9004
  -3903280.75443  -2764689.93846  23425907.970    23425908.4694   23425911.0764
        40.1004         37.6004
 -14619102.62546 -11379058.63947  21589667.782    21589667.8284   21589672.8324
        47.4004         44.5004
 -18608356.13446 -14481044.96647  20676214.098    20676214.3104   20676218.0874
        49.5004         46.8004
   4332105.56541   3391762.85845  24736201.988    24736197.6214   24736207.2734
        32.4004         31.9004
 16  6  9  0 49  0.0000000  0  9G19G17G 6G23G31G22G 3G 9G 1
 -12291351.40945  -9555471.20946  22818480.100    22818479.0284   22818481.1934
        44.1004         41.1004
  -3044288.45344  -2357462.78246  23428809.442    23428809.8044   23428814.0564
        41.1004         38.6004
 -10174791.51946  -7911456.49047  21099291.077    21099291.8454   21099296.5644
        48.8004         45.9004
 -22545919.14047 -17556882.57747  20591986.661    20591986.1394   20591986.7034
        49.8004         47.2004
   1719773.49743   1352198.61846  24707504.377    24707504.3574   24707505.4934
        38.2004         36.0004
  -3817675.14043  -2697984.26646  23442199.746    23442198.3544   23442201.5704
        39.9004         37.4004
 -14553636.05046 -11328045.72347  21602125.203    21602125.4754   21602130.4414
        47.2004         44.4004
 -18659467.98747 -14520872.37647  20666488.341    20666487.9184   20666492.1194
        49.6004         46.8004
   4444730.15141   3479522.30445  24757634.022    24757633.3334   24757636.0944
        32.4004         31.9004
 16  6  9  0 49 30.0000000  0  9G19G17G 6G23G31G22G 3G 9G 1
 -12227472.88445  -9505695.73646  22830634.764    22830634.0144   22830636.3074
        43.6004         40.6004
  -2956973.17944  -2289424.93546  23445426.157    23445425.4674   23445428.5754
        40.9004         38.3004
 -10225293.12246  -7950808.38747  21089681.568    21089681.8844   21089686.7674
        48.8004         46.1004
 -22540495.47147 -17552656.33947  20593018.422    20593018.5434   20593018.8024
        49.8004         47.2004
   1800005.44843   1414716.97746  24722772.283    24722773.6264   24722773.2144
        38.3004         36.4004
  -3731934.59843  -2631173.48546  23458517.169    23458515.3324   23458517.9404
        40.1004         37.6004
 -14487915.20746 -11276834.69247  21614631.691    21614631.7674   21614636.1624
        47.0004         44.2004
 -18710120.26947 -14560341.67647  20656848.896    20656848.9174   20656853.7204
        49.8004         47.0004
   4557429.57941   3567340.10045  24779082.754    24779074.9234   24779083.6804
        32.8004         32.0004
 16  6  9  0 50  0.0000000  0  9G19G17G 6G23G31G22G 3G 9G 1
 -12163124.94244  -9455554.50346  22842880.668    22842879.0074   22842881.3404
        43.4004         40.7004
  -2869393.40544  -2221181.01246  23462091.110    23462091.6224   23462092.8674
        40.8004         37.9004
 -10275315.78846  -7989787.07847  21080161.871    21080162.9634   21080167.4344
        48.9004         46.1004
 -22534613.90247 -17548073.29347  20594138.347    20594137.6704   20594137.8194
        49.8004         47.0004
   1880622.49243   1477535.39546  24738114.552    24738113.5864   24738115.4714
        38.7004         36.6004
  -3646059.64443  -2564257.95946  23474857.333    23474857.1224   23474859.9144
        40.1004         37.6004
 -14421940.80746 -11225426.08047  21627186.224    21627186.7754   21627191.4264
        47.0004         44.2004
 -18760312.25947 -14599452.30847  20647298.237    20647298.1204   20647302.7434
        49.8004         47.2004
   4670202.13241   3655214.78045  24800540.145    24800533.7544
        32.3004         31.7004
 16  6  9  0 50 30.0000000  0  9G19G17G 6G23G31G22G 3G 9G 1
 -12098310.63945  -9405049.88746  22855214.273    22855213.2044   22855214.7934
        43.7004         40.9004
  -2781552.43744  -2152733.53346  23478806.607    23478806.9504   23478810.5464
        40.8004         38.1004
 -10324857.49446  -8028390.99547  21070734.755    21070735.0994   21070740.1444
        48.9004         46.1004
 -22528275.28447 -17543134.10147  20595343.714    20595343.7234   20595344.1554
        49.8004         47.0004
   1961622.32043   1540652.10346  24753527.808    24753528.1284   24753528.5504
        38.3004         36.0004
  -3560051.09143  -2497238.31746  23491225.809    23491224.1694   23491226.7604
        40.1004         37.6004
 -14355713.53346 -11173820.42047  21639788.369    21639788.8224   21639793.8444
        47.0004         44.0004
 -18810043.23747 -14638203.70447  20637834.063    20637834.4174   20637838.7914
        49.8004         47.0004
   4783045.87241   3743144.95845  24822013.712    24822007.5554   24822009.5784
        32.3004         31.7004
 16  6  9  0 51  0.0000000  0  9G19G17G 6G23G31G22G 3G 9G 1
 -12033032.34345  -9354183.70946  22867635.484    22867634.4614   22867637.7724
        43.6004         40.7004
  -2693453.34044  -2084084.89446  23495571.765    23495571.2174   23495574.8754
        40.9004         38.5004
 -10373916.32046  -8066618.65447  21061399.281    21061400.0124   21061404.0574
        48.9004         46.1004
 -22521480.03647 -17537839.09747  20596637.154    20596636.9454   20596637.0774
        49.8004         47.0004
   2043002.40243   1604065.10845  24769013.312    24769013.6384   24769014.3174
        38.0004         35.7004
  -3473909.49843  -2430115.02746  23507617.071    23507616.4734   23507617.5914
        39.9004         37.3004
 -14289234.08846 -11122018.27047  21652439.537    21652439.4764   21652444.2314
        46.9004         44.0004
 -18859312.51847 -14676595.34047  20628458.730    20628458.5044   20628463.1224
        49.8004         47.0004
   4895958.97441   3831129.28045  24843498.390    24843503.5234
        31.9004         31.3004
 16  6  9  0 51 30.0000000  0  9G19G17G 6G23G31G22G 3G 9G 1
 -11967292.76645  -9302958.07646  22880145.959    22880145.2034   22880147.7794
        43.6004         40.9004
  -2605098.92044  -2015237.33246  23512385.717    23512386.0834   23512386.3924
        40.8004         37.9004
 -10422490.28146  -8104468.48747  21052155.745    21052156.2824   21052161.3044
        49.1004         46.1004
 -22514228.96747 -17532188.91247  20598016.945    20598016.6304   20598017.2784
        49.8004         47.2004
   2124760.10143   1667772.36445  24784571.026    24784571.5584   24784571.2994
        38.0004         35.9004
  -3387635.57943  -2362888.59746  23524032.544    23524033.2024   23524034.8294
        39.6004         36.9004
 -14222503.20546 -11070020.18147  21665137.289    21665138.0614   21665143.6144
        46.9004         44.0004
 -18908119.42447 -14714626.68847  20619170.658    20619170.8484   20619175.8284
        49.8004         47.0004
   5008939.75341   3919166.30845  24864995.150    24864991.9064
        32.3004         31.3004
 16  6  9  0 52  0.0000000  0  9G19G17G 6G23G31G22G 3G 9G 1
 -11901094.61245  -9251375.14346  22892744.321    22892742.3884   22892744.4664
        43.6004         40.9004
  -2516492.41343  -1946193.31746  23529245.818    23529245.7834   23529249.0334
        40.4004         37.6004
 -10470577.43546  -8141938.98147  21043004.861    21043005.7944   21043010.7854
        49.1004         46.3004
 -22506523.15947 -17526184.38247  20599483.426    20599482.9834   20599483.4044
        49.8004         47.2004
   2206892.80743   1731771.82345  24800201.394    24800201.0394   24800201.0384
        38.0004         35.9004
  -3301230.06243  -2295559.64046  23540478.136    23540476.1934   23540477.5894
        39.4004         37.1004
 -14155521.59646 -11017826.72347  21677884.378    21677884.4824   21677888.9434
        46.9004         44.0004
 -18956463.29847 -14752297.22847  20609971.358    20609971.4224   20609975.7904
        49.8004         47.0004
   5121986.09241   4007254.37345  24886505.568    24886513.7714
        31.6004         31.3004
 16  6  9  0 52 30.0000000  0  9G19G17G 6G23G31G22G 3G 9G 1
 -11834440.45744  -9199436.87946  22905426.780    22905425.8824   22905428.2254
        43.2004         40.4004
  -2427636.66543  -1876955.08646  23546156.115    23546155.2874   23546159.3814
        40.4004         38.1004
 -10518175.85446  -8179028.65747  21033947.535    21033947.9064   21033952.8204
        48.9004         45.9004
 -22498363.11247 -17519825.90047  20601035.999    20601035.7164   20601036.2924
        49.8004         47.0004
   2289397.87543   1796061.44046  24815901.424    24815901.1194   24815903.3694
        38.0004         36.0004
  -3214693.39243  -2228128.48546  23556944.180    23556943.6034   23556944.5974
        39.2004         36.7004
 -14088289.90646 -10965438.39647  21690677.206    21690677.6754   21690682.6044
        46.7004         43.9004
 -19004343.47947 -14789606.45647  20600860.155    20600860.5094   20600864.7954
        50.0004         47.2004
                     74218.25743  24908028.536
                        23.2004
 16  6  9  0 53  0.0000000  0  9G19G17G 6G23G31G22G 3G 9G 1
 -11767333.21944  -9147145.51446  22918195.855    22918195.4144   22918197.9754
        42.9004         40.0004
  -2338534.93144  -1807525.18646  23563109.877    23563110.0214   23563114.6804
        40.6004         37.9004
 -10565283.61546  -8215735.98947  21024983.097    21024983.5034   21024988.7224
        48.9004         46.1004
 -22489749.69647 -17513114.13747  20602675.463    20602674.8824   20602675.7134
        49.8004         47.2004
   2372272.99743   1860639.37146  24831671.234    24831670.7074   24831674.7904
        38.2004         36.2004
  -3128026.27943  -2160595.67546  23573434.372    23573433.9374   23573436.4424
        38.9004         36.4004
 -14020808.89946 -10912855.80947  21703517.998    21703518.7064   21703524.6514
        46.7004         43.9004
 -19051759.36447 -14826553.88547  20591837.555    20591837.3314   20591841.5214
        50.0004         47.2004
                    162396.05344  24929567.307
                        29.6004
 16  6  9  0 53 30.0000000  0  9G19G17G 6G23G31G22G 3G 9G 1
 -11699775.48344  -9094503.15646  22931053.074    22931052.4494   22931053.5194
        43.0004         40.4004
  -2249190.22243  -1737905.95446  23580111.311    23580110.8244   23580114.5644
        40.3004         37.6004
 -10611898.78946  -8252059.48447  21016112.470    21016113.0904   21016118.0404
        48.9004         46.1004
 -22480683.43947 -17506049.52247  20604400.660    20604400.2034   20604400.7774
        50.0004         47.2004
   2455515.47643   1925503.58745  24847510.246    24847510.8784   24847512.7494
        38.0004         35.5004
  -3041229.52643  -2092961.87046  23589954.159    23589951.6494   23589952.6054
        38.7004         36.4004
 -13953079.25446 -10860079.48047  21716406.983    21716407.6834   21716412.6724
        46.7004         43.9004
 -19098710.29747 -14863139.01747  20582902.860    20582902.7654   20582907.2054
        50.0004         47.2004
                    250620.74844  24951113.594
                        29.8004
 16  6  9  0 54  0.0000000  0  9G19G17G 6G23G31G22G 3G 9G 1
 -11631770.26244  -9041512.09746  22943994.439    22943993.2834   22943994.4504
        43.0004         40.2004
  -2159605.59743  -1668099.78346  23597159.068    23597160.0764   23597162.1804
        40.1004         37.8004
 -10658019.45946  -8287997.67147  21007336.340    21007336.5044   21007341.3054
        48.9004         46.1004
 -22471165.36847 -17498632.83947  20606212.449    20606211.5764   20606211.7134
        49.8004         47.2004
   2539122.77743   1990652.08545  24863420.493    24863421.4624   24863423.6074
        38.3004         35.9004
  -2954303.81543  -2025227.55246  23606493.680    23606493.0634   23606494.5494
        38.7004         36.6004
 -13885101.67846 -10807109.94847  21729342.938    21729343.0384   21729348.4404
        46.5004         43.9004
 -19145195.66647 -14899361.37647  20574057.108    20574056.9224   20574061.4994
        50.0004         47.2004
                     66995.23153  24972673.063
                        23.4004
 16  6  9  0 54 30.0000000  0  9G19G17G 6G23G31G22G 3G 9G 1
 -11563319.92844  -8988174.18146  22957018.750    22957018.3794   22957019.5214
        42.7004         39.9004
  -2069783.92243  -1598108.88246  23614253.244    23614253.0074   23614255.1164
        40.3004         37.9004
 -10703643.74246  -8323549.05447  20998653.646    20998654.5074   20998659.3134
        48.9004         46.1004
 -22461196.12347 -17490864.59147  20608108.851    20608108.7734   20608108.7494
        49.8004         47.0004
   2623092.28243   2056082.81646  24879400.093    24879399.7024   24879403.9844
        38.0004         36.0004
  -2867249.73643  -1957393.21846  23623060.665    23623058.8924   23623060.6584
        38.9004         36.6004
 -13816876.87946 -10753947.78447  21742325.416    21742326.4254   21742331.4164
        46.7004         44.0004
 -19191214.90047 -14935220.51147  20565299.402    20565299.5404   20565304.4484
        50.0004         47.2004
                    155287.42644  24994243.711
                        29.4004
 16  6  9  0 55  0.0000000  0  9G19G17G 6G23G31G22G 3G 9G 1
 -11494427.40344  -8934491.68946  22970129.871    22970129.1324   22970129.5614
        42.7004         40.0004
  -1979728.43743  -1527935.78746  23631388.146    23631387.5344   23631392.9724
        40.3004         37.8004
 -10748769.78146  -8358712.19747  20990066.802    20990067.0194   20990072.5254
        48.9004         46.1004
 -22450776.86547 -17482745.68247  20610091.741    20610091.2814   20610091.7014
        49.8004         47.2004
   2707421.22043   2121793.63145  24895447.720    24895447.7004   24895450.2284
        38.2004         35.9004
  -2780067.91243  -1889459.35446  23639651.968    23639649.7534   23639650.1954
        39.0004         36.7004
 -13748405.56546 -10700593.52347  21755355.109    21755355.5244   21755361.0684
        46.7004         44.0004
 -19236767.39647 -14970715.95147  20556631.166    20556630.9924   20556635.8834
        50.0004         47.2004
                    243619.49945  25015822.274
                        30.1004
 16  6  9  0 55 30.0000000  0 10G19G17G 6G23G31G 7G22G 3G 9G 1
 -11425095.40844  -8880466.78346  22983322.872    22983322.0624   22983322.6824
        42.9004         39.9004
  -1889442.33543  -1457582.98146  23648569.915    23648569.0904   23648571.8404
        39.9004         37.3004
 -10793395.70046  -8393485.63547  20981574.351    20981575.1964   20981580.3124
        48.9004         46.1004
 -22439908.15647 -17474276.55047  20612160.444    20612159.7184   20612160.0494
        50.0004         47.3004
   2792107.15243   2187782.61946  24911562.290    24911562.9204   24911565.7934
        38.5004         36.4004
                                  24987181.007

  -2692758.92343  -1821426.36846  23656264.938    23656264.7024   23656265.1204
        39.2004         36.9004
 -13679688.40346 -10647047.68947  21768431.848    21768432.4464   21768437.7964
        46.9004         44.0004
 -19281852.59547 -15005847.26047  20548051.417    20548051.4844   20548056.3714
        50.0004         47.2004
                     59724.97343  25037415.759
                        23.4004
 16  6  9  0 56  0.0000000  0  9G19G17G 6G23G31G22G 3G 9G 1
 -11355326.60744  -8826101.49246  22996599.303    22996597.6344   22996599.5834
        42.5004         39.7004
  -1798928.64143  -1387052.87846  23665793.217    23665793.1134   23665797.4524
        39.7004         37.1004
 -10837519.62446  -8427867.91247  20973178.163    20973178.7044   20973183.8764
        48.9004         46.1004
 -22428590.85747 -17465457.87547  20614313.767    20614313.5804   20614313.9004
        50.0004         47.3004
   2877147.45843   2254047.73346  24927745.711    24927745.6934   24927747.5124
        38.3004         36.0004
  -2605323.55143  -1753294.94546  23672904.470    23672904.2344   23672902.7614
        39.2004         36.9004
 -13610726.15546 -10593310.88147  21781555.615    21781555.2284   21781560.7784
        46.9004         44.0004
 -19326469.93747 -15040614.01247  20539561.215    20539561.1054   20539565.9084
        50.0004         47.2004
                    148268.03244  25059014.995
                        29.4004
 16  6  9  0 56 30.0000000  0  9G19G17G 6G23G31G22G 3G 9G 1
 -11285123.88644  -8771398.07846  23009958.671    23009957.2724   23009959.8134
        42.5004         40.0004
  -1708190.12143  -1316347.57846  23683060.979    23683061.5694   23683065.2354
        39.7004         37.4004
 -10881139.71446  -8461857.59747  20964877.843    20964878.4554   20964883.4724
        49.1004         46.5004
 -22416826.04847 -17456290.48747  20616552.711    20616552.1284   20616552.2814
        50.0004         47.2004
   2962539.83043   2320587.18245  24943994.085    24943994.2854   24943996.6274
        38.3004         35.9004
  -2517762.63143  -1685065.68646  23689566.157    23689565.8684   23689565.8914
        39.2004         36.7004
 -13541519.49846 -10539383.61547  21794725.398    21794725.3584   21794730.0124
        46.9004         44.0004
 -19370618.88147 -15075015.78147  20531159.821    20531159.8624   20531164.7964
        50.0004         47.2004
                    236868.64444  25080623.874
                        29.8004
 16  6  9  0 57  0.0000000  0  9G19G17G 6G23G31G22G 3G 9G 1
 -11214490.25544  -8716358.91946  23023399.719    23023398.0764   23023400.7694
        43.0004         40.6004
  -1617230.14643  -1245469.68846  23700369.678    23700370.1944   23700373.3794
        39.9004         37.4004
 -10924254.15946  -8495453.26547  20956673.517    20956673.8214   20956678.8104
        49.3004         46.3004
 -22404614.35647 -17446774.88247  20618876.088    20618875.7104   20618875.9414
        49.8004         47.0004
   3048281.32243   2387398.64946  24960311.327    24960312.1464   24960313.5224
        38.3004         36.2004
  -2430076.78743  -1616739.06246  23706251.947    23706252.1794   23706250.3814
        38.9004         36.4004
 -13472069.16746 -10485266.48247  21807940.525    21807940.9754   21807946.0824
        46.9004         44.0004
 -19414298.92547 -15109052.16647  20522847.992    20522848.0364   20522852.8404
        50.2004         47.5004
                     53886.02743  25102241.682
                        23.4004
 16  6  9  0 57 30.0000000  0  9G19G17G 6G23G31G22G 3G 9G 1
 -11143428.48044  -8660986.13146  23036921.541    23036920.7024   23036923.4064
        42.9004         40.0004
  -1526051.61043  -1174421.49946  23717720.118    23717720.9074   23717723.4844
        39.9004         37.4004
 -10966861.14046  -8528653.50747  20948565.359    20948565.9224   20948571.0224
        49.1004         46.3004
 -22391956.67447 -17436911.75047  20621284.563    20621284.5054   20621284.7694
        49.8004         47.0004
   3134369.34843   2454480.19646  24976693.974    24976694.4864   24976695.4044
        38.2004         36.0004
  -2342266.21943  -1548315.24246  23722962.213    23722960.6624   23722960.7544
        38.9004         36.4004
 -13402375.81646 -10430959.98847  21821202.525    21821202.9194   21821208.2664
        46.7004         43.9004
 -19457509.52447 -15142722.75147  20514625.580    20514625.6124   20514629.8754
        50.3004         47.5004
                    142380.28044  25123865.213
                        29.8004
 16  6  9  0 58  0.0000000  0  9G19G17G 6G23G31G22G 3G 9G 1
 -11071941.11144  -8605281.69346  23050526.043    23050524.9184   23050527.5374
        43.0004         40.6004
  -1434657.74443  -1103205.52946  23735112.849    23735112.9114   23735115.6954
        40.1004         37.4004
 -11008958.83946  -8561456.90247  20940554.386    20940554.9064   20940559.8034
        49.1004         46.1004
 -22378854.02147 -17426701.88147  20623777.828    20623777.6774   20623778.0314
        49.6004         46.8004
   3220801.18243   2521829.61546  24993141.400    24993141.7644   24993141.7394
        38.2004         36.0004
  -2254331.77243  -1479794.92546  23739697.301    23739695.1614   23739693.9974
        38.9004         36.7004
 -13332440.20346 -10376464.71247  21834509.946    21834510.7854   21834516.3384
        46.7004         43.7004
 -19500250.20747 -15176027.17247  20506492.253    20506492.2184   20506496.6904
        50.3004         47.5004
                    230889.57245  25145497.047
                        30.0004
 16  6  9  0 58 30.0000000  0  9G19G17G 6G23G31G22G 3G 9G 1
 -11000031.07844  -8549247.94946  23064211.373    23064209.3504   23064211.5764
        43.4004         40.9004
  -1343051.74143  -1031824.23146  23752542.164    23752543.6014   23752547.8244
        39.7004         37.1004
 -11050545.48846  -8593862.07647  20932640.650    20932641.0444   20932645.9714
        48.9004         45.9004
 -22365307.19547 -17416145.90147  20626355.626    20626355.5084   20626355.9844
        49.6004         47.0004
   3307574.33043   2589444.99545  25009652.045    25009652.1444   25009653.3924
        37.8004         35.3004
  -2166274.05043  -1411178.53646  23756449.858    23756449.7684   23756452.0944
        39.0004         36.7004
 -13262262.99946 -10321781.19647  21847865.822    21847866.2414   21847870.7384
        46.7004         43.9004
 -19542520.46847 -15208965.03347  20498448.389    20498448.3454   20498452.8964
        50.3004         47.3004
                     46578.06343  25167139.285
                        23.4004
 16  6  9  0 59  0.0000000  0  9G19G17G 6G23G31G22G 3G 9G 1
 -10927701.49844  -8492887.25346  23077973.340    23077971.7844   23077974.6364
        43.2004         39.9004
  -1251236.29843   -960279.74846  23770015.883    23770015.7944   23770020.5804
        39.6004         37.3004
 -11091619.25446  -8625867.61447  20924825.049    20924825.5544   20924830.0454
        49.1004         46.5004
 -22351316.98247 -17405244.43647  20629018.175    20629017.7854   20629017.8244
        49.6004         46.8004
   3394686.17542   2657324.27345  25026229.433    25026230.2914   25026231.7414
        37.5004         35.2004
  -2078093.97343  -1342466.77746  23773231.035    23773231.3474   23773232.8644
        39.2004         36.9004
 -13191844.95446 -10266909.99747  21861266.078    21861266.4194   21861270.9364
        46.7004         43.9004
 -19584319.86247 -15241535.97347  20490494.350    20490494.2344   20490498.6774
        50.2004         47.3004
                    135246.13844  25188792.680
                        29.8004
 16  6  9  0 59 30.0000000  0  9G19G17G 6G23G31G22G 3G 9G 1
 -10854955.12844  -8436201.77946  23091816.038    23091815.3914   23091817.5494
        42.3004         39.5004
  -1159214.82643   -888574.76046  23787527.253    23787527.2974   23787531.8744
        39.6004         37.1004
 -11132178.43146  -8657472.16447  20917106.832    20917107.3064   20917112.0344
        49.3004         46.5004
 -22336884.79047 -17393998.56947  20631764.806    20631764.5734   20631764.4864
        49.8004         47.0004
   3482134.01042   2725465.39145  25042871.448    25042870.1984   25042872.7234
        37.3004         35.0004
  -1989792.22543  -1273660.27846  23790037.501    23790035.2254   23790036.3024
        39.2004         36.9004
 -13121186.77346 -10211851.68147  21874711.126    21874712.4294   21874716.3794
        46.7004         43.9004
 -19625647.90447 -15273739.63147  20482629.601    20482629.3004   20482634.1484
        50.2004         47.3004
                    223950.37844  25210448.708
                        29.8004
 16  6  9  1  0  0.0000000  0  9G19G17G 6G23G31G22G 3G 9G 1
 -10781794.75944  -8379193.74846  23105738.890    23105738.0774   23105740.2124
        42.2004         39.7004
  -1066990.36943   -816711.57046  23805076.013    23805075.3844   23805079.6264
        39.2004         36.9004
 -11172221.24246  -8688674.34947  20909486.687    20909487.3264   20909492.2594
        49.3004         46.5004
 -22322010.89547 -17382408.52247  20634595.157    20634594.8804   20634594.6524
        49.8004         47.0004
   3569915.32242   2793866.34245  25059575.770    25059576.9774   25059576.5284
        37.0004         34.8004
  -1901369.52843  -1204759.49946  23806862.648    23806862.0334   23806864.2744
        39.6004         37.4004
 -13050289.09346 -10156606.73647  21888202.890    21888203.2344   21888207.8204
        46.7004         43.7004
 -19666504.16247 -15305575.66947  20474854.302    20474854.9754   20474859.3204
        50.2004         47.3004
                     39231.64843  25232113.555
                        23.4004
 16  6  9  1  0 30.0000000  0  9G19G17G 6G23G31G22G 3G 9G 1
 -10708223.07644  -8321865.21146  23119739.420    23119738.5394   23119739.8174
        42.3004         39.9004
   -974566.00543   -744692.60846  23822665.224    23822665.9674   23822669.5314
        39.7004         37.6004
 -11211745.92546  -8719472.79847  20901965.125    20901966.2324   20901970.9614
        49.5004         46.6004
 -22306696.60047 -17370475.29347  20637509.135    20637508.5704   20637508.9874
        49.6004         46.8004
   3658027.43042   2862525.12345  25076341.389    25076340.9254   25076341.2844
        36.6004         34.5004
  -1812826.36443  -1135764.85046  23823710.259    23823710.7294   23823711.4814
        39.6004         36.9004
 -12979152.69146 -10101175.79447  21901740.464    21901740.6364   21901744.1044
        46.5004         43.7004
 -19706888.21947 -15337043.74947  20467170.178    20467170.1634   20467174.6394
        50.2004         47.3004
                    127974.61644  25253787.715
                        29.4004
 16  6  9  1  1  0.0000000  0  9G19G17G 6G23G31G22G 3G 9G 1
 -10634243.31344  -8264218.63746  23133816.283    23133814.9904   23133818.1264
        42.3004         39.9004
   -881944.74743   -672520.23846  23840291.048    23840291.0744   23840294.1014
        39.9004         37.4004
 -11250750.81546  -8749866.21847  20894542.710    20894543.1864   20894548.2804
        49.3004         46.3004
 -22290942.82047 -17358199.61847  20640506.574    20640506.5074   20640506.6324
        49.6004         46.8004
   3746467.61242   2931439.52745  25093172.036    25093171.5694   25093171.9704
        36.6004         34.6004
  -1724163.26943  -1066676.73546  23840584.286    23840582.6444   23840582.5654
        39.2004         36.7004
 -12907778.29845 -10045559.38047  21915320.537    21915321.6534   21915326.8084
        46.3004         43.3004
 -19746799.65847 -15368143.56147  20459575.167    20459575.1414   20459579.7744
        50.2004         47.3004
                    216746.04144  25275469.218
                        29.8004
 16  6  9  1  1 30.0000000  0  9G19G17G 6G23G31G22G 3G 9G 1
 -10559858.31144  -8206256.32846  23147973.147    23147972.3564   23147973.2324
        42.7004         40.2004
   -789129.66243   -600196.81246  23857951.236    23857951.9364   23857954.7414
        39.7004         37.1004
 -11289234.14446  -8779853.23047  20887219.368    20887220.0824   20887225.2244
        49.1004         46.1004
 -22274750.43847 -17345582.17147  20643588.162    20643587.6904   20643588.3684
        49.6004         46.8004
   3835233.16042   3000607.39845  25110062.939    25110063.0364   25110064.2694
        36.3004         34.3004
  -1635381.04943   -997495.80146  23857477.826    23857477.3124   23857476.7524
        39.0004         36.6004
 -12836166.56645  -9989758.04447  21928948.500    21928948.8334   21928953.3704
        46.2004         43.2004
 -19786238.06347 -15398874.78147  20452070.637    20452070.5474   20452074.9894
        50.2004         47.5004
                     31864.71943  25297147.338
                        23.4004
 16  6  9  1  2  0.0000000  0  9G19G17G 6G23G31G22G 3G 9G 1
 -10485070.77244  -8147980.37046  23162204.688    23162203.3974   23162204.3764
        42.9004         40.0004
   -696123.72543   -527724.69446  23875649.603    23875650.2144   23875653.6844
        39.4004         36.9004
 -11327194.23546  -8809432.52547  20879996.557    20879997.0294   20880001.6604
        49.1004         46.3004
 -22258120.29847 -17332623.62247  20646753.286    20646752.8684   20646752.3644
        49.6004         46.8004
   3924321.32742   3070026.65245  25127016.876    25127016.5454   25127016.3174
        36.4004         34.5004
  -1546480.35943   -928222.55346  23874395.044    23874393.6794   23874394.2794
        38.9004         36.6004
 -12764318.22445  -9933772.32947  21942620.717    21942621.2714   21942625.7594
        46.0004         43.2004
 -19825203.05447 -15429237.09647  20444655.949    20444655.5704   20444660.2994
        50.3004         47.3004
                    120659.56844  25318833.890
                        29.3004
 16  6  9  1  2 30.0000000  0  9G19G17G 6G23G31G22G 3G 9G 1
 -10409883.81844  -8089393.13546  23176511.189    23176510.5044   23176512.3904
        42.3004         39.5004
   -602930.12643   -455106.32746  23893384.831    23893384.9374   23893389.8034
        39.7004         37.4004
 -11364629.42946  -8838602.81447  20872873.156    20872873.3664   20872877.8674
        49.1004         46.3004
 -22241053.67947 -17319324.95347  20650000.985    20650000.6134   20650000.0804
        49.6004         46.8004
   4013730.01442   3139695.67145  25144029.399    25144028.5754   25144032.9724
        36.3004         34.5004
  -1457461.82443   -858857.45946  23891333.511    23891333.4404   23891334.5664
        38.7004         36.4004
 -12692233.96645  -9877602.78747  21956337.909    21956339.0104   21956343.7534
        45.8004         43.2004
 -19863694.25747 -15459230.23047  20437330.797    20437331.0374   20437335.6354
        50.3004         47.3004
                    209461.12144  25340531.031
                        29.6004
 16  6  9  1  3  0.0000000  0  9G19G17G 6G23G31G22G 3G 9G 1
 -10334300.25644  -8030496.87446  23190895.158    23190894.5074   23190894.9464
        42.3004         39.7004
   -509552.04243   -382344.24246  23911154.419    23911153.8574   23911157.9334
        39.6004         37.1004
 -11401538.02846  -8867362.76247  20865849.186    20865849.6884   20865854.8214
        49.1004         46.3004
 -22223551.34547 -17305686.76747  20653331.524    20653331.1474   20653330.7184
        49.6004         46.8004
   4103456.02942   3209611.98745  25161103.654    25161104.0274   25161105.1364
        36.1004         34.1004
  -1368326.13343   -789401.09746  23908298.128    23908295.9304   23908296.3704
        38.9004         36.4004
 -12619914.55545  -9821250.01947  21970100.157    21970100.5934   21970105.6304
        45.8004         43.2004
 -19901711.34447 -15488853.91147  20430096.103    20430096.1954   20430100.9964
        50.2004         47.3004
                     24482.44353  25362225.725
                        23.4004
 16  6  9  1  3 30.0000000  0  8G19G17G 6G23G31G22G 3G 9
 -10258323.26344  -7971294.06046  23205353.528    23205352.2034   23205353.0284
        42.2004         39.3004
   -415992.66343   -309440.84346  23928956.876    23928956.9534   23928961.5714
        39.2004         36.7004
 -11437918.40246  -8895711.09947  20858925.467    20858926.0894   20858931.7774
        49.1004         46.5004
 -22205614.19847 -17291709.76247  20656744.175    20656743.8964   20656744.5754
        49.6004         46.8004
   4193496.77542   3279773.57245  25178238.691    25178239.1744   25178237.1684
        36.1004         34.3004
  -1279073.82743   -719853.85746  23925280.610    23925280.5074   23925279.8274
        38.7004         36.2004
 -12547360.66345  -9764714.52947  21983906.495    21983906.8474   21983911.8344
        45.8004         43.0004
 -19939253.91847 -15518107.84847  20422951.650    20422951.9754   20422956.7134
        50.2004         47.3004
 16  6  9  1  4  0.0000000  0  8G19G17G 6G23G31G22G 3G 9
 -10181955.57244  -7911786.79546  23219883.287    23219883.8724   23219885.7844
        41.5004         38.5004
   -322254.85343   -236398.44346  23946797.925    23946797.2764   23946800.7494
        39.4004         37.1004
 -11473768.90146  -8923646.54247  20852104.072    20852104.6214   20852109.4864
        49.3004         46.6004
 -22187243.58747 -17277394.99547  20660240.388    20660240.1954   20660240.2024
        49.6004         46.8004
   4283849.54842   3350178.25745  25195432.892    25195432.2154   25195434.5174
        36.1004         34.3004
  -1189705.85443   -650216.49146  23942284.716    23942285.5824   23942287.4234
        38.7004         36.6004
 -12474573.02445  -9707996.90547  21997758.876    21997759.2954   21997763.1804
        46.0004         43.2004
 -19976321.69347 -15546991.81447  20415898.426    20415898.5214   20415903.1264
        50.0004         47.2004
 16  6  9  1  4 30.0000000  0  8G19G17G 6G23G31G22G 3G 9
 -10105200.00344  -7851977.25546  23234491.313    23234491.0914   23234492.1014
        41.5004         39.2004
   -228341.55443   -163219.28446  23964666.670    23964667.3604   23964670.4054
        39.4004         36.9004
 -11509087.91046  -8951167.85247  20845383.517    20845383.9524   20845388.4784
        49.5004         46.6004
 -22168440.08747 -17262742.90847  20663818.761    20663818.3824   20663818.5824
        49.6004         46.8004
   4374511.74842   3420824.05145  25212684.945    25212686.7584   25212686.8034
        35.7004         33.8004
  -1100222.71743   -580489.38446  23959315.839    23959314.3374   23959317.1644
        39.0004         36.7004
 -12401552.38745  -9651097.72547  22011653.775    22011653.4244   22011658.3414
        46.0004         43.2004
 -20012914.34747 -15575505.56047  20408934.816    20408934.9404   20408939.8814
        50.2004         47.3004
 16  6  9  1  5  0.0000000  0  8G19G17G 6G23G31G22G 3G 9
 -10028059.63344  -7791867.91746  23249171.125    23249170.3284   23249170.7364
        41.8004         39.2004
   -134256.19143    -89906.01446  23982570.155    23982570.3864   23982575.2614
        39.0004         36.7004
 -11543873.80746  -8978273.74947  20838763.351    20838764.1604   20838768.8994
        49.5004         46.6004
 -22149205.06347 -17247754.57647  20667479.020    20667478.6084   20667478.5064
        49.6004         46.8004
   4465480.77842   3491708.96445  25229994.750    25229995.1404   25230000.6714
        35.6004         33.8004
  -1010625.22943   -510673.18046  23976366.926    23976364.3994   23976365.0494
        39.0004         36.7004
 -12328299.36345  -9594017.47047  22025593.477    22025593.7024   22025597.6994
        45.8004         43.0004
 -20049031.55547 -15603648.82447  20402062.365    20402062.1794   20402066.8104
        50.2004         47.3004
 16  6  9  1  5 30.0000000  0  8G19G17G 6G23G31G22G 3G 9
  -9950537.76644  -7731461.26846  23263921.483    23263921.2134   23263922.9214
        41.3004         38.3004
    -40002.06943    -16461.24746  24000507.133    24000508.2374   24000512.1024
        39.4004         37.3004
 -11578125.01546  -9004963.00047  20832245.866    20832246.0434   20832250.9084
        49.3004         46.5004
 -22129539.43747 -17232430.71247  20671221.095    20671220.7684   20671220.4714
        49.6004         46.8004
   4556753.95742   3562830.85045  25247364.121    25247365.0444   25247366.7514
        35.4004         33.6004
   -920914.02643   -440768.37546  23993437.976    23993437.9754   23993437.7324
        39.2004         37.1004
 -12254814.70745  -9536756.68447  22039577.190    22039577.6314   22039581.7454
        45.8004         43.2004
 -20084673.03347 -15631421.38447  20395280.175    20395280.2824   20395284.3964
        50.2004         47.3004
 16  6  9  1  6  0.0000000  0  8G19G17G 6G23G31G22G 3G 9
  -9872636.84244  -7670759.25746  23278747.242    23278745.9384   23278747.0044
        41.3004         39.0004
     54418.21943     57112.94646  24018475.697    24018475.9614   24018477.6964
        39.4004         36.9004
 -11611839.96146  -9031234.38347  20825829.746    20825830.4584   20825835.5674
        49.5004         46.6004
 -22109444.29246 -17216772.15147  20675045.041    20675044.7704   20675044.5734
        49.5004         46.6004
   4648328.85542   3634187.85445  25264790.841    25264789.5774   25264794.0114
        35.2004         33.4004
   -831089.55343   -370775.27446  24010531.067    24010529.8914   24010529.4204
        39.4004         36.7004
 -12181099.17845  -9479316.02347  22053605.593    22053605.3374   22053609.6494
        45.8004         43.0004
 -20119838.51247 -15658823.04647  20388588.112    20388588.4244   20388592.8094
        50.3004         47.5004
 16  6  9  1  6 30.0000000  0  8G19G17G 6G23G31G22G 3G 9
  -9794360.44844  -7609764.69746  23293642.662    23293641.3184   23293642.6444
        41.8004         39.3004
    149001.30143    130814.04446  24036472.520    24036473.1044   24036477.6104
        39.4004         37.1004
 -11645017.08946  -9057086.69347  20819516.744    20819517.4174   20819522.1194
        49.5004         46.8004
 -22088920.71446 -17200779.74147  20678950.562    20678950.0254   20678950.4454
        49.5004         46.6004
   4740202.22642   3705777.47945  25282272.787    25282273.6474   25282276.2624
        35.0004         33.3004
   -741152.59643   -300694.52046  24027646.632    24027645.5824   24027643.2794
        39.0004         36.6004
 -12107153.45245  -9421695.98447  22067675.601    22067675.8564   22067681.1844
        45.8004         42.8004
 -20154527.73147 -15685853.58947  20381986.951    20381987.0504   20381991.5474
        50.3004         47.5004
 16  6  9  1  7  0.0000000  0  7G19G17G 6G23G22G 3G 9
  -9715711.29644  -7548479.65246  23308607.930    23308606.7234   23308609.0774
        41.5004         38.5004
    243744.40843    204639.82646  24054503.430    24054503.3854   24054506.2944
        39.4004         37.1004
 -11677654.83447  -9082518.70047  20813305.940    20813306.2174   20813311.5444
        49.6004         46.8004
 -22067969.53946 -17184454.14347  20682937.354    20682937.2744   20682937.1544
        49.5004         46.8004
   -651103.76143   -230526.59446  24044781.803    24044779.3204   24044779.1444
        38.9004         36.6004
 -12032978.26845  -9363897.15247  22081790.969    22081791.2064   22081796.1224
        45.6004         42.8004
 -20188740.44147 -15712512.83247  20375476.500    20375476.7464   20375481.1704
        50.3004         47.5004
 16  6  9  1  7 30.0000000  0  7G19G17G 6G23G22G 3G 9
  -9636692.32444  -7486906.44046  23323645.338    23323644.8374   23323645.5524
        41.1004         38.5004
    338644.04843    278587.58646  24072562.333    24072562.0364   24072563.1434
        39.4004         36.9004
 -11709751.67047  -9107529.21247  20807198.055    20807198.5814   20807203.8834
        49.6004         46.8004
 -22046591.94747 -17167796.27047  20687005.719    20687005.1104   20687005.3604
        49.6004         46.8004
   -560943.80343   -160272.11546  24061935.752    24061935.5644   24061936.1774
        38.7004         36.0004
 -11958574.30045  -9305920.03747  22095949.457    22095949.7064   22095954.7354
        45.6004         42.8004
 -20222476.40847 -15738800.58947  20369057.477    20369057.2554   20369061.1354
        50.3004         47.5004
 16  6  9  1  8  0.0000000  0  7G19G17G 6G23G22G 3G 9
  -9557306.47944  -7425047.35746  23338752.187    23338750.8784   23338752.4464
        41.5004         39.0004
    433697.41743    352655.13546  24090649.821    24090649.9064   24090652.5944
        39.2004         36.7004
 -11741306.10547  -9132117.08047  20801193.432    20801193.9374   20801198.6284
        49.6004         46.6004
 -22024789.17047 -17150807.09647  20691154.615    20691154.0024   20691154.3874
        49.6004         46.8004
   -470673.53243    -89931.61845  24079113.951    24079113.1994   24079114.8044
        38.0004         35.7004
 -11883942.31945  -9247765.26447  22110151.590    22110152.1044   22110156.6864
        45.6004         42.8004
 -20255735.44247 -15764716.70847  20362727.912    20362727.9814   20362731.8694
        50.3004         47.5004
 16  6  9  1  8 30.0000000  0  8G19G17G 6G23G22G 3G 2G 9
  -9477557.00244  -7362904.90746  23353926.112    23353926.3624   23353928.9094
        41.3004         38.6004
    528901.47043    426840.11346  24108766.412    24108765.7384   24108769.3404
        39.2004         36.9004
 -11772316.61246  -9156281.11447  20795292.344    20795292.9924   20795297.4794
        49.5004         46.5004
 -22002561.84946 -17133487.10447  20695383.977    20695383.9414   20695383.8374
        49.5004         46.6004
   -380293.29243    -19505.49945  24096313.161    24096311.1804   24096312.7074
        37.8004         35.5004
 -11809083.02745  -9189433.34947  22124397.174    22124397.6664   22124402.2544
        45.6004         43.0004
   -248181.37552   -169528.10556  24031063.023    24031061.1644   24031062.7764
        37.3004         36.4004
 -20288517.31147 -15790261.01347  20356489.535    20356489.8494   20356494.1994
        50.3004         47.5004
 16  6  9  1  9  0.0000000  0  8G19G17G 6G23G22G 3G 2G 9
  -9397446.89144  -7300481.47146  23369172.424    23369171.4094   23369173.1994
        41.5004         39.0004
    624252.98543    501139.98846  24126912.397    24126911.8054   24126914.0464
        39.4004         36.9004
 -11802781.73346  -9180020.16847  20789494.972    20789495.4504   20789500.3624
        49.5004         46.6004
 -21979911.44746 -17115837.43847  20699694.406    20699694.0434   20699694.2194
        49.5004         46.6004
   -289803.87643     51005.71845  24113530.787    24113530.1984   24113533.6954
        37.6004         35.5004
 -11733997.14845  -9130924.89347  22138685.250    22138685.6694   22138690.2184
        45.6004         42.6004
   -343499.01943   -243801.58146  24012923.945    24012923.7074   24012924.6254
        39.0004         37.1004
 -20320821.80047 -15815433.33447  20350342.398    20350342.3494   20350346.9264
        50.5004         47.7004
 16  6  9  1  9 30.0000000  0  8G19G17G 6G23G22G 3G 2G 9
  -9316979.03744  -7237779.27746  23384483.452    23384482.9944   23384485.6554
        41.5004         39.0004
    719748.95443    575552.43446  24145081.931    24145083.1244   24145085.7484
        39.0004         36.7004
 -11832699.99847  -9203333.10047  20783801.669    20783802.0484   20783807.3444
        49.6004         46.8004
 -21956839.09646 -17097858.98047  20704084.776    20704084.4984   20704084.4864
        49.5004         46.6004
   -199206.10243    121601.38745  24130772.904    24130770.8674   24130774.8324
        37.8004         35.7004
 -11658685.38445  -9072240.40547  22153016.198    22153016.7744   22153022.1514
        45.5004         42.6004
   -438635.94653   -317934.21756  23994819.469    23994819.4524   23994819.4664
        39.6004         37.3004
 -20352648.79447 -15840233.58247  20344285.836    20344285.8814   20344290.6414
        50.5004         47.7004
 16  6  9  1 10  0.0000000  0  8G19G17G 6G23G22G 3G 2G 9
  -9236156.61644  -7174800.78746  23399864.753    23399863.2784   23399865.8884
        41.5004         39.0004
    815386.07343    650074.84846  24163281.823    24163282.0104   24163284.4044
        38.7004         36.4004
 -11862069.96647  -9226218.78647  20778212.575    20778213.0964   20778218.3884
        49.6004         46.6004
 -21933345.60446 -17079552.35247  20708555.497    20708554.9214   20708555.3364
        49.3004         46.5004
   -108500.55343    192281.06346  24148030.935    24148032.3204   24148035.3544
        38.2004         36.0004
 -11583148.44745  -9013380.45547  22167390.338    22167390.4034   22167396.1084
        45.5004         42.6004
   -533589.72943   -391924.14746  23976751.940    23976750.5424   23976751.0204
        40.1004         37.8004
 -20383998.06347 -15864661.57247  20338320.230    20338320.1164   20338324.8204
        50.5004         47.5004
 16  6  9  1 10 30.0000000  0  8G19G17G 6G23G22G 3G 2G 9
  -9154982.59844  -7111548.32946  23415309.862    23415309.6404   23415312.5214
        41.6004         38.8004
    911161.45043    724704.99546  24181508.800    24181509.3544   24181510.2614
        38.5004         36.4004
 -11890890.22246  -9248676.12747  20772727.839    20772728.6474   20772734.1764
        49.5004         46.6004
 -21909432.33446 -17060918.63347  20713105.319    20713105.3174   20713105.9294
        49.3004         46.5004
    -17687.84043    263044.18146  24165315.141    24165313.4304   24165317.0884
        38.3004         36.0004
 -11507387.09645  -8954345.65347  22181808.792    22181808.2204   22181813.4524
        45.5004         42.6004
   -628357.95143   -465769.47846  23958717.330    23958716.9774   23958716.0144
        40.3004         37.9004
 -20414869.48747 -15888717.22347  20332445.450    20332445.4794   20332449.8424
        50.3004         47.5004
 16  6  9  1 11  0.0000000  0  8G19G17G 6G23G22G 3G 2G 9
  -9073459.91544  -7048024.17046  23430823.069    23430822.0374   23430826.1744
        41.3004         38.6004
   1007072.17643    799440.63346  24199758.994    24199759.3894   24199762.4994
        38.7004         36.6004
 -11919159.31946  -9270703.99747  20767348.723    20767349.6604   20767354.6164
        49.5004         46.6004
 -21885100.20046 -17041958.52747  20717736.134    20717735.8644   20717736.3034
        49.3004         46.5004
     73231.22143    333890.19345  24182618.674    24182615.1984   24182616.5694
        38.2004         35.9004
 -11431402.05245  -8895136.53147  22196266.255    22196267.6084   22196272.2994
        45.5004         42.6004
   -722938.49243   -539468.57446  23940718.216    23940717.9394   23940719.0724
        40.4004         37.9004
 -20445262.94747 -15912400.43347  20326661.800    20326662.0664   20326666.0384
        50.3004         47.5004
 16  6  9  1 11 30.0000000  0  8G19G17G 6G23G22G 3G 2G 9
  -8991591.82444  -6984230.89446  23446403.876    23446402.4294   23446404.8554
        41.3004         38.8004
   1103115.33943    874279.50146  24218034.656    24218034.4774   24218037.6244
        38.9004         36.6004
 -11946875.90346  -9292301.32647  20762074.702    20762074.8794   20762080.2344
        49.5004         46.5004
 -21860350.40946 -17022672.97347  20722446.083    20722445.9274   20722445.9284
        49.3004         46.5004
    164256.14143    404818.68345  24199934.635    24199935.7134   24199939.4344
        37.8004         35.5004
 -11355193.97845  -8835753.62947  22210769.539    22210768.9694   22210774.1624
        45.3004         42.3004
   -817329.21444   -613019.76846  23922757.122    23922756.4234   23922756.9674
        40.6004         38.1004
 -20475178.29247 -15935711.08447  20320968.878    20320968.8354   20320973.3394
        50.3004         47.5004
 16  6  9  1 12  0.0000000  0  8G19G17G 6G23G22G 3G 2G 9
  -8909381.51844  -6920170.94846  23462048.269    23462046.8884   23462048.0124
        41.5004         38.8004
   1199287.03243    949218.46146  24236336.418    24236336.0074   24236339.2374
        38.9004         36.7004
 -11974038.56046  -9313467.03347  20756905.454    20756905.8084   20756911.5334
        49.5004         46.6004
 -21835184.21246 -17003062.94847  20727234.989    20727234.7114   20727234.8484
        49.3004         46.5004
    255385.94842    475828.92145  24217277.398    24217276.0394   24217279.0154
        37.1004         35.0004
 -11278763.62345  -8776197.51947  22225312.629    22225313.5224   22225318.3444
        45.1004         42.3004
   -911527.36043   -686420.89846  23904831.121    23904830.3264   23904831.4224
        40.4004         38.1004
 -20504615.41147 -15958649.09747  20315367.309    20315367.2944   20315371.9394
        50.3004         47.7004
 16  6  9  1 12 30.0000000  0  8G19G17G 6G23G22G 3G 2G 9
  -8826831.95344  -6855846.61346  23477756.182    23477756.0754   23477758.1514
        41.6004         39.2004
   1295584.54843   1024255.47546  24254660.509    24254660.6104   24254664.7524
        38.9004         36.6004
 -12000645.95846  -9334200.06447  20751842.068    20751842.8644   20751848.2714
        49.5004         46.8004
 -21809602.54446 -16983129.17747  20732102.279    20732102.4514   20732102.7954
        49.1004         46.3004
    346620.22042    546920.52945  24234642.500    24234640.1524   24234640.1654
        37.1004         34.8004
 -11202111.74545  -8716468.79347  22239899.523    22239899.6334   22239904.4464
        44.9004         42.1004
  -1005531.08144   -759670.50346  23886942.658    23886941.3954   23886943.6154
        40.6004         38.1004
 -20533574.23947 -15981214.40947  20309856.830    20309856.8884   20309861.2464
        50.5004         47.7004
 16  6  9  1 13  0.0000000  0  8G19G17G 6G23G22G 3G 2G 9
  -8743946.12244  -6791260.24146  23493528.776    23493527.6394   23493530.5834
        41.6004         39.0004
   1392004.75643   1099388.12446  24273008.462    24273009.8064   24273013.2334
        38.7004         36.4004
 -12026696.74447  -9354499.37247  20746885.039    20746885.5384   20746890.8614
        49.6004         46.8004
 -21783606.61946 -16962872.60847  20737049.210    20737049.1964   20737049.4254
        49.1004         46.3004
    437958.24842    618093.04845  24252022.097    24252019.0844   24252020.7704
        36.8004         34.6004
 -11125239.03845  -8656567.99746  22254526.866    22254527.9184   22254532.7894
        44.8004         41.9004
  -1099337.97744   -832766.74346  23869091.714    23869090.4244   23869092.6814
        40.6004         38.1004
 -20562054.64047 -16003406.91947  20304437.342    20304437.2754   20304441.7724
        50.5004         47.7004
 16  6  9  1 13 30.0000000  0  8G19G17G 6G23G22G 3G 2G 9
  -8660727.13544  -6726414.32546  23509364.875    23509363.8104   23509366.1254
        41.5004         38.6004
   1488544.85543   1174614.18646  24291380.500    24291380.2194   24291383.7594
        38.3004         36.0004
 -12052189.58047  -9374363.91747  20742034.149    20742034.5444   20742039.7014
        49.6004         46.6004
 -21757197.71546 -16942294.23947  20742074.916    20742074.7074   20742075.1294
        49.1004         46.3004
    529399.33442    689345.81445  24269427.366    24269420.5124   24269421.3634
        37.0004         35.0004
 -11048146.23845  -8596495.70046  22269196.499    22269197.3704   22269203.4774
        44.6004         41.8004
  -1192945.71243   -905707.80946  23851279.045    23851278.5534   23851279.6704
        40.4004         37.9004
 -20590056.57747 -16025226.60647  20299108.379    20299108.1884   20299113.0204
        50.5004         47.5004
 16  6  9  1 14  0.0000000  0  8G19G17G 6G23G22G 3G 2G 9
  -8577178.10044  -6661311.18646  23525262.408    23525261.5814   23525265.1654
        40.9004         38.1004
   1585201.75243   1249931.23945  24309775.173    24309774.4114   24309775.9564
        38.2004         35.9004
 -12077123.17047  -9393792.68647  20737289.454    20737290.0364   20737295.0704
        49.6004         46.8004
 -21730376.77946 -16921394.80347  20747179.519    20747178.8714   20747179.3754
        49.1004         46.5004
    620942.64242    760678.23645  24286843.841    24286842.7654   24286840.8904
        36.8004         34.6004
 -10970834.04245  -8536252.46147  22283910.124    22283910.1214   22283915.9164
        44.8004         42.1004
  -1286352.05843   -978491.95746  23833503.491    23833502.4244   23833504.3804
        40.4004         37.9004
 -20617580.02747 -16046673.43747  20293870.589    20293870.5534   20293875.5484
        50.3004         47.5004
 16  6  9  1 14 30.0000000  0  8G19G17G 6G23G22G 3G 2G 9
  -8493302.15544  -6595953.34046  23541225.200    23541224.8014   23541226.2714
        40.9004         38.6004
   1681972.18143   1325336.77845  24328187.298    24328187.5074   24328191.0354
        37.8004         35.7004
 -12101496.23047  -9412784.68347  20732651.850    20732651.9534   20732657.2404
        49.6004         46.8004
 -21703145.08246 -16900175.29447  20752360.966    20752360.9594   20752360.9824
        49.3004         46.5004
    712587.78142    832090.06145  24304277.752    24304280.3804   24304280.0684
        36.8004         34.8004
 -10893303.24745  -8475838.86246  22298662.644    22298663.5154   22298669.5064
        44.8004         41.9004
  -1379554.68744  -1051117.35646  23815767.284    23815767.1664   23815769.1514
        40.6004         38.1004
 -20644624.91147 -16067747.36747  20288724.388    20288724.4694   20288728.8404
        50.3004         47.5004
 16  6  9  1 15  0.0000000  0  8G19G17G 6G23G22G 3G 2G 9
  -8409102.39844  -6530343.17446  23557247.846    23557247.0684   23557250.1984
        41.3004         38.6004
   1778853.12843   1400828.45945  24346622.877    24346623.7674   24346627.2354
        37.8004         35.7004
 -12125307.48047  -9431338.90547  20728120.144    20728120.6624   20728125.7884
        49.6004         46.8004
 -21675503.70146 -16878636.54647  20757620.914    20757620.5214   20757621.1664
        49.1004         46.5004
    804333.98642    903580.59745  24321742.582    24321739.2844   24321741.8334
        37.0004         35.0004
 -10815554.49045  -8415255.44147  22313459.563    22313459.6634   22313464.8184
        44.9004         42.5004
  -1472551.26944  -1123582.20546  23798071.233    23798070.4444   23798072.1234
        40.6004         38.3004
 -20671191.21647 -16088448.37647  20283669.198    20283669.1654   20283673.2534
        50.3004         47.5004
 16  6  9  1 15 30.0000000  0  8G19G17G 6G23G22G 3G 2G 9
  -8324581.84544  -6464483.01046  23573330.177    23573329.2574   23573333.1664
        40.9004         38.1004
   1875841.57343   1476403.87445  24365079.921    24365080.4484   24365083.2914
        37.8004         35.5004
 -12148555.69347  -9449454.39747  20723695.734    20723696.4814   20723701.7844
        49.6004         46.6004
 -21647454.09346 -16856779.70747  20762958.294    20762958.4234   20762958.6624
        49.1004         46.5004
    896180.39142    975149.15445  24339222.062    24339217.8264   24339219.0874
        37.0004         35.0004
 -10737588.54745  -8354502.77447  22328294.885    22328295.7264   22328301.3664
        45.1004         42.5004
  -1565339.40944  -1195884.62846  23780414.181    23780413.6704   23780415.4244
        40.8004         38.3004
 -20697278.92447 -16108776.45647  20278705.045    20278704.8414   20278709.1234
        50.3004         47.7004
 16  6  9  1 16  0.0000000  0  8G19G17G 6G23G22G 3G 2G 9
  -8239743.55243  -6398375.29946  23589476.529    23589475.1534   23589476.5864
        40.4004         37.8004
   1972934.45443   1552060.71145  24383556.924    24383556.9604   24383559.3924
        37.8004         35.7004
 -12171239.63046  -9467130.18847  20719380.085    20719380.7004   20719385.1354
        49.5004         46.8004
 -21618997.35746 -16834605.62147  20768373.962    20768373.6784   20768374.1244
        49.3004         46.5004
    988126.44042   1046795.42845  24356711.089    24356713.0894   24356716.0064
        37.3004         35.5004
 -10659406.13645  -8293581.42547  22343173.539    22343173.2034   22343178.8094
        45.1004         42.3004
  -1657916.93144  -1268022.93546  23762797.587    23762797.1174   23762797.9864
        40.9004         38.3004
 -20722888.04847 -16128731.60947  20273831.454    20273831.4374   20273836.1514
        50.5004         47.7004
 16  6  9  1 16 30.0000000  0  8G19G17G 6G23G22G 3G 2G 9
  -8154590.88843  -6332022.60946  23605680.376    23605679.4224   23605680.0494
        40.4004         37.9004
   2070128.63443   1627796.45945  24402051.720    24402051.2764   24402055.0184
        37.6004         35.2004
 -12193358.04147  -9484365.32047  20715171.273    20715171.3154   20715176.0014
        49.6004         46.8004
 -21590134.57546 -16812115.13947  20773866.111    20773866.1464   20773866.5484
        49.1004         46.5004
   1080171.26642   1118518.66945  24374230.085    24374229.0714   24374229.7364
        37.0004         34.8004
 -10581007.99945  -8232491.98947  22358091.501    22358092.1594   22358096.9424
        45.1004         42.3004
  -1750281.52744  -1339995.32146  23745221.054    23745220.7174   23745221.6854
        40.8004         38.1004
 -20748018.59147 -16148313.84647  20269049.116    20269049.2634   20269053.8004
        50.5004         47.8004
 16  6  9  1 17  0.0000000  0  8G19G17G 6G23G22G 3G 2G 9
  -8069127.02443  -6265427.40446  23621941.333    23621941.3324   23621944.0314
        40.3004         37.6004
   2167421.26942   1703608.91445  24420564.215    24420564.7404   24420568.8824
        37.1004         35.2004
 -12214909.78547  -9501158.87947  20711069.887    20711070.2714   20711075.0074
        49.6004         47.0004
 -21560867.06546 -16789309.28547  20779435.778    20779435.4494   20779435.9884
        49.1004         46.3004
   1172314.52942   1190318.57445  24391766.922    24391763.3024   24391765.6304
        36.8004         34.8004
 -10502394.84545  -8171234.98047  22373051.216    22373051.1724   22373057.0394
        45.1004         42.3004
  -1842430.87343  -1411799.98746  23727686.041    23727684.8244   23727685.5234
        40.3004         37.6004
 -20772670.57747 -16167523.17347  20264358.226    20264358.0754   20264363.1384
        50.5004         47.8004
 16  6  9  1 17 30.0000000  0  8G19G17G 6G23G22G 3G 2G 9
  -7983354.80443  -6198591.92146  23638264.079    23638262.6914   23638266.3074
        40.3004         37.8004
   2264809.47942   1779495.85645  24439099.694    24439099.9734   24439100.2804
        36.8004         35.0004
 -12235893.63647  -9517509.93347  20707076.848    20707077.4154   20707082.0634
        49.6004         46.8004
 -21531195.69446 -16766188.73847  20785082.181    20785081.8244   20785082.0954
        49.1004         46.3004
   1264555.35642   1262194.53945  24409319.797    24409316.9084   24409315.4354
        36.8004         34.8004
 -10423567.41445  -8109811.00947  22388051.762    22388051.8804   22388056.9294
        45.1004         42.3004
  -1934362.46243  -1483434.94246  23710192.645    23710190.9094   23710191.6564
        40.3004         37.6004
 -20796844.05847 -16186359.64547  20259757.852    20259757.9414   20259762.7724
        50.5004         47.8004
 16  6  9  1 18  0.0000000  0  9G19G17G 6G23G 7G22G 3G 2G 9
  -7897277.56643  -6131518.79046  23654645.471    23654644.9604   23654645.8934
        40.3004         37.8004
   2362289.52242   1855454.32045  24457646.036    24457646.2754   24457651.7124
        36.4004         34.5004
 -12256308.45947  -9533417.59247  20703192.075    20703192.4114   20703197.0764
        49.6004         46.8004
 -21501122.12646 -16742754.78847  20790805.037    20790804.7634   20790804.5604
        49.1004         46.3004
                   -172673.04556  24066672.219
                        36.0004
   1356893.07942   1334146.00345  24426890.769    24426888.0574   24426890.0794
        37.0004         35.2004
 -10344526.47945  -8048220.67747  22403092.596    22403093.2924   22403098.3414
        45.1004         42.5004
  -2026074.13343  -1554898.56246  23692739.951    23692739.2144   23692740.1874
        40.3004         38.1004
 -20820539.06647 -16204823.27747  20255249.166    20255248.9924   20255253.7074
        50.5004         47.8004
 16  6  9  1 18 30.0000000  0  9G19G17G 6G23G 7G22G 3G 2G 9
  -7810898.27343  -6064210.27046  23671081.718    23671080.5954   23671083.3834
        40.4004         38.1004
   2459858.60442   1931482.17645  24476215.688    24476214.1204   24476217.4014
        36.3004         34.3004
 -12276153.12347  -9548880.96847  20699415.300    20699416.0704   20699420.8254
        49.6004         46.8004
 -21470647.29646 -16719008.16347  20796603.882    20796603.8114   20796603.7224
        48.9004         46.1004
                   -255779.37046  24046376.509                    24046380.8544
                        36.0004
   1449326.85442   1406172.32745  24444476.968    24444477.7794   24444476.6104
        36.8004         34.6004
 -10265272.71345  -7986464.51347  22418174.455    22418174.7004   22418179.9594
        44.9004         42.3004
  -2117563.75344  -1626189.13746  23675330.000    23675329.0724   23675329.8424
        40.6004         37.9004
 -20843755.67747 -16222914.13947  20250830.934    20250831.2514   20250835.9954
        50.5004         47.8004
 16  6  9  1 19  0.0000000  0  9G19G17G 6G23G 7G22G 3G 2G 9
  -7724220.18244  -5996668.91546  23687575.851    23687575.7804   23687577.9644
        40.8004         38.3004
   2557513.90442   2007577.22945  24494798.341    24494799.1504   24494801.7844
        36.1004         34.1004
 -12295426.52747  -9563899.19947  20695747.657    20695748.0024   20695753.0314
        49.6004         46.8004
 -21439772.57446 -16694949.92847  20802478.993    20802478.5044   20802478.6394
        48.9004         46.1004
   -457424.31643   -338825.72046  24026096.593    24026096.8154   24026099.0134
        37.8004         36.0004
   1541856.23542   1478273.13045  24462087.090    24462085.6594   24462083.5424
        36.6004         34.6004
 -10185806.90045  -7924543.12347  22433294.364    22433296.4944   22433301.1284
        44.9004         42.1004
  -2208828.67744  -1697304.62146  23657962.366    23657962.2654   23657963.1604
        40.6004         38.1004
 -20866494.01247 -16240632.31447  20246503.967    20246504.1204   20246508.6754
        50.5004         47.7004
 16  6  9  1 19 30.0000000  0  9G19G17G 6G23G 7G22G 3G 2G 9
  -7637246.31144  -5928897.06046  23704126.221    23704125.6854   23704128.1884
        40.8004         38.3004
   2655252.27842   2083736.99745  24513395.963    24513398.4494   24513397.4454
        36.3004         34.3004
 -12314127.50647  -9578471.39447  20692189.204    20692189.6544   20692194.5964
        49.6004         46.8004
 -21408499.02146 -16670580.92547  20808430.680    20808430.0684   20808430.0844
        48.9004         46.1004
   -563920.48243   -421809.72446  24005831.004    24005830.8354   24005833.5874
        38.0004         36.0004
   1634480.45742   1550447.84645  24479714.366    24479712.0344   24479711.5034
        36.8004         34.8004
 -10106129.74645  -7862457.04647  22448458.544    22448458.6434   22448463.4894
        44.9004         42.3004
  -2299866.78144  -1768243.35746  23640638.903    23640638.2844   23640638.9294
        40.6004         37.9004
 -20888754.10147 -16257977.83147  20242268.178    20242267.9304   20242272.5784
        50.5004         47.7004
 16  6  9  1 20  0.0000000  0  9G19G17G 6G23G 7G22G 3G 2G 9
  -7549979.97644  -5860897.35446  23720733.215    23720731.9534   23720734.1744
        40.6004         38.3004
   2753070.63342   2159959.10445  24532011.257    24532011.6584   24532015.1104
        36.6004         34.8004
 -12332255.02847  -9592596.74047  20688739.681    20688739.9284   20688745.0144
        49.6004         46.6004
 -21376827.97946 -16645902.18947  20814457.049    20814456.8204   20814457.2214
        48.9004         46.1004
   -670334.39753   -504729.65055  23985580.852    23985581.3554   23985582.9634
        37.8004         35.7004
   1727198.68742   1622695.79345  24497356.292    24497354.6654   24497353.1804
        36.6004         34.6004
 -10026241.98945  -7800206.84547  22463659.698    22463660.2224   22463665.6894
        44.9004         42.1004
  -2390675.75544  -1839003.56746  23623358.658    23623357.7304   23623358.5964
        40.6004         38.1004
 -20910536.08547 -16274950.79347  20238122.835    20238122.9694   20238127.9224
        50.5004         47.8004
 16  6  9  1 20 30.0000000  0  9G19G17G 6G23G 7G22G 3G 2G 9
  -7462424.24944  -5792672.15746  23737393.799    23737393.0844   23737395.8234
        40.6004         37.9004
   2850966.05542   2236241.25045  24550641.094    24550642.5244   24550642.9274
        36.6004         34.6004
 -12349808.03046  -9606274.40947  20685398.839    20685399.4204   20685404.9604
        49.5004         46.5004
 -21344760.62146 -16620914.63547  20820559.534    20820559.2434   20820559.5624
        48.9004         46.1004
   -776663.18643   -587583.23245  23965345.913    23965347.0444   23965348.5064
        37.8004         35.7004
   1820010.33942   1695016.58245  24515016.445    24515016.6484   24515017.2084
        36.6004         34.8004
  -9946144.33745  -7737793.11147  22478902.465    22478902.5364   22478907.8634
        44.9004         42.1004
  -2481253.28444  -1909583.40646  23606121.854    23606120.8164   23606121.6084
        40.6004         37.9004
 -20931840.07947 -16291551.30247  20234068.938    20234068.9334   20234073.7594
        50.5004         47.8004
 16  6  9  1 21  0.0000000  0  9G19G17G 6G23G 7G22G 3G 2G 9
  -7374582.39344  -5724223.95146  23754110.401    23754109.8394   23754112.5834
        40.6004         38.3004
   2948935.43042   2312581.03045  24569283.992    24569283.4424   24569286.3324
        36.8004         35.0004
 -12366785.45246  -9619503.57747  20682168.936    20682169.2294   20682174.2534
        49.5004         46.6004
 -21312298.48046 -16595619.45747  20826736.745    20826736.5374   20826736.6274
        48.9004         46.1004
   -882904.15643   -670368.39445  23945129.834    23945130.3244   23945131.8694
        37.6004         35.5004
   1912914.87942   1767409.71445  24532697.564    24532694.9434   24532695.5854
        36.6004         34.5004
  -9865837.63245  -7675216.45447  22494183.815    22494184.5174   22494190.5924
        44.8004         42.1004
  -2571596.80043  -1979980.92846  23588929.864    23588929.2474   23588929.5494
        40.4004         38.1004
 -20952666.21047 -16307779.44847  20230105.528    20230105.9224   20230110.5254
        50.5004         47.7004
 16  6  9  1 21 30.0000000  0  9G19G17G 6G23G 7G22G 3G 2G 9
  -7286457.49144  -5655555.25046  23770881.391    23770879.7454   23770881.0314
        40.8004         38.3004
   3046975.60142   2388975.98045  24587938.623    24587938.4574   24587943.6154
        37.0004         35.2004
 -12383186.29746  -9632283.45847  20679046.840    20679047.8144   20679053.4964
        49.5004         46.6004
 -21279442.64746 -16570017.51047  20832989.301    20832988.6294   20832989.0014
        48.9004         46.1004
   -989054.88342   -753083.22645  23924931.736    23924930.4874   23924932.2494
        37.3004         35.3004
   2005911.36342   1839874.50145  24550392.640    24550391.0954   24550391.4594
        36.6004         34.6004
  -9785322.50545  -7612477.40346  22509505.592    22509505.7204   22509511.8204
        44.8004         41.9004
  -2661704.06943  -2050194.35446  23571783.668    23571782.1874   23571783.4604
        40.4004         37.9004
 -20973014.65447 -16323635.37147  20226233.582    20226233.5434   20226238.4284
        50.5004         47.7004
 16  6  9  1 22  0.0000000  0  9G19G17G 6G23G 7G22G 3G 2G 9
  -7198052.79544  -5586668.48946  23787703.550    23787702.3914   23787704.5344
        40.9004         38.5004
   3145083.64842   2465423.78845  24606608.094    24606607.5074   24606610.9374
        37.0004         35.0004
 -12399009.55446  -9644613.27147  20676036.203    20676036.8034   20676042.4974
        49.5004         46.6004
 -21246194.45146 -16544109.81947  20839315.954    20839315.7554   20839316.2244
        48.9004         46.1004
  -1095112.74942   -835725.69945  23904748.308    23904748.0614   23904749.2564
        37.5004         35.5004
   2098999.33942   1912410.55645  24568109.073    24568105.9484   24568107.5834
        36.4004         34.6004
  -9704599.74145  -7549576.56846  22524865.681    22524866.6144   22524872.2184
        44.4004         41.6004
  -2751572.76243  -2120221.87746  23554682.230    23554681.6514   23554681.3784
        40.4004         38.1004
 -20992885.54447 -16339119.17847  20222452.248    20222452.2674   20222456.9034
        50.5004         47.7004
 16  6  9  1 22 30.0000000  0  9G19G17G 6G23G 7G22G 3G 2G 9
  -7109371.32344  -5517566.05246  23804578.948    23804577.8974   23804579.5284
        40.8004         38.3004
   3243256.74842   2541922.36545  24625289.679    24625290.3144   24625292.2414
        36.8004         34.8004
 -12414254.23946  -9656492.24647  20673135.537    20673135.8434   20673141.5604
        49.5004         46.8004
 -21212554.55646 -16517896.91647  20845717.288    20845716.7684   20845717.1934
        48.9004         45.9004
  -1201075.03842   -918293.68245  23884585.463    23884584.5584   23884586.5684
        37.5004         35.3004
   2192177.81342   1985017.13445  24585835.318    24585835.6614   24585836.6954
        36.3004         34.5004
  -9623670.07945  -7486514.50846  22540267.193    22540267.1954   22540272.7284
        44.2004         41.6004
  -2841200.45943  -2190061.60046  23537626.451    23537625.0414   23537626.8134
        40.4004         37.9004
 -21012279.05247 -16354230.99647  20218761.993    20218762.1194   20218766.2614
        50.5004         47.7004
 16  6  9  1 23  0.0000000  0  9G19G17G 6G23G 7G22G 3G 2G 9
  -7020416.18444  -5448250.39646  23821507.885    23821506.9084   23821506.7344
        40.9004         38.5004
   3341491.38842   2618468.81945  24643981.960    24643983.1354   24643986.3234
        36.6004         34.6004
 -12428919.39846  -9667919.64347  20670344.693    20670345.0564   20670350.6934
        49.5004         46.6004
 -21178525.02646 -16491380.39147  20852192.800    20852192.5874   20852193.1504
        48.8004         45.9004
  -1306939.35043  -1000785.34545  23864439.905    23864437.8454   23864440.0664
        37.6004         35.7004
   2285446.30742   2057693.89445  24603586.010    24603584.7014   24603587.0214
        36.1004         34.3004
  -9542534.25445  -7423291.79646  22555705.678    22555706.6264   22555712.5784
        44.2004         41.4004
  -2930584.87844  -2259711.74146  23520616.806    23520617.0214   23520616.8294
        40.6004         38.1004
 -21031195.36447 -16368970.97247  20215162.253    20215161.8674   20215166.9354
        50.5004         47.7004
 16  6  9  1 23 30.0000000  0  9G19G17G 6G23G 7G22G 3G 2G 9
  -6931190.52944  -5378723.92246  23838484.903    23838484.0514   23838487.5554
        41.1004         38.5004
   3439785.23142   2695061.40445  24662688.101    24662687.8244   24662692.2204
        36.1004         34.1004
 -12443004.08846  -9678894.72547  20667664.065    20667664.5414   20667670.6234
        49.5004         46.6004
 -21144106.94746 -16464561.10647  20858742.231    20858742.1984   20858742.4134
        48.8004         45.9004
  -1412702.82743  -1083198.42645  23844313.284    23844312.8574   23844313.8974
        37.8004         35.5004
   2378804.26242   2130440.34245  24621352.806    24621351.3074   24621351.7044
        36.1004         34.3004
  -9461192.99345  -7359909.01446  22571185.964    22571186.1134   22571190.9314
        44.2004         41.4004
  -3019723.80844  -2329170.60246  23503654.529    23503654.3274   23503653.8664
        40.8004         38.3004
 -21049634.70747 -16383339.28647  20211653.250    20211653.4694   20211658.0924
        50.7004         47.8004
 16  6  9  1 24  0.0000000  0  9G19G17G 6G23G 7G22G 3G 2G 9
  -6841697.62444  -5308989.20246  23855515.738    23855513.9994   23855516.7184
        40.9004         38.5004
   3538134.75642   2771697.40245  24681404.563    24681403.1254   24681405.8964
        35.9004         34.1004
 -12456507.41647  -9689416.80247  20665095.008    20665095.7064   20665100.9024
        49.6004         47.0004
 -21109301.68546 -16437440.11847  20865365.785    20865365.1954   20865365.2574
        48.8004         45.9004
  -1518362.57543  -1165530.66746  23824208.492    23824206.8034   23824209.3224
        38.2004         36.0004
   2472250.69342   2203255.71145  24639133.360    24639133.9494   24639133.2324
        36.1004         34.3004
  -9379647.07845  -7296366.75346  22586702.491    22586703.8654   22586708.5154
        44.2004         41.6004
  -3108614.82644  -2398436.27046  23486738.456    23486737.3054   23486738.7334
        40.6004         37.9004
 -21067597.27547 -16397336.07847  20208235.079    20208235.2444   20208239.7414
        50.5004         47.7004
 16  6  9  1 24 30.0000000  0  9G19G17G 6G23G 7G22G 3G 2G 9
  -6751940.67044  -5239048.76246  23872595.817    23872594.2764   23872596.9284
        40.9004         38.5004
   3636537.06442   2848374.54445  24700129.781    24700128.9854   24700131.0224
        35.9004         34.1004
 -12469428.43947  -9699485.13747  20662636.537    20662637.0584   20662642.1184
        49.6004         47.0004
 -21074110.09446 -16410018.09447  20872062.546    20872062.0934   20872061.9614
        48.8004         45.9004
  -1623916.19643  -1247780.20846  23804121.560    23804120.0884   23804122.1794
        38.3004         36.4004
   2565784.89342   2276139.52445  24656931.257    24656930.3524   24656932.0324
        36.3004         34.3004
  -9297897.21245  -7232665.56846  22602260.745    22602261.0784   22602265.0534
        44.2004         41.6004
  -3197255.58144  -2467506.97746  23469872.102    23469870.6564   23469870.7914
        40.6004         38.1004
 -21085083.27647 -16410961.53447  20204907.517    20204907.5054   20204912.1264
        50.5004         47.7004
 16  6  9  1 25  0.0000000  0  9G19G17G 6G23G 7G22G 3G 2G 9
  -6661923.03344  -5168905.20946  23889726.826    23889725.1134   23889726.4274
        40.9004         38.3004
   3734989.01242   2925090.33945  24718864.815    24718863.5824   24718867.7514
        36.4004         35.0004
 -12481766.32547  -9709099.07547  20660288.355    20660289.2174   20660293.8204
        49.6004         46.8004
 -21038533.72646 -16382296.24547  20878832.061    20878831.9994   20878832.5744
        48.8004         45.9004
  -1729361.30543  -1329945.22046  23784054.215    23784054.5374   23784056.8944
        38.5004         36.4004
   2659406.31642   2349091.24445  24674752.054    24674746.1584   24674750.5054
        36.1004         34.3004
  -9215944.17445  -7168806.07646  22617854.465    22617855.1964   22617860.1964
        44.2004         41.4004
  -3285643.53144  -2536380.70346  23453051.128    23453049.9864   23453051.3154
        40.6004         37.9004
 -21102092.97447 -16424215.84347  20201671.223    20201670.7204   20201675.4364
        50.5004         47.7004
 16  6  9  1 25 30.0000000  0  9G19G17G 6G23G 7G22G 3G 2G 9
  -6571647.76644  -5098560.82146  23906904.003    23906903.9844   23906906.3974
        40.9004         38.5004
   3833487.91242   3001842.71145  24737607.963    24737607.9974   24737611.4034
        36.6004         34.6004
 -12493520.17747  -9718257.92147  20658052.092    20658052.4854   20658057.3714
        49.6004         46.8004
 -21002573.80346 -16354275.52647  20885674.968    20885674.8354   20885675.1934
        48.8004         45.9004
  -1834695.03143  -1412023.43346  23764011.072    23764010.3304   23764012.6124
        38.7004         36.4004
   2753114.06442   2422110.22445  24692584.222    24692579.0014   24692579.8674
        35.9004         34.1004
  -9133788.67945  -7104788.81146  22633489.644    22633489.4144   22633494.1254
        44.1004         41.4004
  -3373776.61343  -2605055.79146  23436279.278    23436279.3834   23436279.9254
        40.3004         37.8004
 -21118626.59247 -16437099.17947  20198524.593    20198524.7134   20198529.1524
        50.5004         47.7004
 16  6  9  1 26  0.0000000  0  9G19G17G 6G23G 7G22G 3G 2G 9
  -6481117.71544  -5028017.95646  23924131.302    23924130.3694   23924132.9854
        40.8004         38.1004
   3932030.77942   3078629.33345  24756361.755    24756358.6844   24756360.3364
        36.3004         34.3004
 -12504689.18747  -9726961.04047  20655926.556    20655927.0074   20655931.5784
        49.6004         46.8004
 -20966231.73646 -16325957.02647  20892590.723    20892590.1824   20892590.6784
        48.6004         45.9004
  -1939914.74943  -1494012.78846  23743989.395    23743989.1964   23743990.2034
        38.5004         36.6004
   2846907.34042   2495195.92745  24710424.519    24710428.8674   24710430.5744
        36.1004         34.3004
  -9051431.53445  -7040614.41946  22649160.171    22649160.9274   22649166.2074
        44.1004         41.2004
  -3461652.12643  -2673530.22646  23419557.824    23419557.1664   23419558.7564
        40.4004         37.8004
 -21134684.41147 -16449611.75747  20195469.185    20195469.1344   20195473.5424
        50.7004         47.8004
 16  6  9  1 26 30.0000000  0  9G19G17G 6G23G 7G22G 3G 2G 9
  -6390335.70543  -4957278.77346  23941406.581    23941405.9684   23941408.2844
        40.4004         37.8004
   4030614.70842   3155447.94445  24775120.648    24775119.7704   24775121.3374
        36.1004         34.3004
 -12515272.52447  -9735207.80247  20653912.542    20653913.2614   20653918.1034
        49.6004         46.8004
 -20929508.80746 -16297341.75947  20899578.821    20899578.6324   20899578.7944
        48.6004         45.8004
  -2045017.39743  -1575910.93046  23723987.727    23723987.1824   23723989.7374
        38.7004         36.6004
   2940785.85342   2568348.02945  24728291.764    24728292.4974   24728292.7814
        35.9004         33.8004
  -8968873.45645  -6976283.47146  22664871.848    22664871.9854   22664876.7114
        43.9004         41.2004
  -3549267.69443  -2741802.08746  23402884.263    23402883.1824   23402885.8664
        40.3004         37.8004
 -21150266.70447 -16461753.80147  20192503.676    20192503.8624   20192508.3534
        50.7004         47.8004
 16  6  9  1 27  0.0000000  0  9G19G17G 6G23G 7G22G 3G 2G 9
  -6299306.15044  -4886346.66846  23958729.464    23958728.6624   23958731.3724
        40.6004         38.3004
   4129236.49742   3232296.08845  24793886.581    24793888.8144   24793890.0094
        36.8004         35.0004
 -12525269.42247  -9742997.58947  20652010.249    20652010.6604   20652015.6334
        49.6004         46.8004
 -20892406.06146 -16268430.53247  20906639.312    20906639.0824   20906639.3304
        48.6004         45.8004
  -2150000.84943  -1657716.18946  23704008.498    23704008.8454   23704012.2114
        38.5004         36.2004
   3034748.65942   2641565.74145  24746176.164    24746173.3894   24746173.6714
        35.9004         34.1004
  -8886115.20845  -6911796.53046  22680618.558    22680619.0904   22680624.2294
        43.7004         40.9004
  -3636621.46243  -2809869.94946  23386261.533    23386260.1204   23386262.2624
        40.3004         37.8004
 -21165373.75547 -16473525.52648  20189629.187    20189629.0714   20189633.6394
        50.7004         48.0004
 16  6  9  1 27 30.0000000  0  9G19G17G 6G23G 7G22G 3G 2G 9
  -6208031.83044  -4815223.88246  23976099.039    23976097.2354   23976099.5634
        40.6004         37.9004
   4227892.88742   3309171.16945  24812660.496    24812660.8534   24812662.3904
        36.6004         34.5004
 -12534679.07247  -9750329.78347  20650219.820    20650220.0524   20650225.0694
        49.6004         46.8004
 -20854925.29646 -16239224.73447  20913771.955    20913771.5784   20913772.0434
        48.6004         45.8004
  -2254862.79843  -1739426.76946  23684053.193    23684053.4484   23684058.6254
        38.5004         36.2004
   3128795.21542   2714848.76945  24764071.709    24764070.1224   24764072.0224
        36.3004         34.6004
  -8803157.47145  -6847154.15646  22696406.241    22696406.5534   22696411.4044
        43.7004         41.1004
  -3723710.76944  -2877731.75846  23369689.680    23369689.0814   23369689.9014
        40.6004         38.3004
 -21180005.86847 -16484927.16948  20186844.361    20186844.5704   20186849.2894
        50.8004         48.0004
 16  6  9  1 28  0.0000000  0  9G19G17G 6G23G 7G22G 3G 2G 9
  -6116515.79543  -4743912.71646  23993513.031    23993512.2634   23993513.5474
        40.3004         37.6004
   4326581.13942   3386071.08645  24831440.627    24831440.9714   24831440.4704
        36.1004         34.3004
 -12543500.74447  -9757203.81947  20648540.834    20648541.2364   20648546.4594
        49.6004         46.6004
 -20817067.95846 -16209725.50247  20920975.935    20920975.8994   20920975.7564
        48.6004         45.8004
  -2359600.25343  -1821040.35346  23664119.392    23664123.1684   23664126.4004
        38.5004         36.2004
   3222924.79842   2788196.49945  24781986.386    24781984.1744   24781985.5554
        36.1004         34.5004
  -8720001.07945  -6782356.98446  22712230.412    22712230.2684   22712234.7384
        43.7004         41.1004
  -3810533.14744  -2945385.54846  23353168.554    23353167.3674   23353168.9874
        41.3004         39.0004
 -21194163.35347 -16495958.96348  20184150.523    20184150.6714   20184155.3154
        50.8004         48.0004
 16  6  9  1 28 30.0000000  0  9G19G17G 6G23G 7G22G 3G 2G 9
  -6024761.02443  -4672415.51746  24010973.260    24010972.3344   24010975.1124
        40.3004         37.6004
   4425298.42242   3462993.62845  24850225.755    24850227.3054   24850228.6984
        35.9004         34.1004
 -12551733.73647  -9763619.13747  20646973.850    20646974.3684   20646980.0974
        49.6004         46.8004
 -20778834.84646 -16179933.46347  20928251.502    20928251.2154   20928251.2664
        48.6004         45.8004
  -2464210.52243  -1902554.83646  23644215.181    23644217.5634   23644219.5304
        38.7004         36.6004
   3317136.36442   2861608.07045  24799911.196    24799906.8284   24799911.4534
        35.4004         33.6004
  -8636646.77545  -6717405.58646  22728092.241    22728092.8954   22728096.4844
        43.7004         41.1004
  -3897086.53744  -3012829.72846  23336696.788    23336696.1534   23336697.6594
        41.6004         39.2004
 -21207846.56547 -16506621.19048  20181547.046    20181546.8204   20181551.4614
        50.8004         48.2004
 16  6  9  1 29  0.0000000  0  9G19G17G 6G23G 7G22G 3G 2G 9
  -5932770.63543  -4600734.70746  24028479.472    24028478.3154   24028478.6064
        40.3004         37.8004
   4524041.64742   3539936.43045  24869016.309    24869017.0894   24869019.3964
        35.7004         34.0004
 -12559377.30247  -9769575.16247  20645518.993    20645519.8014   20645525.8204
        49.6004         46.8004
 -20740227.20246 -16149849.58147  20935598.455    20935597.8804   20935597.8924
        48.6004         45.6004
  -2568690.70643  -1983967.93646  23624334.870    23624335.1304   23624338.6084
        39.0004         36.9004
   3411429.45942   2935083.16645  24817851.740    24817853.5984   24817852.3144
        35.4004         33.8004
  -8553095.29944  -6652300.55646  22743990.510    22743990.6724   22743996.0284
        43.4004         40.6004
  -3983368.31344  -3080062.26646  23320277.679    23320277.4214   23320279.2274
        42.3004         39.9004
 -21221055.80147 -16516914.09448  20179032.982    20179033.3214   20179037.9714
        50.8004         48.2004
 16  6  9  1 29 30.0000000  0  9G19G17G 6G23G 7G22G 3G 2G 9
  -5840547.73243  -4528872.73646  24046027.995    24046027.4894   24046028.6014
        40.1004         37.6004
   4622808.21742   3616897.45345  24887810.033    24887811.4554   24887812.2764
        35.4004         33.8004
 -12566430.76847  -9775071.37147  20644176.964    20644177.6204   20644183.2744
        49.6004         46.8004
 -20701246.70846 -16119475.16847  20943015.593    20943015.6854   20943015.7884
        48.4004         45.6004
  -2673038.09643  -2065277.56346  23604479.134    23604478.6494   23604482.4904
        39.2004         37.1004
   3505803.23342   3008621.19945  24835811.810    24835810.7194   24835814.6094
        34.7004         33.3004
  -8469347.39544  -6587042.45346  22759926.952    22759927.4154   22759932.5754
        43.4004         40.4004
  -4069376.19544  -3147081.38246  23303912.039    23303910.9684   23303912.5294
        43.0004         40.6004
 -21233791.42747 -16526837.94748  20176609.619    20176609.7214   20176614.3984
        51.0004         48.2004
 16  6  9  1 30  0.0000000  0  9G19G17G 6G23G 7G22G 3G 2G 9
  -5748095.81943  -4456832.30446  24063621.344    24063619.9274   24063622.5784
        40.1004         37.6004
   4721594.96742   3693874.16045  24906610.084    24906611.9134   24906611.1944
        35.2004         33.6004
 -12572893.47047  -9780107.25047  20642947.568    20642947.9354   20642953.3314
        49.6004         47.0004
 -20661894.70046 -16088811.26547  20950504.396    20950503.9044   20950503.5524
        48.4004         45.4004
  -2777250.50443  -2146482.03846  23584646.710    23584647.9234   23584650.6664
        39.4004         37.3004
   3600257.13942   3082221.67245  24853783.302    24853786.3334   24853789.0224
        34.7004         33.4004
  -8385403.83644  -6521631.91146  22775900.704    22775900.7814   22775906.5274
        43.0004         40.4004
  -4155107.83944  -3213885.24546  23287597.513    23287596.7234   23287597.6884
        43.4004         40.9004
 -21246053.81847 -16536393.04948  20174276.159    20174276.2544   20174280.8914
        50.8004         48.2004
 16  6  9  1 30 30.0000000  0  9G19G17G 6G23G 7G22G 3G 2G 9
  -5655418.20043  -4384615.99946  24081257.644    24081256.1924   24081257.9104
        40.1004         37.6004
   4820398.56542   3770863.89345  24925411.678    24925413.4334   24925411.7194
        34.5004         33.1004
 -12578764.77647  -9784682.30147  20641829.948    20641830.6164   20641836.1964
        49.6004         47.0004
 -20622172.37846 -16057858.80747  20958063.390    20958062.7674   20958062.7304
        48.2004         45.4004
  -2881325.10443  -2227579.10246  23564843.895    23564843.0424   23564846.0564
        39.7004         37.4004
   3694790.31551   3155883.85955  24871774.145    24871773.5164   24871775.2604
        34.3004         33.3004
  -8301265.39544  -6456069.51246  22791912.403    22791912.8794   22791917.3624
        43.0004         40.4004
  -4240560.81245  -3280471.96746  23271336.471    23271335.6774   23271336.8254
        43.9004         41.4004
 -21257843.32047 -16545579.66748  20172032.569    20172032.5454   20172037.4394
        50.8004         48.0004
 16  6  9  1 31  0.0000000  0  9G19G17G 6G23G 7G22G 3G 2G 9
  -5562518.25043  -4312226.48546  24098935.768    24098934.4694   24098935.7354
        39.7004         37.1004
   4919216.12541   3847864.54945  24944214.821    24944214.0704   24944220.9394
        34.3004         33.3004
 -12584044.05047  -9788796.02747  20640825.953    20640826.2744   20640831.1524
        49.8004         47.2004
 -20582081.02746 -16026618.79247  20965692.453    20965691.6144   20965692.3054
        48.2004         45.4004
  -2985259.76443  -2308567.11046  23545066.173    23545064.9634   23545067.7864
        39.7004         37.4004
   3789402.20742   3229607.37445  24889785.151    24889777.8954   24889779.1794
        34.5004         33.1004
  -8216932.81644  -6390355.84646  22807960.700    22807961.3824   22807965.7294
        43.0004         40.4004
  -4325732.60245  -3346839.58446  23255129.211    23255128.3124   23255128.6864
        44.1004         41.4004
 -21269160.36447 -16554398.13848  20169879.038    20169878.9514   20169883.6734
        50.8004         48.0004
 16  6  9  1 31 30.0000000  0  9G19G17G 6G23G 7G22G 3G 2G 9
  -5469398.96343  -4239666.02146  24116653.593    24116653.4964   24116656.7704
        39.6004         37.3004
   5018044.89741   3924874.04045  24963018.588    24963018.9984   24963024.5704
        34.3004         32.9004
 -12588730.71847  -9792447.97847  20639933.684    20639934.3944   20639939.6554
        50.0004         47.3004
 -20541622.17346 -15995092.41547  20973390.709    20973390.2714   20973391.2444
        48.2004         45.4004
  -3089051.35743  -2389443.65146  23525314.818    23525314.0794   23525317.4804
        40.1004         37.6004
   3884091.92242   3303391.53445  24907796.393    24907797.1014   24907797.0974
        34.5004         33.4004
  -8132406.87044  -6324491.50046  22824046.893    22824046.2064   22824051.1914
        43.2004         40.6004
  -4410620.96345  -3412986.33346  23238975.617    23238974.5104   23238975.2134
        44.2004         41.6004
 -21280005.32547 -16562848.75548  20167815.322    20167815.4174   20167819.8264
        50.8004         48.0004
 16  6  9  1 32  0.0000000  0  9G19G17G 6G23G 7G22G 3G 2G 9
  -5376062.97643  -4166936.70746  24134417.815    24134416.0794   24134417.1194
        39.7004         37.3004
   5116882.19941   4001890.20945  24981827.918    24981830.0054   24981829.0074
        34.0004         32.7004
 -12592824.19147  -9795637.69847  20639154.687    20639155.1644   20639160.2404
        50.0004         47.2004
 -20500796.97546 -15963280.56747  20981160.232    20981160.1514   20981159.8444
        48.2004         45.4004
  -3192696.94343  -2470206.40346  23505591.104    23505591.3804   23505594.8324
        40.4004         38.1004
   3978858.91242   3377235.95445  24925832.057    24925832.2774   24925829.9614
        34.7004         33.3004
  -8047688.31944  -6258477.04746  22840165.808    22840167.4154   22840172.5204
        43.2004         40.6004
  -4495223.59245  -3478910.44646  23222875.909    23222875.2414   23222875.6244
        44.2004         41.4004
 -21290378.60447 -16570931.82348  20165841.374    20165841.3604   20165846.0354
        50.8004         48.0004
 16  6  9  1 32 30.0000000  0  9G19G17G 6G23G 7G22G 3G 2G 9
  -5282513.74343  -4094041.21146  24152217.485    24152216.5804   24152217.7644
        39.4004         36.9004
   5215724.80241   4078910.46145  25000638.976    25000638.1074   25000645.7954
        33.7004         32.6004
 -12596323.91547  -9798364.75547  20638489.357    20638489.9184   20638494.7294
        50.0004         47.2004
 -20459606.94746 -15931184.43047  20988998.387    20988998.0884   20988998.1024
        48.4004         45.4004
  -3296194.44344  -2550853.78046  23485895.856    23485896.1354   23485899.6704
        40.8004         38.1004
   4073702.42342   3451139.98745  24943883.391    24943879.2484   24943880.4074
        34.9004         33.3004
  -7962777.93144  -6192313.11946  22856325.517    22856324.4254   22856329.9954
        43.2004         40.4004
  -4579538.31345  -3544610.20546  23206831.588    23206830.2924   23206832.0534
        44.2004         41.6004
 -21300280.65347 -16578647.70148  20163957.207    20163957.0054   20163961.5734
        50.8004         48.0004
 16  6  9  1 33  0.0000000  0  9G19G17G 6G23G 7G22G 3G 2G 9
  -5188754.74043  -4020982.24146  24170061.819    24170059.6904   24170061.5424
        39.4004         37.3004
   5314569.97641   4155932.63945  25019447.254    25019452.3994   25019453.0094
        33.1004         32.0004
 -12599229.37747  -9800628.75547  20637936.136    20637936.7824   20637941.6064
        50.0004         47.2004
 -20418053.41546 -15898805.05447  20996905.627    20996905.4844   20996905.4384
        48.4004         45.6004
  -3399540.82344  -2631383.40846  23466229.688    23466230.4204   23466233.3754
        40.9004         38.5004
   4168621.56642   3525102.92545  24961947.776    24961943.6614   24961944.7334
        35.4004         33.8004
  -7877676.47144  -6126000.30646  22872518.640    22872519.1174   22872524.1884
        43.0004         40.4004
  -4663562.41445  -3610083.50946  23190842.037    23190841.8184   23190842.8304
        44.4004         41.6004
 -21309711.87247 -16585996.69148  20162162.456    20162162.3974   20162166.9674
        50.8004         48.0004
 16  6  9  1 33 30.0000000  0  9G19G17G 6G23G 7G22G 3G 2G 9
  -5094789.31343  -3947762.46746  24187942.146    24187940.3944   24187942.0864
        39.2004         36.6004
   5413414.49841   4232954.34745  25038258.977    25038257.4474   25038260.7334
        32.8004         32.0004
 -12601540.04847  -9802429.27747  20637496.425    20637497.1594   20637501.7194
        50.0004         47.2004
 -20376137.61546 -15866143.38947  21004882.690    21004882.2304   21004881.9734
        48.4004         45.8004
  -3502733.60444  -2711793.34046  23446592.477    23446592.8524   23446596.3154
        41.1004         38.6004
   4263615.70242   3599124.35245  24980019.967    24980019.5884   24980020.5484
        35.9004         34.1004
  -7792384.67344  -6059539.19546  22888749.808    22888750.1924   22888754.8014
        43.0004         40.4004
  -4747293.87845  -3675328.78046  23174908.339    23174907.6584   23174908.4794
        44.4004         41.6004
 -21318672.74547 -16592979.18648  20160456.769    20160457.1674   20160461.8824
        50.8004         48.0004
 16  6  9  1 34  0.0000000  0  9G19G17G 6G23G 7G22G 3G 2G 9
  -5000619.50243  -3874383.41746  24205860.655    24205859.7424   24205862.0164
        38.9004         36.6004
   5512255.82541   4309973.56745  25057067.844    25057067.2214   25057071.3204
        33.8004         32.9004
 -12603255.43947  -9803765.94547  20637169.900    20637170.2434   20637175.3984
        50.0004         47.2004
 -20333861.03046 -15833200.59947  21012927.347    21012927.2814   21012927.0994
        48.6004         45.8004
  -3605769.85944  -2792081.29646  23426985.534    23426986.1544   23426988.8034
        41.1004         38.5004
   4358684.25942   3673203.77945  24998108.538    24998110.2074   24998113.2924
        36.1004         34.1004
  -7706903.33144  -5992930.37246  22905016.575    22905016.3234   22905021.0534
        43.0004         40.6004
  -4830729.81745  -3740343.77746  23159030.871    23159030.7574   23159031.7524
        44.4004         41.8004
 -21327163.70847 -16599595.52148  20158841.245    20158841.3924   20158846.0784
        50.8004         48.0004
 16  6  9  1 34 30.0000000  0  9G19G17G 6G23G 7G22G 3G 2G 9
  -4906250.02743  -3800848.78546  24223821.207    24223819.0944   24223820.3064
        38.7004         36.6004
   5611090.77241   4386987.77245  25075876.373    25075878.6054   25075876.0764
        33.5004         32.2004
 -12604375.10347  -9804638.42047  20636957.055    20636957.3554   20636962.5074
        49.8004         47.0004
 -20291225.28446 -15799977.93447  21021040.505    21021040.2744   21021040.5354
        48.4004         45.6004
  -3708647.08344  -2872245.31646  23407406.896    23407408.4994   23407412.2184
        41.1004         38.3004
   4453826.43942   3747340.54145  25016215.877    25016213.9554   25016218.9184
        36.3004         34.6004
  -7621233.21544  -5926174.44946  22921319.447    22921319.4054   22921323.4314
        43.2004         40.4004
  -4913868.06045  -3805126.81546  23143210.565    23143209.6004   23143210.7274
        44.6004         41.8004
 -21335185.23547 -16605846.05448  20157314.980    20157315.2004   20157319.5244
        50.8004         48.2004
 16  6  9  1 35  0.0000000  0  9G19G17G 6G23G 7G22G 3G 2G 9
  -4811683.42843  -3727160.55446  24241812.508    24241810.9744   24241814.6084
        38.3004         36.0004
   5709916.78441   4463995.04245  25094683.575    25094680.5144   25094681.8454
        33.3004         32.4004
 -12604898.57447  -9805046.32347  20636856.991    20636857.5994   20636862.8614
        49.8004         47.0004
 -20248231.51046 -15766476.28647  21029221.555    21029220.9904   21029221.7464
        48.4004         45.6004
  -3811363.00044  -2952283.63846  23387860.973    23387861.8064   23387866.3484
        40.9004         38.3004
   4549041.28942   3821533.91845  25034336.377    25034332.6504   25034335.9024
        36.3004         34.5004
  -7535375.08944  -5859272.01846  22937656.037    22937656.9894   22937661.4894
        43.0004         40.4004
  -4996706.48645  -3869676.22646  23127446.892    23127446.0944   23127447.1814
        44.6004         41.8004
 -21342737.81747 -16611731.17648  20155878.146    20155877.5944   20155882.2634
        51.0004         48.2004
 16  6  9  1 35 30.0000000  0  8G19G 6G23G 7G22G 3G 2G 9
  -4716922.62643  -3653320.99146  24259848.149    24259846.5234   24259849.3074
        38.3004         36.0004
 -12604825.45447  -9804989.35247  20636871.335    20636871.6124   20636876.8054
        49.8004         47.0004
 -20204880.89946 -15732696.58647  21037470.681    21037470.6524   21037471.2314
        48.4004         45.4004
  -3913914.39344  -3032193.76846  23368346.577    23368347.1304   23368350.2274
        40.8004         38.3004
   4644328.31242   3895783.54545  25052466.906    25052464.9064   25052468.0454
        36.3004         34.3004
  -7449329.76344  -5792223.72746  22954030.729    22954031.3774   22954035.3314
        43.0004         40.2004
  -5079242.59445  -3933990.05946  23111740.928    23111739.7034   23111741.2444
        44.2004         41.4004
 -21349821.92347 -16617251.25648  20154529.645    20154529.7384   20154534.3054
        50.8004         48.0004
 16  6  9  1 36  0.0000000  0  8G19G 6G23G 7G22G 3G 2G 9
  -4621971.37143  -3579333.00246  24277914.884    24277913.8844   24277915.9734
        38.2004         36.0004
 -12604155.35747  -9804467.20847  20636998.481    20636999.2424   20637004.1364
        49.6004         47.0004
 -20161174.99046 -15698640.02947  21045787.964    21045787.6614   21045788.0514
        48.4004         45.6004
  -4016299.14044  -3111974.04946  23348863.807    23348864.8134   23348867.4774
        40.8004         38.3004
   4739686.70142   3970088.80345  25070610.078    25070611.0054   25070614.7064
        35.7004         34.0004
  -7363097.94944  -5725030.11146  22970439.951    22970440.2384   22970444.4124
        42.9004         40.0004
  -5161474.08345  -3998066.51946  23096092.390    23096092.0244   23096093.3354
        44.1004         40.9004
 -21356438.09947 -16622406.71048  20153270.406    20153270.4234   20153275.1994
        50.8004         48.0004
 16  6  9  1 36 30.0000000  0  8G19G 6G23G 7G22G 3G 2G 9
  -4526832.33643  -3505198.70145  24296019.941    24296016.6384   24296020.6584
        38.2004         35.9004
 -12602887.89347  -9803479.58147  20637240.006    20637240.2604   20637245.7434
        49.8004         47.0004
 -20117115.06346 -15664307.61647  21054172.480    21054172.1534   21054172.2894
        48.4004         45.6004
  -4118514.81444  -3191622.58246  23329412.349    23329413.2114   23329415.4094
        40.8004         38.3004
   4835115.79742   4044449.17345  25088773.541    25088771.8654   25088774.7154
        36.6004         35.0004
  -7276680.47644  -5657691.83246  22986885.097    22986885.4094   22986889.5414
        42.9004         40.0004
  -5243398.75144  -4061903.87746  23080502.255    23080500.8054   23080502.6454
        43.4004         40.2004
 -21362586.82747 -16627197.91748  20152100.479    20152100.6314   20152105.4944
        50.8004         48.0004
 16  6  9  1 37  0.0000000  0  7G19G 6G23G 7G 3G 2G 9
  -4431508.82143  -3430920.64345  24314159.446    24314159.0144   24314160.3634
        38.0004         35.9004
 -12601022.70347  -9802026.19147  20637594.490    20637595.0704   20637600.2444
        49.6004         46.8004
 -20072702.58146 -15629700.49247  21062624.249    21062624.0324   21062623.5834
        48.4004         45.6004
  -4220557.95544  -3271136.69346  23309994.394    23309995.2864   23309996.9414
        40.8004         38.5004
  -7190078.10644  -5590209.47646  23003364.830    23003365.1414   23003368.9344
        42.9004         40.0004
  -5325013.82644  -4125500.01946  23064971.978    23064971.0014   23064972.4224
        43.0004         40.2004
 -21368268.65847 -16631625.31548  20151019.258    20151019.2654   20151023.9014
        50.8004         48.0004
 16  6  9  1 37 30.0000000  0  7G19G 6G23G 7G 3G 2G 9
  -4336004.22642  -3356501.50945  24332332.778    24332330.7814   24332332.2244
        37.5004         35.2004
 -12598559.49147  -9800106.81547  20638063.389    20638063.7834   20638068.8674
        49.6004         46.6004
 -20027938.89946 -15594819.70247  21071142.520    21071141.8924   21071141.5584
        48.4004         45.6004
  -4322426.10844  -3350514.44346  23290610.164    23290610.1374   23290612.2774
        40.8004         38.3004
  -7103291.62544  -5522583.65146  23019880.151    23019880.2354   23019884.2104
        42.7004         40.0004
  -5406317.02844  -4188853.13146  23049499.776    23049499.7004   23049500.5654
        43.0004         40.4004
 -21373484.12947 -16635689.31848  20150027.069    20150027.0594   20150031.5794
        50.8004         48.2004
 16  6  9  1 38  0.0000000  0  7G19G 6G23G 7G 3G 2G 9
  -4240321.50442  -3281943.53745  24350541.436    24350539.0584   24350541.0784
        37.1004         35.2004
 -12595497.94646  -9797721.20547  20638645.615    20638646.3364   20638651.7344
        49.5004         46.8004
 -19982825.48746 -15559666.39747  21079726.419    21079726.4014   21079726.3844
        48.4004         45.4004
  -4424116.71844  -3429753.85946  23271259.466    23271259.8764   23271261.5434
        40.8004         38.5004
  -7016321.77144  -5454814.94146  23036429.286    23036430.2624   23036434.7154
        42.7004         40.0004
  -5487305.94944  -4251961.37146  23034088.884    23034087.5024   23034088.3784
        42.9004         40.2004
 -21378233.80147 -16639390.35848  20149123.553    20149123.4954   20149127.7054
        51.0004         48.2004
 16  6  9  1 38 30.0000000  0  7G19G 6G23G 7G 3G 2G 9
  -4144464.07643  -3207249.45045  24368781.493    24368781.0514   24368784.1464
        37.8004         35.9004
 -12591837.78747  -9794869.12847  20639342.519    20639343.0454   20639348.2444
        49.6004         46.8004
 -19937363.73946 -15524241.65447  21088377.463    21088377.2464   21088377.9324
        48.4004         45.4004
  -4525627.49544  -3508853.13346  23251943.235    23251942.1964   23251944.5814
        40.8004         38.3004
  -6929169.35944  -5386903.99146  23053014.086    23053014.4664   23053019.0434
        42.7004         40.2004
  -5567978.39044  -4314822.98146  23018736.272    23018736.0404   23018736.7194
        42.9004         40.4004
 -21382518.20447 -16642728.85348  20148307.962    20148308.0334   20148312.1574
        51.0004         48.2004
 16  6  9  1 39  0.0000000  0  7G19G 6G23G 7G 3G 2G 9
  -4048435.26643  -3132421.84346  24387056.046    24387055.3754   24387057.3004
        38.3004         36.2004
 -12587578.73447  -9791550.38547  20640153.028    20640153.7424   20640158.4764
        49.6004         47.0004
 -19891555.14246 -15488546.64147  21097095.082    21097094.5564   21097095.3134
        48.4004         45.4004
  -4626955.88944  -3587810.31346  23232659.721    23232659.7294   23232662.0594
        40.9004         38.5004
  -6841835.16844  -5318851.40446  23069633.886    23069633.9454   23069638.5534
        42.7004         39.9004
  -5648332.15344  -4377436.29246  23003445.421    23003445.7844   23003446.1064
        42.9004         40.2004
 -21386337.93747 -16645705.26148  20147580.963    20147581.0744   20147585.2774
        51.0004         48.2004
 16  6  9  1 39 30.0000000  0  7G19G 6G23G 7G 3G 2G 9
  -3952237.74243  -3057462.76146  24405362.328    24405360.7284   24405362.6004
        38.3004         36.2004
 -12582720.55447  -9787764.79947  20641077.317    20641078.0294   20641083.0104
        49.6004         46.8004
 -19845401.09446 -15452582.44847  21105878.106    21105877.7804   21105877.6714
        48.4004         45.6004
  -4728098.99944  -3666623.13146  23213412.765    23213413.3494   23213415.1494
        41.1004         38.6004
  -6754320.01444  -5250657.78146  23086285.309    23086286.5154   23086291.6534
        42.5004         39.7004
  -5728364.84044  -4439799.41346  22988216.821    22988215.5274   22988216.3534
        42.9004         40.2004
 -21389693.56747 -16648320.03248  20146942.486    20146942.5384   20146946.7204
        51.0004         48.2004
 16  6  9  1 40  0.0000000  0  7G19G 6G23G 7G 3G 2G 9
  -3855874.93643  -2982374.89746  24423697.922    24423697.1784   24423699.1114
        38.3004         36.2004
 -12577263.07247  -9783512.21547  20642116.026    20642116.4714   20642121.9124
        49.8004         47.0004
 -19798902.78346 -15416349.98747  21114726.226    21114725.7644   21114725.9864
        48.4004         45.4004
  -4829054.04844  -3745289.42046  23194203.408    23194202.6264   23194202.8214
        41.3004         38.6004
  -6666624.63044  -5182323.74546  23102974.958    23102974.7084   23102980.2304
        42.3004         39.7004
  -5808073.83344  -4501910.27746  22973047.339    22973047.6264   22973048.4084
        43.0004         40.4004
 -21392585.73047 -16650573.66048  20146392.112    20146392.0744   20146396.2844
        51.0004         48.0004
 16  6  9  1 40 30.0000000  0  7G19G 6G23G 7G 3G 2G 9
  -3759349.92643  -2907160.60646  24442069.550    24442067.9874   24442068.5714
        38.7004         36.7004
 -12571206.06947  -9778792.47047  20643268.597    20643269.0004   20643274.4314
        49.8004         47.0004
 -19752061.62546 -15379850.38247  21123640.331    21123639.7094   21123639.7454
        48.4004         45.6004
  -4929818.52444  -3823807.22646  23175027.185    23175027.9164   23175030.1844
        41.5004         39.0004
  -6578749.83744  -5113849.90346  23119696.070    23119696.1634   23119702.7414
        42.3004         39.9004
  -5887456.75144  -4563767.06546  22957942.354    22957941.0204   22957941.8964
        43.2004         40.6004
 -21395014.97847 -16652466.57248  20145929.586    20145929.6844   20145934.2654
        50.8004         48.2004
 16  6  9  1 41  0.0000000  0  7G19G 6G23G 7G 3G 2G 9
  -3662666.01643  -2831822.52846  24460465.029    24460464.8294   24460465.7954
        38.5004         36.2004
 -12564549.39547  -9773605.45547  20644535.446    20644535.9354   20644541.0334
        49.8004         47.0004
 -19704878.98546 -15343084.69547  21132618.993    21132618.5644   21132618.2824
        48.6004         45.6004
  -5030389.79044  -3902174.48146  23155888.389    23155889.8944   23155892.2944
        41.8004         39.3004
  -6490696.39944  -5045236.85046  23136453.518    23136453.6194   23136458.3474
        42.5004         39.9004
  -5966511.51944  -4625368.16146  22942898.738    22942898.0724   22942898.7264
        43.4004         40.7004
 -21396981.96147 -16653999.27748  20145555.396    20145555.5234   20145559.8964
        50.8004         48.2004
 16  6  9  1 41 30.0000000  0  7G19G 6G23G 7G 3G 2G 9
  -3565826.30743  -2756363.03446  24478894.091    24478892.7964   24478894.2644
        38.3004         36.0004
 -12557292.88847  -9767951.03147  20645915.826    20645916.4134   20645921.8854
        49.6004         46.8004
 -19657356.39046 -15306054.09947  21141661.544    21141661.3844   21141661.6584
        48.6004         45.6004
  -5130764.97244  -3980388.94046  23136788.646    23136788.8394   23136791.1044
        42.0004         39.3004
  -6402465.13644  -4976485.23846  23153243.951    23153243.5354   23153247.9624
        42.7004         40.0004
  -6045235.55144  -4686711.55046  22927917.135    22927917.1564   22927917.6254
        43.4004         40.7004
 -21398487.30547 -16655172.26948  20145269.022    20145269.0024   20145273.3624
        51.0004         48.2004
 16  6  9  1 42  0.0000000  0  7G19G 6G23G 7G 3G 2G 9
  -3468833.98743  -2680784.64246  24497351.866    24497350.9584   24497352.3504
        38.2004         36.0004
 -12549436.44847  -9761829.13747  20647411.457    20647411.7484   20647416.7824
        49.6004         47.0004
 -19609495.38346 -15268759.80947  21150769.666    21150769.0014   21150769.2854
        48.4004         45.4004
  -5230941.81544  -4058448.84346  23117725.724    23117725.9424   23117728.0664
        42.2004         39.5004
  -6314056.81744  -4907595.64946  23170065.723    23170066.8974   23170071.2004
        42.7004         39.9004
  -6123626.65244  -4747795.50346  22913000.193    22912999.7574   22913000.8074
        43.4004         40.7004
 -21399531.64547 -16655986.04148  20145070.188    20145070.3904   20145074.5734
        51.0004         48.2004
 16  6  9  1 42 30.0000000  0  7G19G 6G23G 7G 3G 2G 9
  -3371692.21443  -2605089.78145  24515835.628    24515834.9634   24515837.5304
        38.2004         35.9004
 -12540979.97947  -9755239.68847  20649020.390    20649021.0624   20649026.4894
        49.8004         47.2004
 -19561297.09346 -15231202.69647  21159940.690    21159940.7224   21159941.4464
        48.2004         45.4004
  -5330917.52944  -4136352.00746  23098701.259    23098701.0074   23098703.4664
        42.3004         39.9004
  -6225472.22744  -4838568.71946  23186923.680    23186925.0164   23186928.4764
        42.5004         39.9004
  -6201682.60344  -4808618.30346  22898146.401    22898146.2014   22898146.6194
        43.2004         40.4004
 -21400115.63247 -16656441.08748  20144959.441    20144959.2304   20144963.2034
        51.0004         48.2004
 16  6  9  1 43  0.0000000  0  7G19G 6G23G 7G 3G 2G 9
  -3274404.24943  -2529280.98845  24534349.614    24534349.4354   24534350.9144
        38.0004         35.9004
 -12531923.42047  -9748182.63247  20650743.928    20650744.6864   20650749.6324
        49.8004         47.0004
 -19512763.16646 -15193384.05447  21169176.142    21169176.3384   21169176.9554
        48.2004         45.2004
  -5430689.60544  -4214096.49246  23079714.457    23079715.1124   23079718.2744
        42.3004         39.9004
  -6136712.21944  -4769405.07346  23203813.335    23203813.9504   23203819.4004
        42.3004         39.5004
  -6279400.62344  -4869177.77646  22883357.184    22883356.6694   22883357.7034
        43.0004         40.4004
 -21400239.91847 -16656537.92548  20144935.352    20144935.6734   20144939.5134
        51.0004         48.2004
 16  6  9  1 43 30.0000000  0  7G19G 6G23G 7G 3G 2G 9
  -3176973.38143  -2453360.85245  24552889.364    24552887.4484   24552891.4894
        38.0004         35.7004
 -12522266.70047  -9740657.92447  20652581.957    20652582.2614   20652587.3534
        49.8004         47.0004
 -19463894.82346 -15155304.81647  21178476.255    21178475.6724   21178475.5294
        48.1004         45.2004
  -5530255.30244  -4291680.15346  23060767.419    23060768.0404   23060771.1104
        42.5004         39.9004
  -6047777.53144  -4700105.32646  23220737.466    23220737.5534   23220742.9604
        42.2004         39.3004
  -6356778.78844  -4929472.42446  22868632.742    22868631.9394   22868633.2934
        43.0004         40.6004
 -21399905.17647 -16656277.08148  20144999.156    20144999.3094   20145003.5414
        51.0004         48.2004
 16  6  9  1 44  0.0000000  0  7G19G 6G23G 7G 3G 2G 9
  -3079402.67143  -2377331.76146  24571457.210    24571456.6234   24571458.8554
        38.2004         36.0004
 -12512009.81347  -9732665.55647  20654533.208    20654533.9194   20654539.1254
        49.8004         47.0004
 -19414693.48546 -15116966.11647  21187839.267    21187838.6074   21187838.6514
        48.1004         45.2004
  -5629612.61744  -4369101.42946  23041860.742    23041861.0904   23041863.7064
        42.5004         40.0004
  -5958669.00344  -4630670.12746  23237692.474    23237694.2384   23237699.2374
        41.8004         39.2004
  -6433814.48544  -4989500.22946  22853973.624    22853972.4884   22853973.4174
        43.4004         40.7004
 -21399112.10347 -16655659.09648  20145150.230    20145150.2874   20145154.2874
        51.0004         48.2004
 16  6  9  1 44 30.0000000  0  8G19G 6G23G 7G 3G 2G 9G30
  -2981695.04543  -2301195.96945  24590050.265    24590049.4904   24590050.5034
        38.2004         35.9004
 -12501152.76247  -9724205.51547  20656598.647    20656599.5354   20656605.2444
        49.6004         46.8004
 -19365160.66446 -15078369.11447  21197264.604    21197264.3184   21197264.5964
        48.2004         45.2004
  -5728757.32344  -4446357.01446  23022994.034    23022993.8404   23022997.2604
        42.5004         39.9004
  -5869387.34144  -4561100.02646  23254684.651    23254684.2764   23254689.3164
        41.5004         38.8004
  -6510505.66145  -5049259.56346  22839379.619    22839378.3474   22839379.6164
        43.7004         40.9004
 -21397861.37147 -16654684.49648  20145387.820    20145388.1244   20145392.3304
        51.0004         48.2004
                    -42164.37853  25123169.662
                        23.4004
 16  6  9  1 45  0.0000000  0  8G19G 6G23G 7G 3G 2G 9G30
  -2883853.24243  -2224955.62345  24608669.366    24608667.2824   24608670.3334
        38.0004         35.7004
 -12489695.56147  -9715277.83247  20658779.767    20658780.1494   20658785.2554
        49.6004         46.8004
 -19315297.77946 -15039514.91947  21206752.986    21206752.8384   21206752.7504
        48.1004         45.2004
  -5827687.85144  -4523445.73046  23004168.024    23004168.3114   23004171.3064
        42.5004         39.9004
  -5779933.46944  -4491395.71846  23271704.811    23271706.2374   23271710.8864
        41.5004         38.8004
  -6586849.84445  -5108748.51846  22824851.637    22824851.1424   22824852.1884
        43.7004         41.1004
 -21396153.69147 -16653353.83248  20145713.211    20145713.0954   20145717.5134
        51.0004         48.2004
                   -130853.28645  25101508.735
                        32.4004
 16  6  9  1 45 30.0000000  0  8G19G 6G23G 7G 3G 2G 9G30
  -2785881.24443  -2148613.80145  24627313.147    24627312.3304   24627313.6344
        37.8004         35.7004
 -12477638.26347  -9705882.54147  20661074.153    20661074.6434   20661079.5664
        49.6004         46.8004
 -19265106.27346 -15000404.65947  21216304.677    21216304.3284   21216304.0814
        48.1004         45.2004
  -5926401.80944  -4600365.68346  22985384.075    22985383.8584   22985387.3374
        42.7004         40.0004
  -5690308.16344  -4421557.83246  23288762.013    23288762.6104   23288766.9564
        41.5004         38.8004
  -6662844.77345  -5167965.34346  22810390.290    22810389.3054   22810390.2594
        43.6004         40.7004
 -21393989.77447 -16651667.65648  20146125.159    20146124.9164   20146129.4374
        51.0004         48.4004
                   -219570.34545  25079842.784
                        33.6004
 16  6  9  1 46  0.0000000  0  8G19G 6G23G 7G 3G 2G 9G30
  -2687781.84842  -2072172.71245  24645980.053    24645979.6494   24645981.6264
        37.5004         35.3004
 -12464980.91947  -9696019.67547  20663482.842    20663482.9864   20663488.2314
        49.6004         46.8004
 -19214587.24246 -14961039.17647  21225917.644    21225917.7124   21225917.5374
        48.1004         45.2004
  -6024896.34344  -4677114.65346  22966640.920    22966641.3854   22966642.7574
        42.7004         40.0004
  -5600512.17744  -4351586.95246  23305849.276    23305849.7304   23305855.0234
        41.6004         39.0004
  -6738487.89945  -5226908.01046  22795995.030    22795995.4464   22795996.4914
        43.6004         40.7004
 -21391370.33547 -16649626.52548  20146623.517    20146623.2224   20146627.8854
        51.0004         48.2004
                   -308314.65345  25058169.362                    25058179.1664
                        34.5004
 16  6  9  1 46 30.0000000  0  8G19G 6G23G 7G 3G 2G 9G30
  -2589558.10643  -1995634.75845  24664671.011    24664670.8864   24664672.8514
        37.6004         35.5004
 -12451723.64446  -9685689.33047  20666005.225    20666005.8894   20666010.9124
        49.5004         46.6004
 -19163742.58446 -14921419.95847  21235592.791    21235592.4214   21235593.1484
        48.1004         45.1004
  -6123168.88644  -4753690.64146  22947939.846    22947940.7624   22947942.3824
        42.7004         40.0004
  -5510546.37144  -4281483.70946  23322967.478    23322968.7224   23322975.0304
        41.5004         38.8004
  -6813777.07345  -5285574.85746  22781668.414    22781667.9814   22781669.3074
        43.6004         41.1004
 -21388296.10347 -16647231.01448  20147207.762    20147208.0534   20147212.6824
        51.0004         48.2004
   -543417.83742   -397084.22245  25036493.701    25036492.7244   25036501.7404
        35.9004         34.5004
 16  6  9  1 47  0.0000000  0  8G19G 6G23G 7G 3G 2G 9G30
  -2491212.98743  -1919002.20545  24683385.940    24683385.9134   24683386.8504
        37.8004         35.7004
 -12437866.52846  -9674891.58847  20668642.004    20668642.7874   20668647.8314
        49.5004         46.6004
 -19112573.42846 -14881547.89447  21245329.812    21245329.8224   21245329.6894
        47.9004         44.9004
  -6221216.77044  -4830091.57446  22929282.995    22929282.1424   22929284.7054
        42.7004         40.0004
  -5420411.50844  -4211248.77346  23340121.328    23340121.2434   23340126.6894
        41.5004         38.8004
  -6888709.81544  -5343963.98746  22767408.620    22767408.4844   22767410.1844
        43.4004         41.1004
 -21384767.85047 -16644481.72248  20147879.405    20147879.5974   20147884.0174
        50.8004         48.2004
   -657368.53952   -485877.06855  25014810.549    25014809.8904   25014818.7034
        36.6004         34.8004
 16  6  9  1 47 30.0000000  0  8G19G 6G23G 7G 3G 2G 9G30
  -2392750.22743  -1842277.97845  24702123.167    24702121.5324   24702125.0584
        37.8004         35.7004
 -12423409.74346  -9663626.57347  20671392.786    20671393.5324   20671399.0754
        49.3004         46.5004
 -19061081.39546 -14841424.23647  21255128.499    21255128.2794   21255128.3214
        47.9004         44.9004
  -6319037.54944  -4906315.54346  22910668.165    22910667.7024   22910670.5344
        42.9004         40.2004
  -5330108.41344  -4140882.74546  23357305.286    23357306.1364   23357309.8564
        41.3004         38.6004
  -6963284.19344  -5402073.87546  22753217.908    22753217.7254   22753218.8634
        43.4004         40.7004
 -21380786.29647 -16641379.20748  20148637.347    20148637.2344   20148641.6104
        50.8004         48.2004
   -771346.74242   -574691.38245  24993121.712    24993121.2684   24993127.6674
        37.0004         35.0004
 16  6  9  1 48  0.0000000  0  8G19G 6G23G 7G 3G 2G 9G30
  -2294173.07643  -1765464.63945  24720881.550    24720880.4324   24720883.4534
        38.0004         35.9004
 -12408353.44246  -9651894.39447  20674258.659    20674259.0714   20674264.3204
        49.3004         46.5004
 -19009267.23446 -14801049.56447  21264988.882    21264988.5174   21264988.7764
        47.9004         45.1004
  -6416628.35044  -4982360.30446  22892096.485    22892096.5204   22892099.0254
        42.9004         40.2004
  -5239637.93644  -4070386.27146  23374519.420    23374521.8264   23374525.7724
        41.3004         38.5004
  -7037497.54644  -5459902.44446  22739096.191    22739096.0354   22739096.4514
        43.4004         40.6004
 -21376352.21747 -16637924.07648  20149481.319    20149481.3174   20149485.3614
        51.0004         48.2004
   -885349.93542   -663525.16745  24971426.381    24971426.3344   24971432.7164
        37.1004         35.0004
 16  6  9  1 48 30.0000000  0  8G19G 6G23G 7G 3G 2G 9G30
  -2195484.35143  -1688564.34146  24739662.796    24739661.5894   24739663.4644
        38.3004         36.2004
 -12392697.80446  -9639695.19947  20677237.829    20677238.5664   20677243.4184
        49.5004         46.6004
 -18957133.21746 -14760425.65747  21274910.312    21274909.7924   21274909.5374
        47.9004         45.1004
  -6513986.62844  -5058223.87646  22873570.183    22873570.8734   22873572.2884
        42.9004         40.2004
  -5149000.80144  -3999759.95646  23391770.155    23391770.6664   23391773.2314
        41.1004         38.5004
  -7111347.68744  -5517447.99746  22725042.467    22725041.9834   22725043.1684
        43.4004         40.7004
 -21371466.36747 -16634116.91748  20150411.170    20150411.1954   20150415.2754
        51.0004         48.2004
   -999375.68042   -752376.53945  24949728.238    24949726.8974   24949733.6494
        36.6004         34.6004
 16  6  9  1 49  0.0000000  0  8G19G 6G23G 7G 3G 2G 9G30
  -2096686.89243  -1611579.32046  24758462.444    24758461.4954   24758464.0764
        38.2004         36.0004
 -12376443.05246  -9627029.17247  20680330.577    20680331.2434   20680336.1374
        49.3004         46.3004
 -18904680.48546 -14719553.40347  21284891.335    21284891.0074   21284890.7914
        48.1004         45.1004
  -6611109.67544  -5133904.15746  22855089.510    22855089.5754   22855091.0474
        43.0004         40.6004
  -5058197.91944  -3929004.48446  23409048.946    23409049.9024   23409053.9924
        41.1004         38.5004
  -7184832.30645  -5574708.72646  22711059.408    22711059.1114   22711059.8364
        43.6004         41.1004
 -21366129.52447 -16629958.33548  20151426.217    20151426.3254   20151431.0474
        51.0004         48.2004
  -1113421.53342   -841243.51445  24928022.342    24928023.9784   24928029.6584
        36.3004         34.3004
 16  6  9  1 49 30.0000000  0  8G19G 6G23G 7G 3G 2G 9G30
  -1997783.83643  -1534511.98645  24777282.634    24777281.3894   24777283.8894
        38.0004         35.5004
 -12359589.43346  -9613896.49147  20683538.039    20683538.4144   20683543.4894
        49.1004         46.5004
 -18851910.63646 -14678434.04047  21294933.042    21294933.0184   21294932.3954
        47.9004         45.1004
  -6707995.03744  -5209399.24546  22836654.142    22836652.7634   22836653.6584
        43.0004         40.6004
  -4967230.08744  -3858120.45446  23426358.408    23426359.3824   23426364.8444
        41.1004         38.5004
  -7257949.09045  -5631682.82246  22697145.634    22697145.2024   22697146.4434
        43.7004         41.1004
 -21360342.52947 -16625448.98148  20152527.190    20152527.3574   20152532.3734
        51.0004         48.2004
  -1227485.09242   -930124.26745  24906313.934    24906316.0984   24906324.7264
        35.7004         33.8004
 16  6  9  1 50  0.0000000  0  8G19G 6G23G 7G 3G 2G 9G30
  -1898778.61343  -1457365.07845  24796122.702    24796122.5764   24796124.5684
        37.8004         35.5004
 -12342137.19046  -9600297.35247  20686859.197    20686859.3744   20686864.8304
        49.3004         46.5004
 -18798824.73146 -14637068.39947  21305035.611    21305035.0264   21305034.6474
        48.1004         45.2004
  -6804640.50144  -5284707.37446  22818262.005    22818260.6014   22818262.8214
        43.2004         40.4004
  -4876098.06644  -3787108.51546  23443702.354    23443700.9664   23443706.8164
        40.9004         38.1004
  -7330695.71345  -5688368.48846  22683302.401    22683302.4894   22683303.0044
        43.9004         41.2004
 -21354106.13247 -16620589.44048  20153713.756    20153713.8014   20153718.8174
        50.8004         48.0004
  -1341563.82142  -1019016.83145  24884606.900    24884608.2044   24884619.4434
        35.7004         34.1004
 16  6  9  1 50 30.0000000  0  8G19G 6G23G 7G 3G 2G 9G30
  -1799674.20742  -1380140.87445  24814981.441    24814980.0264   24814982.6084
        37.5004         35.2004
 -12324086.62446  -9586231.98647  20690293.760    20690294.2384   20690299.7254
        49.3004         46.5004
 -18745424.26446 -14595457.64647  21315196.639    21315196.2304   21315196.3984
        48.1004         45.1004
  -6901042.93144  -5359826.15046  22799916.801    22799916.6074   22799918.3284
        43.2004         40.6004
  -4784802.77644  -3715969.35046  23461071.795    23461072.2014   23461078.8584
        40.6004         37.9004
  -7403070.02445  -5744764.05046  22669531.309    22669530.1514   22669529.9664
        43.9004         41.2004
 -21347421.13147 -16615380.34948  20154985.585    20154986.0794   20154990.7914
        50.8004         48.0004
  -1455655.27242  -1107919.28045  24862897.505    24862898.2884   24862909.5784
        35.9004         34.1004
 16  6  9  1 51  0.0000000  0  8G19G 6G23G 7G 3G 2G 9G30
  -1700473.82042  -1302841.87345  24833856.867    24833855.8554   24833861.0224
        37.1004         35.0004
 -12305438.01346  -9571700.60247  20693842.724    20693843.2304   20693848.4374
        49.5004         46.6004
 -18691710.77546 -14553602.97947  21325417.919    21325417.5954   21325418.0494
        47.9004         45.1004
  -6997199.88044  -5434753.63146  22781618.439    22781618.1864   22781620.1064
        43.2004         40.6004
  -4693344.92143  -3644703.50646  23478477.776    23478478.0914   23478483.5504
        40.4004         37.9004
  -7475069.58345  -5800867.58746  22655828.858    22655828.2284   22655829.4454
        44.1004         41.1004
 -21340288.38947 -16609822.36048  20156343.763    20156343.8014   20156348.1374
        50.8004         48.2004
  -1569756.90542  -1196829.60045  24841185.680    24841187.0014   24841196.7914
        35.7004         34.1004
 16  6  9  1 51 30.0000000  0  8G19G 6G23G 7G 3G 2G 9G30
  -1601180.17742  -1225470.23045  24852754.242    24852753.1044   24852755.2964
        37.3004         35.2004
 -12286191.71846  -9556703.50247  20697505.543    20697505.9274   20697510.6124
        49.5004         46.6004
 -18637685.66246 -14511505.49347  21335698.612    21335698.0514   21335698.8264
        47.9004         45.1004
  -7093108.97344  -5509487.97646  22763368.325    22763366.6114   22763369.2424
        43.2004         40.2004
  -4601725.41443  -3573311.70146  23495911.952    23495911.9744   23495918.3214
        40.3004         37.8004
  -7546692.29845  -5856677.48246  22642199.888    22642199.4674   22642200.2814
        44.1004         41.2004
 -21332708.69647 -16603916.10248  20157786.691    20157786.4244   20157790.6504
        51.0004         48.2004
  -1683866.42242  -1285746.14145  24819472.972    24819470.7124   24819481.9354
        35.9004         34.1004
 16  6  9  1 52  0.0000000  0  8G19G 6G23G 7G 3G 2G 9G30
  -1501796.64642  -1148028.52945  24871665.733    24871663.4674   24871667.8014
        37.5004         35.3004
 -12266348.05646  -9541240.91947  20701281.203    20701281.7534   20701286.9824
        49.5004         46.6004
 -18583350.34246 -14469166.27847  21346038.265    21346038.2744   21346038.4354
        47.9004         45.1004
  -7188767.58844  -5584027.13346  22745164.478    22745163.6494   22745165.4624
        43.0004         40.2004
  -4509945.07243  -3501794.57146  23513375.549    23513377.6414   23513382.7924
        40.3004         37.8004
  -7617935.93245  -5912191.98946  22628642.131    22628642.3384   22628642.7164
        43.9004         41.2004
 -21324682.90447 -16597662.23148  20159313.523    20159313.4174   20159317.7874
        51.0004         48.2004
  -1797981.36642  -1374666.83645  24797757.823    24797757.7694   24797764.0104
        35.9004         34.0004
 16  6  9  1 52 30.0000000  0  8G19G 6G23G 7G 3G 2G 9G30
  -1402326.42643  -1070519.31145  24890594.955    24890593.4974   24890596.3394
        37.6004         35.7004
 -12245907.46046  -9525313.18247  20705171.006    20705171.5324   20705176.5474
        49.5004         46.6004
 -18528706.40346 -14426586.58047  21356437.007    21356437.0264   21356437.3144
        48.1004         45.2004
  -7284173.00644  -5658368.99346  22727008.193    22727008.8754   22727010.7614
        42.9004         40.2004
  -4418004.68143  -3430152.73146  23530873.765    23530872.7214   23530878.5994
        40.1004         37.6004
  -7688797.95045  -5967409.12646  22615158.273    22615157.5004   22615157.3324
        44.1004         41.2004
 -21316211.85447 -16591061.41748  20160925.040    20160925.3534   20160929.9804
        51.0004         48.2004
  -1912099.21742  -1463589.78645  24776041.075    24776040.2554   24776048.8444
        35.7004         34.3004
 16  6  9  1 53  0.0000000  0  8G19G 6G23G 7G 3G 2G 9G30
  -1302772.46242   -992944.80645  24909537.714    24909538.1554   24909540.8304
        37.5004         35.3004
 -12224870.27146  -9508920.57447  20709174.165    20709174.7514   20709180.0154
        49.5004         46.6004
 -18473754.76346 -14383767.12247  21366893.889    21366893.5654   21366894.0384
        48.1004         45.1004
  -7379322.78144  -5732511.65646  22708901.580    22708900.8914   22708904.0964
        42.7004         40.0004
  -4325905.14243  -3358386.88246  23548395.860    23548396.6744   23548404.4694
        39.9004         37.3004
  -7759276.09545  -6022327.13246  22601746.391    22601745.9534   22601746.3604
        44.2004         41.8004
 -21307296.40247 -16584114.30548  20162621.722    20162621.7114   20162626.4894
        51.0004         48.2004
  -2026217.47042  -1552513.06745  24754326.133    24754326.0524   24754332.1634
        36.3004         34.5004
 16  6  9  1 53 30.0000000  0  8G19G 6G23G 7G 3G 2G 9G30
  -1203138.24242   -915307.79545  24928498.731    24928498.0224   24928500.2764
        37.1004         35.0004
 -12203236.93946  -9492063.44347  20713290.802    20713291.4414   20713296.6864
        49.5004         46.6004
 -18418497.36246 -14340709.40847  21377409.287    21377408.6724   21377408.9794
        47.9004         44.9004
  -7474214.32944  -5806453.10346  22690844.506    22690843.9314   22690846.3654
        42.9004         40.0004
  -4233647.18243  -3286497.56946  23565954.656    23565955.0094   23565960.6854
        39.9004         37.4004
  -7829368.23345  -6076944.37646  22588408.842    22588407.4484   22588407.7254
        44.6004         41.6004
 -21297937.41047 -16576821.58748  20164402.738    20164402.9724   20164407.4664
        51.0004         48.2004
  -2140333.65142  -1641434.71045  24732613.129    24732610.8484   24732615.1434
        36.6004         34.8004
 16  6  9  1 54  0.0000000  0  8G19G 6G23G 7G 3G 2G 9G30
  -1103426.53342   -837610.39645  24947471.414    24947471.8704   24947475.1864
        36.6004         34.3004
 -12181007.92146  -9474742.12647  20717520.688    20717521.3674   20717526.8914
        49.5004         46.6004
 -18362935.64146 -14297414.56147  21387981.758    21387981.5344   21387981.5684
        47.7004         44.9004
  -7568845.07644  -5880191.34346  22672837.091    22672837.3154   22672839.6104
        43.0004         40.7004
  -4141231.72343  -3214485.54846  23583542.040    23583541.0524   23583546.2794
        39.9004         37.4004
  -7899072.20345  -6131259.14146  22575144.533    22575143.7614   22575144.1324
        44.6004         41.9004
 -21288135.74347 -16569183.92048  20166268.360    20166268.3644   20166272.5874
        51.0004         48.4004
  -2254445.27142  -1730352.85045  24710894.737    24710894.0414   24710898.7624
        36.8004         34.8004
 16  6  9  1 54 30.0000000  0  8G19G 6G23G 7G 3G 2G 9G30
  -1003640.38852   -759854.99555  24966461.054    24966460.1924   24966464.0734
        35.9004         34.0004
 -12158183.68047  -9456957.01147  20721864.610    20721864.9364   20721870.2874
        49.6004         46.8004
 -18307070.77946 -14253883.49647  21398612.376    21398611.8864   21398612.3134
        47.7004         44.7004
  -7663212.51244  -5953724.39746  22654879.605    22654880.2244   22654881.6614
        43.4004         40.7004
  -4048659.59743  -3142351.42546  23601154.792    23601157.2174   23601162.8224
        39.9004         37.4004
  -7968385.67445  -6185269.62146  22561953.907    22561953.9954   22561953.6024
        44.6004         41.8004
 -21277892.29047 -16561202.00448  20168217.622    20168217.3114   20168221.7244
        51.0004         48.2004
  -2368549.97342  -1819265.56445  24689180.533    24689181.3484   24689185.9464
        36.8004         34.6004
 16  6  9  1 55  0.0000000  0  8G19G 6G23G 7G 3G 2G 9G30
   -903783.13542   -682044.18945  24985464.343    24985464.0484   24985464.4074
        35.6004         33.8004
 -12134764.72346  -9438708.48347  20726320.312    20726321.1224   20726326.7184
        49.5004         46.8004
 -18250904.39646 -14210117.47947  21409299.799    21409299.6784   21409300.6454
        47.5004         44.5004
  -7757314.00744  -6027050.23946  22636972.425    22636973.0384   22636974.7554
        43.4004         40.6004
  -3955931.59143  -3070095.85146  23618805.148    23618804.1504   23618807.9474
        40.1004         37.8004
  -8037306.14345  -6238973.88046  22548839.110    22548838.6464   22548838.6924
        44.6004         41.8004
 -21267207.94647 -16552876.53748  20170250.322    20170250.2994   20170254.9104
        51.0004         48.2004
  -2482645.13942  -1908170.84345  24667470.668    24667470.7364   24667474.6074
        37.0004         35.0004
 16  6  9  1 55 30.0000000  0  9G19G 6G23G 7G26G 3G 2G 9G30
   -803857.47642   -604180.04945  25004479.229    25004477.1354   25004478.8904
        35.2004         33.4004
 -12110751.55946  -9419996.94347  20730890.139    20730890.4804   20730896.1424
        49.5004         46.6004
 -18194437.62946 -14166117.41047  21420045.790    21420045.3174   21420045.7744
        47.4004         44.4004
  -7851146.94145  -6100166.78746  22619115.301    22619116.4184   22619119.9254
        43.6004         40.7004
                     -1091.99353  25025346.505
                        23.4004
  -3863048.57543  -2997719.47946  23636478.897    23636478.2904   23636483.7344
        40.4004         37.9004
  -8105831.73045  -6292370.43446  22535799.030    22535798.4534   22535798.0984
        44.6004         41.8004
 -21256083.59247 -16544208.21048  20172367.006    20172367.3454   20172371.6694
        51.0004         48.2004
  -2596728.30142  -1997066.76145  24645761.160    24645760.1054   24645767.0974
        37.0004         35.0004
 16  6  9  1 56  0.0000000  0  8G19G 6G23G 7G 3G 2G 9G30
   -703866.92042   -526265.30945  25023507.550    25023507.5854   25023508.9024
        35.0004         33.4004
 -12086144.73246  -9400822.79847  20735572.791    20735573.2894   20735578.7314
        49.5004         46.6004
 -18137672.03146 -14121884.46847  21430848.222    21430847.2344   21430847.2434
        47.4004         44.4004
  -7944709.07944  -6173072.33046  22601311.684    22601312.9694   22601315.7814
        43.4004         40.7004
  -3770011.37444  -2925222.96546  23654181.830    23654182.8564   23654188.9854
        40.6004         37.9004
  -8173960.14645  -6345457.49747  22522834.887    22522834.3304   22522834.4884
        44.8004         42.1004
 -21244520.15147 -16535197.73148  20174567.898    20174567.7634   20174572.0074
        50.8004         48.2004
  -2710796.99742  -2085951.41445  24624054.548    24624054.7344   24624060.5154
        37.3004         35.3004
 16  6  9  1 56 30.0000000  0  8G19G 6G23G 7G 3G 2G 9G30
   -603814.08342   -448302.09845  25042548.169    25042545.8464   25042544.9724
        34.7004         33.3004
 -12060944.80046  -9381186.50347  20740368.652    20740368.7684   20740373.9774
        49.5004         46.6004
 -18080609.09746 -14077419.84947  21441706.486    21441706.2044   21441706.5194
        47.4004         44.5004
  -8037997.51044  -6245764.58146  22583559.877    22583559.8454   22583562.4064
        43.4004         40.6004
  -3676820.83743  -2852606.98946  23671914.296    23671916.2434   23671922.5264
        40.4004         37.9004
  -8241689.14945  -6398233.34746  22509946.503    22509945.9994   22509946.3774
        44.6004         41.8004
 -21232518.50147 -16525845.79648  20176851.765    20176851.7494   20176856.1764
        50.8004         48.0004
  -2824848.81542  -2174822.90845  24602351.482    24602350.8874   24602359.7314
        37.5004         35.3004
 16  6  9  1 57  0.0000000  0  8G19G 6G23G 7G 3G 2G 9G30
   -503702.26642   -370292.87445  25061598.224    25061593.9884   25061599.7374
        34.7004         33.4004
 -12035152.38446  -9361088.52447  20745275.772    20745276.1934   20745281.9644
        49.3004         46.5004
 -18023250.10346 -14032724.53447  21452622.263    21452621.7334   21452621.5674
        47.4004         44.5004
  -8131009.70744  -6318241.59246  22565859.526    22565860.1744   22565862.1714
        43.2004         40.6004
  -3583477.83443  -2779872.20246  23689679.155    23689678.7794   23689683.8814
        40.1004         37.6004
  -8309016.42145  -6450696.14746  22497134.248    22497133.5004   22497133.9674
        44.6004         41.8004
 -21220079.60147 -16516153.15248  20179218.575    20179218.6604   20179223.1704
        50.8004         48.2004
  -2938881.06943  -2263679.18145  24580653.242    24580651.9004   24580660.9194
        37.6004         35.7004
 16  6  9  1 57 30.0000000  0  8G19G 6G23G 7G 3G 2G 9G30
   -403534.25242   -292239.87445  25080659.342    25080656.7774   25080661.5804
        35.2004         33.4004
 -12008768.06446  -9340529.32047  20750297.393    20750297.5554   20750302.7344
        49.3004         46.5004
 -17965596.63446 -13987799.75847  21463593.188    21463592.8564   21463592.7754
        47.4004         44.5004
  -8223743.34544  -6390501.54346  22548211.397    22548212.8214   22548216.9324
        43.2004         40.4004
  -3489983.20643  -2707019.24846  23707467.884    23707469.4474   23707475.4694
        40.1004         37.4004
  -8375939.95945  -6502844.35946  22484399.433    22484398.9404   22484398.9924
        44.6004         41.9004
 -21207204.37347 -16506120.49948  20181668.648    20181668.5094   20181673.3954
        50.8004         48.2004
  -3052891.34443  -2352518.30245  24558956.835    24558956.7824   24558964.1904
        37.6004         35.5004
 16  6  9  1 58  0.0000000  0  8G19G 6G23G 7G 3G 2G 9G30
   -303313.32642   -214145.65945  25099728.050    25099728.1934   25099729.4144
        35.4004         33.8004
 -11981792.47146  -9319509.38847  20755430.827    20755431.3134   20755435.8764
        49.3004         46.5004
 -17907650.06946 -13942646.58547  21474620.091    21474619.4554   21474619.1074
        47.4004         44.5004
  -8316196.08744  -6462542.62946  22530618.753    22530619.8944   22530623.8874
        43.0004         40.4004
  -3396337.73443  -2634048.77146  23725292.675    23725290.1204   23725295.4234
        39.9004         37.4004
  -8442457.43345  -6554676.14446  22471741.891    22471741.3624   22471741.1114
        44.6004         41.9004
 -21193893.74947 -16495748.58248  20184201.559    20184201.7184   20184206.2244
        50.8004         48.2004
  -3166877.16142  -2441338.40645  24537263.571    24537264.6354   24537273.4244
        37.3004         35.0004
 16  6  9  1 58 30.0000000  0  8G19G 6G23G 7G 3G 2G 9G30
   -203042.63952   -136012.69555  25118809.338    25118807.5264   25118811.2944
        35.4004         33.8004
 -11954226.28646  -9298029.25147  20760676.506    20760676.9504   20760681.7864
        49.3004         46.5004
 -17849411.80446 -13897266.12547  21485702.079    21485701.9844   21485701.4684
        47.4004         44.5004
  -8408364.98344  -6534362.51346  22513080.560    22513080.2764   22513083.8114
        43.2004         40.6004
  -3302542.35443  -2560961.47746  23743137.067    23743138.5774   23743143.5684
        39.6004         37.1004
  -8508566.59245  -6606189.76246  22459161.367    22459161.2774   22459160.7014
        44.6004         41.8004
 -21180148.66047 -16485038.12048  20186816.931    20186817.2374   20186821.7264
        50.8004         48.2004
  -3280835.90342  -2530137.38545  24515579.118    24515578.5544   24515586.5924
        37.1004         35.2004
 16  6  9  1 59  0.0000000  0  8G19G 6G23G 7G 3G 2G 9G30
   -102725.14142    -57843.22445  25137897.719    25137899.0244   25137902.1694
        35.2004         33.8004
 -11926070.19446  -9276089.44247  20766034.101    20766034.4754   20766039.6214
        49.3004         46.5004
 -17790883.32146 -13851659.51947  21496840.055    21496839.2734   21496839.4324
        47.4004         44.4004
  -8500247.75544  -6605959.46146  22495596.690    22495596.6764   22495599.4884
        43.2004         40.7004
  -3208597.94043  -2487758.05246  23761013.938    23761014.8394   23761021.5504
        39.6004         37.3004
  -8574265.47545  -6657383.68546  22446659.077    22446659.0134   22446658.7664
        44.4004         41.6004
 -21165970.08447 -16473989.87648  20189514.871    20189515.2354   20189519.9494
        50.8004         48.2004
  -3394765.13942  -2618913.39745  24493898.589    24493899.6054   24493903.7244
        36.8004         34.8004
 16  6  9  1 59 30.0000000  0  8G19G 6G23G 7G 3G 2G 9G30
     -2363.74042     20360.45445  25156998.502    25156995.3454   25156998.8704
        35.4004         33.6004
 -11897324.90246  -9253690.52547  20771503.890    20771504.5184   20771510.1634
        49.3004         46.5004
 -17732065.96746 -13805827.82147  21508032.491    21508032.0174   21508031.8624
        47.4004         44.4004
  -8591841.94145  -6677331.54046  22478167.786    22478167.6184   22478170.3314
        43.6004         41.1004
  -3114505.20343  -2414439.05346  23778919.107    23778921.0654   23778926.3024
        39.4004         37.1004
  -8639551.60845  -6708256.00246  22434236.175    22434234.6034   22434235.1684
        44.2004         41.6004
 -21151358.96847 -16462604.59048  20192295.503    20192295.1984   20192300.3844
        50.8004         48.0004
  -3508662.28742  -2707664.37545  24472222.495    24472223.2734   24472231.8254
        36.4004         34.5004
 16  6  9  2  0  0.0000000  0  8G19G 6G23G 7G 3G 2G 9G30
     98038.60742     98596.03145  25176103.912    25176104.7344   25176104.8304
        35.6004         34.1004
 -11867991.14846  -9230833.06747  20777086.589    20777087.0214   20777092.0504
        49.5004         46.6004
 -17672961.29846 -13759772.23347  21519278.974    21519279.0254   21519279.2244
        47.2004         44.4004
  -8683144.91345  -6748476.69046  22460791.958    22460792.4704   22460794.9234
        43.7004         41.2004
  -3020265.13143  -2341005.25946  23796854.805    23796854.8594   23796859.1084
        39.7004         37.3004
  -8704423.10745  -6758805.22046  22421890.638    22421889.7374   22421890.2654
        44.4004         41.8004
 -21136316.30747 -16450883.03348  20195158.252    20195158.2454   20195163.0544
        50.8004         48.2004
  -3622524.88342  -2796388.46845  24450558.130    24450558.3104   24450562.1794
        36.3004         34.3004
 16  6  9  2  0 30.0000000  0  8G19G 6G23G 7G 3G 2G 9G30
    198478.67042    176861.03445  25195218.624    25195217.0554   25195219.2164
        36.6004         34.8004
 -11838069.63946  -9207517.61947  20782780.045    20782780.4644   20782785.9344
        49.5004         46.6004
 -17613570.62946 -13713493.79547  21530581.262    21530580.8794   21530581.1094
        47.2004         44.2004
  -8774154.16345  -6819392.96846  22443473.750    22443474.0944   22443476.8904
        43.9004         41.2004
  -2925878.59943  -2267457.31246  23814813.107    23814815.2074   23814821.2914
        39.7004         37.4004
  -8768877.67745  -6809029.55946  22409625.835    22409625.1414   22409625.5774
        44.6004         41.8004
 -21120843.03347 -16438825.93548  20198102.909    20198102.9034   20198107.4644
        51.0004         48.2004
  -3736350.34242  -2885083.61745  24428898.437    24428896.4844   24428901.9424
        35.9004         34.1004
 16  6  9  2  1  0.0000000  0  8G19G 6G23G 7G 3G 2G 9G30
    298953.68542    255153.27045  25214337.479    25214336.3264   25214337.9364
        37.1004         35.2004
 -11807561.21946  -9183744.83247  20788585.217    20788585.9104   20788591.3834
        49.3004         46.5004
 -17553895.22146 -13666993.48447  21541937.279    21541937.1884   21541936.6924
        47.2004         44.4004
  -8864867.37745  -6890078.57246  22426211.761    22426212.2064   22426214.9804
        44.1004         41.2004
  -2831346.36943  -2193795.85246  23832806.373    23832804.9454   23832811.2754
        39.9004         37.6004
  -8832912.94645  -6858927.17246  22397440.149    22397438.9774   22397440.5414
        44.6004         41.8004
 -21104940.14847 -16426434.07548  20201128.605    20201128.7384   20201133.8944
        51.0004         48.2004
  -3850136.13342  -2973747.86545  24407247.882    24407247.4794   24407248.9134
        36.1004         34.5004
 16  6  9  2  1 30.0000000  0  8G19G 6G23G 7G 3G 2G 9G30
    399460.30142    333470.15745  25233463.562    25233462.2164   25233464.8064
        37.1004         35.3004
 -11776466.64046  -9159515.30447  20794502.243    20794503.4714   20794508.4504
        49.3004         46.5004
 -17493936.87046 -13620272.70347  21553346.902    21553347.0704   21553346.3254
        47.4004         44.5004
  -8955281.81445  -6960531.35946  22409006.741    22409007.1304   22409010.4154
        44.1004         41.2004
  -2736669.39043  -2120021.61646  23850822.486    23850821.6984   23850826.3524
        39.9004         37.6004
  -8896527.00145  -6908496.56946  22385334.704    22385334.2924   22385334.5764
        44.6004         41.9004
 -21088608.66547 -16413708.24548  20204236.545    20204236.7024   20204241.4164
        51.0004         48.2004
  -3963879.69142  -3062379.19445  24385600.889    24385602.9224   24385602.2424
        36.3004         34.5004
 16  6  9  2  2  0.0000000  0  8G19G 6G23G 7G 3G 2G 9G30
    499995.61542    411809.37545  25252594.019    25252592.4334   25252596.2924
        37.5004         35.5004
 -11744786.72146  -9134829.66247  20800531.559    20800531.8004   20800536.6074
        49.3004         46.3004
 -17433696.79746 -13573332.38547  21564810.508    21564809.7354   21564809.7324
        47.2004         44.4004
  -9045395.15245  -7030749.53346  22391859.174    22391858.7734   22391861.2014
        43.9004         41.1004
  -2641848.46543  -2046135.20546  23868862.801    23868865.5074   23868869.5964
        39.6004         37.1004
  -8959717.86445  -6957736.20446  22373309.852    22373308.8134   22373309.9094
        44.6004         41.9004
 -21071849.55247 -16400649.19348  20207425.801    20207425.8464   20207430.4314
        51.0004         48.2004
  -4077578.59742  -3150975.71445  24363961.798    24363963.4924   24363968.7884
        36.4004         34.5004
 16  6  9  2  2 30.0000000  0  8G19G 6G23G 7G 3G 2G 9G30
    600556.53043    490168.54545  25271730.178    25271729.2154   25271731.7354
        37.6004         35.3004
 -11712522.33146  -9109688.58247  20806670.653    20806671.3144   20806676.7454
        49.1004         46.3004
 -17373176.30046 -13526173.57047  21576327.474    21576327.1264   21576326.4104
        47.2004         44.5004
  -9135205.22745  -7100731.38446  22374768.431    22374768.8794   22374771.1374
        43.9004         41.1004
  -2546884.52643  -1972137.32446  23886936.049    23886936.0724   23886940.2294
        39.4004         37.1004
  -9022483.08945  -7006644.16547  22361365.371    22361365.3354   22361366.4834
        44.8004         42.1004
 -21054663.83747 -16387257.72548  20210696.140    20210696.1444   20210700.8764
        51.0004         48.2004
  -4191230.23042  -3239535.39145  24342334.155    24342335.6054   24342341.3494
        36.3004         34.3004
 16  6  9  2  3  0.0000000  0  8G19G 6G23G 7G 3G 2G 9G30
    701140.34143    568545.49345  25290871.017    25290869.2774   25290872.4654
        38.0004         35.9004
 -11679674.33246  -9084092.74647  20812921.363    20812921.9364   20812927.5864
        49.1004         46.3004
 -17312376.86646 -13478797.38847  21587896.559    21587896.4074   21587896.0304
        47.2004         44.4004
  -9224709.12445  -7170474.67146  22357736.708    22357736.0524   22357739.2244
        43.9004         41.1004
  -2451778.33043  -1898028.63546  23905034.703    23905034.8794   23905039.9564
        39.2004         36.9004
  -9084820.55245  -7055218.82446  22349503.409    22349503.1944   22349503.6204
        44.8004         41.9004
 -21037052.54147 -16373534.63548  20214047.638    20214047.5264   20214052.0554
        51.0004         48.2004
  -4304832.00142  -3328056.23245  24320718.901    24320718.0734   24320725.6844
        36.4004         34.6004
 16  6  9  2  3 30.0000000  0  8G19G 6G23G 7G 3G 2G 9G30
    801743.85743    646937.80145  25310014.398    25310012.6674   25310017.2344
        38.0004         35.9004
 -11646243.61046  -9058042.84547  20819283.375    20819284.0504   20819289.2854
        49.1004         46.5004
 -17251299.92846 -13431204.97847  21599519.107    21599518.9574   21599519.5494
        47.2004         44.2004
  -9313904.30445  -7239977.39546  22340763.412    22340763.5804   22340766.1804
        44.1004         41.4004
  -2356530.84243  -1823809.80646  23923159.806    23923158.6154   23923164.0304
        39.0004         36.6004
  -9146728.24245  -7103458.58747  22337722.820    22337722.0614   22337723.1484
        44.8004         42.1004
 -21019016.65047 -16359480.68948  20217479.710    20217479.7464   20217483.9734
        51.0004         48.2004
  -4418381.47642  -3416536.31045  24299111.371    24299110.9334   24299118.0564
        37.0004         35.0004
 16  6  9  2  4  0.0000000  0  8G19G 6G23G 7G 3G 2G 9G30
    902364.34743    725343.35745  25329161.995    25329161.8944   25329163.4084
        38.0004         35.7004
 -11612231.08646  -9031539.58347  20825756.064    20825756.6404   20825761.6484
        49.3004         46.5004
 -17189946.86746 -13383397.40447  21611193.535    21611193.5894   21611193.9484
        47.0004         44.2004
  -9402788.58545  -7309237.85246  22323849.347    22323849.1964   22323851.7784
        44.1004         41.4004
  -2261142.95943  -1749481.60746  23941309.136    23941310.5954   23941315.1534
        38.9004         36.7004
  -9208204.32445  -7151362.03047  22326023.449    22326022.9394   22326024.8454
        44.9004         42.1004
 -21000557.21047 -16345096.71248  20220992.542    20220992.5504   20220996.7164
        51.0004         48.2004
  -4531876.02042  -3504973.59345  24277515.512    24277515.1274   24277522.2504
        37.0004         35.0004
 16  6  9  2  4 30.0000000  0  8G19G 6G23G 7G 3G 2G 9G30
   1002998.75443    803759.75745  25348311.998    25348310.9364   25348315.0904
        37.6004         35.5004
 -11577637.68346  -9004583.69647  20832339.242    20832339.5964   20832344.6544
        49.3004         46.3004
 -17128319.50646 -13335376.09047  21622920.850    21622920.7144   21622921.9344
        47.0004         44.0004
  -9491359.35945  -7378254.02146  22306994.557    22306994.5784   22306997.5574
        44.1004         41.4004
  -2165615.50143  -1675044.62546  23959487.250    23959488.6454   23959495.0084
        38.9004         36.6004
  -9269246.48345  -7198927.34947  22314408.284    22314407.6534   22314408.9114
        45.1004         42.5004
 -20981675.25847 -16330383.50048  20224585.255    20224585.4524   20224589.8534
        51.0004         48.2004
  -4645313.12942  -3593366.13345  24255929.275    24255928.5924   24255935.9464
        37.5004         35.3004
 16  6  9  2  5  0.0000000  0  8G19G 6G23G 7G 3G 2G 9G30
   1103643.86443    882184.49945  25367464.932    25367464.1284   25367466.1964
        37.6004         35.5004
 -11542464.37546  -8977175.93947  20839032.082    20839032.3214   20839037.5314
        49.1004         46.3004
 -17066418.70246 -13287141.69647  21634700.346    21634699.8414   21634700.7044
        46.9004         44.0004
  -9579614.39045  -7447024.15246  22290200.272    22290200.4304   22290203.1954
        44.2004         41.6004
  -2069949.30843  -1600499.57746  23977695.118    23977694.5324   23977700.4394
        38.9004         36.7004
  -9329852.49645  -7246152.80847  22302875.486    22302874.5984   22302875.7914
        45.3004         42.5004
 -20962371.82147 -16315341.85848  20228258.812    20228258.8604   20228263.0164
        51.0004         48.2004
  -4758690.26943  -3681711.94245  24234353.412    24234352.7374   24234362.0414
        37.6004         35.5004
 16  6  9  2  5 30.0000000  0  8G19G 6G23G 7G 3G 2G 9G30
   1204296.96642    960615.51245  25386618.579    25386617.4304   25386619.9884
        37.3004         35.0004
 -11506712.11746  -8949317.04747  20845835.580    20845835.9184   20845841.2494
        49.1004         46.3004
 -17004245.77646 -13238695.26347  21646531.800    21646531.0984   21646531.9514
        46.9004         44.0004
  -9667551.13345  -7515546.27346  22273465.767    22273465.5904   22273469.1504
        44.4004         41.8004
  -1974145.31243  -1525847.15346  23995924.585    23995924.9244   23995931.7554
        39.0004         36.9004
  -9390020.31745  -7293036.83047  22291426.287    22291425.5084   22291425.6544
        45.3004         42.3004
 -20942647.96047 -16299972.61948  20232012.239    20232012.3154   20232016.5914
        51.0004         48.2004
  -4872004.80643  -3770008.96945  24212789.835    24212789.6954   24212797.6824
        37.8004         35.7004
 16  6  9  2  6  0.0000000  0  8G19G 6G23G 7G 3G 2G 9G30
   1304954.76442   1039050.15645  25405773.444    25405772.1154   25405774.1154
        36.6004         34.5004
 -11470381.94246  -8921007.83147  20852748.713    20852749.1884   20852754.8754
        49.1004         46.5004
 -16941802.46546 -13190038.14747  21658414.566    21658413.9194   21658414.7554
        46.9004         44.0004
  -9755167.17345  -7583818.50446  22256793.105    22256792.9444   22256796.2804
        44.6004         41.8004
  -1878204.46343  -1451088.04546  24014176.958    24014180.7524   24014187.1334
        39.0004         36.6004
  -9449747.90445  -7339577.80947  22280059.649    22280059.1264   22280059.4704
        45.1004         42.3004
 -20922504.71747 -16284276.58548  20235845.219    20235845.4824   20235849.5384
        51.0004         48.2004
  -4985254.26142  -3858255.29445  24191239.097    24191238.9584   24191245.2754
        37.5004         35.3004
 16  6  9  2  6 30.0000000  0  8G19G 6G23G 7G 3G 2G 9G30
   1405614.48742   1117486.27445  25424928.442    25424925.0634   25424928.8644
        36.1004         34.1004
 -11433474.89346  -8892249.10247  20859771.939    20859772.4684   20859777.6394
        49.1004         46.1004
 -16879089.94346 -13141171.25647  21670347.820    21670347.7214   21670348.0424
        46.7004         43.9004
  -9842460.30745  -7651839.10146  22240182.625    22240182.4314   22240185.0454
        44.6004         41.9004
  -1782127.53643  -1376222.91346  24032464.420    24032463.8384   24032469.2494
        38.9004         36.4004
  -9509033.28145  -7385774.20747  22268778.743    22268777.8344   22268778.7854
        45.3004         42.6004
 -20901943.14547 -16268254.57348  20239758.213    20239758.2034   20239762.2284
        51.0004         48.2004
  -5098436.00642  -3946448.88245  24169702.083    24169702.7524   24169706.4394
        37.5004         35.3004
 16  6  9  2  7  0.0000000  0  8G19G 6G23G 7G 3G 2G 9G30
   1506273.46742   1195921.84045  25444083.188    25444083.2334   25444082.7274
        35.6004         34.0004
 -11395991.93846  -8863041.61347  20866904.721    20866905.0834   20866910.3634
        49.1004         46.1004
 -16816109.84246 -13092095.86547  21682332.592    21682332.6044   21682333.0944
        46.7004         44.0004
  -9929427.63945  -7719605.84246  22223632.829    22223632.6174   22223635.7304
        44.8004         41.9004
  -1685915.44943  -1301252.49046  24050775.886    24050773.6554   24050777.8784
        38.7004         36.4004
  -9567874.40345  -7431624.41547  22257581.506    22257580.8174   22257581.7264
        45.5004         42.6004
 -20880964.34447 -16251907.45248  20243750.320    20243750.4364   20243754.6174
        51.0004         48.2004
  -5211547.58242  -4034587.80145  24148178.786    24148177.4644   24148182.2444
        37.3004         35.2004
 16  6  9  2  7 30.0000000  0  8G19G 6G23G 7G 3G 2G 9G30
   1606928.78642   1274354.54645  25463237.960    25463236.1474   25463240.4424
        34.7004         32.9004
 -11357934.21946  -8833386.26247  20874146.889    20874147.5444   20874152.6734
        48.9004         46.1004
 -16752863.64946 -13042813.11947  21694368.717    21694368.3474   21694368.6914
        46.9004         44.0004
 -10016066.89745  -7787116.93246  22207145.342    22207146.7054   22207148.8564
        44.8004         41.9004
  -1589569.08243  -1226177.42246  24069107.938    24069108.9154   24069111.9984
        38.9004         36.6004
  -9626269.18145  -7477126.82747  22246469.709    22246468.9934   22246469.1554
        45.6004         42.8004
 -20859569.36447 -16235236.03548  20247821.477    20247821.6254   20247825.8534
        51.0004         48.2004
  -5324586.30443  -4122669.93145  24126668.120    24126666.8424   24126672.5774
        37.6004         35.5004
 16  6  9  2  8  0.0000000  0  8G19G 6G23G 7G 3G 2G 9G30
   1707577.15041   1352781.78445  25482388.713    25482386.8254   25482392.0414
        33.7004         32.4004
 -11319302.83046  -8803283.88747  20881497.686    20881498.7324   20881503.7684
        48.9004         45.9004
 -16689352.68746 -12993324.07047  21706454.083    21706453.7844   21706453.8424
        46.7004         43.9004
 -10102375.63245  -7854370.46647  22190721.927    22190721.9094   22190724.6754
        44.9004         42.1004
  -1493089.39443  -1150998.43946  24087464.490    24087467.6564   24087471.1894
        39.0004         36.6004
  -9684215.74445  -7522279.98147  22235443.029    22235442.1664   22235442.3304
        45.6004         42.8004
 -20837759.28047 -16218241.16548  20251971.712    20251971.8904   20251976.3524
        51.0004         48.2004
  -5437549.68543  -4210693.35545  24105170.181    24105169.9414   24105177.0624
        37.6004         35.5004
 16  6  9  2  8 30.0000000  0  9G19G 6G23G16G 7G 3G 2G 9G30
   1808215.55841   1431201.27445  25501539.271    25501541.5484   25501541.0874
        33.0004         31.9004
 -11280098.87046  -8772735.36047  20888958.379    20888959.0614   20888964.1914
        48.9004         46.1004
 -16625578.40746 -12943629.83347  21718589.696    21718589.5674   21718590.1624
        46.7004         43.9004
                     -3195.51253  24612604.361
                        23.4004
 -10188351.75745  -7921364.85747  22174359.910    22174361.0114   22174363.8924
        45.1004         42.5004
  -1396477.11243  -1075716.17546  24105854.377    24105853.1144   24105857.2854
        38.7004         36.4004
  -9741711.94245  -7567082.21447  22224501.577    22224500.8384   22224500.5094
        45.6004         42.8004
 -20815535.20147 -16200923.69948  20256201.213    20256201.1374   20256205.6664
        51.0004         48.2004
  -5550435.10743  -4298656.02045  24083686.286    24083687.8164   24083695.8784
        38.0004         35.9004
 16  6  9  2  9  0.0000000  0  9G19G 6G23G16G 7G 3G 2G 9G30
   1908841.44551   1509611.06155  25520685.083    25520685.0364
        31.9004         31.5004
 -11240323.47646  -8741741.55547  20896528.036    20896528.2894   20896533.1904
        48.9004         46.1004
 -16561541.98446 -12893731.33147  21730775.603    21730774.5244   21730775.8694
        46.7004         43.9004
                    -45409.29845  24602295.572
                        32.6004
 -10273992.63445  -7988098.00547  22158063.889    22158064.5914   22158066.2624
        45.1004         42.5004
  -1299733.36943  -1000331.45446  24124260.325    24124261.4394   24124267.6834
        38.7004         36.4004
  -9798755.74545  -7611531.92747  22213646.111    22213645.8334   22213646.1424
        45.6004         43.0004
 -20792898.18247 -16183284.46148  20260508.573    20260508.6524   20260513.0624
        51.0004         48.2004
  -5663240.03343  -4386555.95846  24062222.504    24062222.4524   24062230.4024
        38.3004         36.2004
 16  6  9  2  9 30.0000000  0  9G19G 6G23G16G 7G 3G 2G 9G30
   2009449.9945    1588007.21854  25539835.255    25539830.2254
        29.5004         29.4004
 -11199977.80746  -8710303.37847  20904204.619    20904205.6774   20904210.7054
        48.9004         45.9004
 -16497244.50146 -12843629.39947  21743010.979    21743010.6544   21743010.9734
        46.7004         43.7004
                    -87266.34545  24592073.222                    24592070.1784
                        34.8004
 -10359296.18545  -8054568.28747  22141830.614    22141831.4834   22141833.9764
        45.1004         42.3004
  -1202858.90343   -924844.84346  24142695.929    24142695.0984   24142702.2794
        38.7004         36.4004
  -9855345.16945  -7655627.58747  22202877.875    22202877.3574   22202877.4724
        45.8004         43.0004
 -20769849.33347 -16165324.31848  20264894.581    20264894.3784   20264898.9524
        50.8004         48.0004
  -5775961.84943  -4474391.16846  24040773.674    24040773.0094   24040780.0324
        38.5004         36.4004
 16  6  9  2 10  0.0000000  0  9G19G 6G23G16G 7G 3G 2G 9G30
                   1666393.52854  25558976.457
                        29.6004
 -11159063.06246  -8678421.76847  20911990.526    20911990.8814   20911996.4494
        48.8004         45.9004
 -16432687.79146 -12793325.47747  21755294.833    21755294.9314   21755295.8754
        46.5004         43.5004
   -181580.92342   -128764.78345  24581936.200    24581935.7524   24581939.8284
        35.9004         34.5004
 -10444260.02445  -8120773.84447  22125663.441    22125663.9534   22125665.7784
        45.1004         42.3004
  -1105854.59543   -849257.09946  24161155.962    24161155.3464   24161161.4854
        38.3004         36.2004
  -9911478.37745  -7699367.73647  22192196.081    22192195.4274   22192196.2724
        46.0004         43.2004
 -20746389.77447 -16147044.14248  20269358.561    20269358.6964   20269363.3684
        50.8004         48.2004
  -5888597.98843  -4562159.61546  24019338.422    24019339.2654   24019344.8444
        38.9004         36.6004
 16  6  9  2 10 30.0000000  0  9G19G 6G23G16G 7G 3G 2G 9G30
                     55536.06953  25578113.828
                        23.4004
 -11117580.41046  -8646097.62747  20919884.500    20919884.9594   20919890.5804
        48.8004         45.9004
 -16367873.41046 -12742820.76547  21767629.407    21767628.7944   21767629.3744
        46.5004         43.5004
   -234374.17842   -169902.37945  24571889.088    24571888.5644   24571894.0054
        36.1004         34.3004
 -10528881.58245  -8186712.69647  22109560.220    22109560.4084   22109562.4614
        45.1004         42.3004
  -1008721.40243   -773568.88846  24179638.869    24179638.5624   24179645.0504
        38.3004         36.0004
  -9967152.83545  -7742750.42847  22181601.712    22181601.0864   22181601.6524
        46.2004         43.5004
 -20722520.57847 -16128444.76348  20273900.813    20273900.8554   20273905.2674
        50.8004         48.0004
  -6001145.85043  -4649859.26846  23997923.040    23997921.8754   23997928.4104
        38.9004         36.6004
 16  6  9  2 11  0.0000000  0  9G19G 6G23G16G 7G 3G 2G 9G30
                    133755.80254  25597246.810
                        29.8004
 -11075531.10546  -8613331.94147  20927886.727    20927886.9984   20927892.1354
        48.6004         45.8004
 -16302802.38146 -12692116.08747  21780012.146    21780011.7754   21780011.9214
        46.5004         43.5004
   -286702.42852   -210677.64255  24561928.819    24561931.7464   24561936.7254
        36.1004         34.5004
 -10613158.36245  -8252382.89947  22093522.212    22093522.4814   22093525.5904
        45.1004         42.3004
   -911460.23243   -697780.97145  24198147.068    24198146.6634   24198152.1304
        38.0004         35.7004
 -10022367.15645  -7785774.58147  22171094.659    22171094.4714   22171094.5354
        46.2004         43.3004
 -20698242.89347 -16109527.08848  20278521.567    20278521.2064   20278525.1494
        51.0004         48.2004
  -6113602.93543  -4737488.17646  23976520.704    23976521.7884   23976527.1394
        38.9004         36.6004
 16  6  9  2 11 30.0000000  0  9G19G 6G23G16G 7G 3G 2G 9G30
                    211934.85954  25616373.494
                        29.8004
 -11032916.40046  -8580125.68247  20935995.067    20935996.0804   20936001.3154
        48.6004         45.6004
 -16237476.24946 -12641212.61047  21792444.058    21792443.1064   21792443.6264
        46.5004         43.7004
   -338562.86442   -251088.35745  24552064.286    24552063.7094   24552067.3264
        35.9004         34.1004
 -10697088.34845  -8317782.87347  22077550.624    22077551.4624   22077553.6064
        45.1004         42.5004
   -814071.97843   -621894.03545  24216679.426    24216678.7894   24216685.2804
        37.6004         35.5004
 -10077119.12445  -7828438.45547  22160675.465    22160674.9794   22160675.6504
        46.2004         43.2004
 -20673557.83247 -16090291.97848  20283218.903    20283218.5564   20283222.6314
        51.0004         48.2004
  -6225966.62443  -4825044.29346  23955139.039    23955138.5624   23955146.2944
        38.7004         36.4004
 16  6  9  2 12  0.0000000  0  9G19G 6G23G16G 7G 3G 2G 9G30
                     48964.87753  25635500.669
                        23.4004
 -10989737.52346  -8546479.81747  20944212.584    20944213.2054   20944218.3294
        48.6004         45.8004
 -16171896.57646 -12590111.58647  21804923.096    21804922.6574   21804922.7614
        46.5004         43.5004
   -389952.96442   -291132.59045  24542281.497    24542284.9874   24542286.6114
        35.7004         34.1004
 -10780669.06045  -8382910.68847  22061647.510    22061646.8174   22061649.9744
        45.3004         42.6004
   -716557.53542   -545908.81645  24235233.102    24235235.6574   24235239.6304
        37.5004         35.3004
 -10131407.02545  -7870740.70847  22150344.577    22150344.0744   22150345.1574
        46.0004         43.2004
 -20648466.50247 -16070740.29148  20287992.757    20287993.1114   20287997.2354
        50.8004         48.0004
  -6338234.30643  -4912525.62346  23933775.776    23933775.9974   23933782.1754
        38.7004         36.2004
 16  6  9  2 12 30.0000000  0  8G 6G23G16G 7G 3G 2G 9G30
 -10945995.80646  -8512395.37547  20952536.851    20952536.8254   20952542.1484
        48.6004         45.8004
 -16106064.54045 -12538813.90347  21817450.421    21817449.8434   21817449.9154
        46.3004         43.3004
   -440870.04042   -330808.28845  24532599.006    24532596.1894   24532598.3634
        35.4004         34.0004
 -10863898.02845  -8447764.41447  22045808.606    22045808.8274   22045811.4464
        45.5004         42.6004
   -618917.88942   -469825.95445  24253814.372    24253815.7224   24253821.4854
        37.5004         35.5004
 -10185228.87445  -7912679.80547  22140102.810    22140102.0374   22140103.0544
        45.8004         43.0004
 -20622970.05047 -16050872.91848  20292844.773    20292844.7694   20292849.2264
        50.8004         48.0004
  -6450403.39643  -4999930.11246  23912431.570    23912431.5774   23912436.7754
        38.7004         36.4004
 16  6  9  2 13  0.0000000  0  8G 6G23G16G 7G 3G 2G 9G30
 -10901692.55146  -8477873.37147  20960966.114    20960966.9864   20960972.8394
        48.6004         45.8004
 -16039981.42445 -12487320.58647  21830025.468    21830024.7804   21830025.1534
        46.2004         43.3004
   -491311.92842   -370113.65945  24522996.823    24522998.5794   24522998.9324
        35.6004         34.0004
 -10946773.03445  -8512342.32647  22030037.735    22030038.1334   22030041.1164
        45.5004         42.6004
   -521153.78543   -393646.19345  24272425.669    24272419.8254   24272425.8404
        37.6004         35.5004
 -10238582.61145  -7954254.14647  22129949.593    22129949.2944   22129950.3614
        45.8004         43.0004
 -20597069.60547 -16030690.75448  20297773.251    20297773.4884   20297778.1654
        50.8004         48.0004
  -6562471.26343  -5087255.73046  23891108.582    23891106.5364   23891110.2704
        38.5004         36.4004
 16  6  9  2 13 30.0000000  0  8G 6G23G16G 7G 3G 2G 9G30
 -10856829.07546  -8442914.82447  20969503.923    20969504.7154   20969510.3524
        48.8004         45.9004
 -15973648.71045 -12435632.77147  21842648.831    21842648.6374   21842647.9214
        46.3004         43.3004
   -541275.78742   -409046.54845  24513488.460    24513488.9194   24513490.1574
        35.6004         34.0004
 -11029291.75445  -8576642.61347  22014335.256    22014335.6554   22014337.3764
        45.5004         42.6004
   -423266.32143   -317370.27845  24291046.752    24291046.5764   24291054.3344
        37.8004         35.7004
 -10291466.26945  -7995462.19447  22119886.330    22119885.6794   22119886.7104
        45.8004         43.2004
 -20570766.31347 -16010194.68148  20302779.175    20302778.9004   20302783.5174
        50.8004         48.2004
  -6674435.36843  -5174500.47946  23869801.756    23869800.0014   23869803.0314
        38.5004         36.4004
 16  6  9  2 14  0.0000000  0  8G 6G23G16G 7G 3G 2G 9G30
 -10811406.72346  -8407520.79447  20978147.427    20978148.3874   20978153.5754
        48.8004         46.1004
 -15907067.66945 -12383751.45947  21855318.818    21855317.9664   21855318.0314
        46.2004         43.3004
   -590758.99142   -447604.82445  24504073.275    24504071.7414   24504071.7894
        35.9004         34.3004
 -11111451.82345  -8640663.42747  21998699.032    21998700.4904   21998703.4354
        45.5004         42.6004
   -325256.36043   -240998.85645  24309694.565    24309697.3874   24309703.6374
        38.0004         35.9004
 -10343878.19545  -8036302.64947  22109912.838    22109912.5044   22109913.0424
        46.0004         43.2004
 -20544061.31347 -15989385.58848  20307861.175    20307861.0224   20307864.9694
        51.0004         48.2004
  -6786293.14543  -5261662.39146  23848514.844    23848513.8084   23848517.2504
        38.7004         36.4004
 16  6  9  2 14 30.0000000  0  8G 6G23G16G 7G 3G 2G 9G30
 -10765426.90246  -8371692.36847  20986897.366    20986897.9384   20986902.7004
        48.8004         45.9004
 -15840239.86745 -12331677.85147  21868034.785    21868034.3024   21868034.5254
        46.2004         43.3004
   -639759.49942   -485787.03845  24494748.349    24494747.3204   24494751.5494
        35.9004         34.3004
 -11193250.91445  -8704402.97047  21983133.745    21983134.3844   21983137.9374
        45.5004         42.8004
   -227124.70743   -164532.64245  24328372.598    24328371.8044   24328377.4734
        38.2004         35.9004
 -10395816.32645  -8076773.91347  22100028.635    22100028.3524   22100029.4524
        45.8004         43.0004
 -20516955.77047 -15968264.38448  20313018.553    20313018.9104   20313023.1414
        51.0004         48.2004
  -6898041.97843  -5348739.39646  23827248.542    23827248.7814   23827252.6904
        38.5004         36.4004
 16  6  9  2 15  0.0000000  0  8G 6G23G16G 7G 3G 2G 9G30
 -10718890.98646  -8335430.63347  20995752.881    20995753.7324   20995758.5414
        48.8004         45.9004
 -15773166.59345 -12279412.98147  21880798.240    21880798.1384   21880798.4844
        46.0004         43.2004
   -688274.99442   -523591.33345  24485516.571    24485515.8774   24485519.7864
        36.3004         34.5004
 -11274687.07445  -8767859.69947  21967637.199    21967637.6424   21967641.1604
        45.6004         43.0004
   -128872.41843    -87972.43245  24347072.625    24347069.2794   24347072.9644
        38.0004         35.9004
 -10447279.13945  -8116874.80447  22090236.636    22090236.2034   22090236.3614
        46.0004         43.3004
 -20489450.81847 -15946831.94648  20318252.396    20318252.7604   20318257.0864
        51.0004         48.2004
  -7009679.28243  -5435729.50446  23806006.164    23806004.8414   23806008.5274
        38.9004         36.7004
 16  6  9  2 15 30.0000000  0  8G 6G23G16G 7G 3G 2G 9G30
 -10671800.36646  -8298736.64247  21004713.906    21004714.4354   21004720.0884
        48.8004         46.1004
 -15705849.03145 -12226957.75447  21893607.547    21893607.4874   21893608.5254
        45.8004         43.0004
   -736302.94642   -561015.71445  24476376.952    24476375.8564   24476380.3814
        36.4004         34.5004
 -11355757.67445  -8831031.58347  21952210.206    21952210.7224   21952214.2324
        45.8004         43.2004
    -30500.32943    -11318.88545  24365791.593    24365787.9834   24365792.3854
        37.8004         35.5004
 -10498264.46445  -8156603.62547  22080534.345    22080533.8794   22080534.4654
        46.0004         43.3004
 -20461547.61247 -15925089.18748  20323562.563    20323562.6854   20323567.0724
        51.0004         48.2004
  -7121202.46743  -5522630.67246  23784784.691    23784783.6064   23784787.8074
        39.0004         36.7004
 16  6  9  2 16  0.0000000  0  8G 6G23G16G 7G 3G 2G 9G30
 -10624156.54046  -8261611.58647  21013780.174    21013780.7734   21013786.7324
        48.8004         45.9004
 -15638288.84645 -12174313.46547  21906464.449    21906464.0484   21906465.2034
        45.8004         43.0004
   -783840.89542   -598058.30045  24467334.113    24467331.1224   24467331.8944
        36.3004         34.5004
 -11436460.68345  -8893917.01147  21936854.598    21936853.5374   21936856.1464
        46.0004         43.2004
     67990.53843     65427.26645  24384522.825    24384529.8604   24384534.8064
        37.6004         35.3004
 -10548770.37645  -8195958.87547  22070923.342    22070923.2284   22070923.4514
        46.0004         43.2004
 -20433247.36447 -15903037.04748  20328948.084    20328948.2104   20328952.5664
        51.0004         48.2004
  -7232608.95543  -5609440.91846  23763586.404    23763584.2694   23763588.3454
        39.4004         37.1004
 16  6  9  2 16 30.0000000  0  8G 6G23G16G 7G 3G 2G 9G30
 -10575960.91646  -8224056.55447  21022951.271    21022951.9304   21022957.8274
        48.6004         45.8004
 -15570487.25345 -12121481.07447  21919366.813    21919366.4594   21919367.1744
        45.8004         43.2004
   -830886.27142   -634716.99945  24458373.679    24458377.2044   24458380.9774
        36.1004         34.1004
 -11516793.77245  -8956514.21447  21921566.055    21921566.4304   21921569.3864
        46.0004         43.2004
    166599.36442    142265.30845  24403292.910    24403294.5874   24403300.4724
        37.5004         35.3004
 -10598795.38345  -8234939.40647  22061404.184    22061403.4714   22061403.6694
        46.0004         43.2004
 -20404551.19147 -15880676.39048  20334408.990    20334408.8384   20334412.9734
        51.0004         48.2004
  -7343896.10443  -5696158.14346  23742405.719    23742405.3424   23742411.4574
        39.6004         37.3004
 16  6  9  2 17  0.0000000  0  8G 6G23G16G 7G 3G 2G 9G30
 -10527215.00046  -8186072.73347  21032227.692    21032228.0544   21032233.3524
        48.6004         45.8004
 -15502445.65445 -12068461.65747  21932315.037    21932314.8534   21932315.3004
        45.8004         43.0004
   -877436.78942   -670990.14745  24449520.337    24449517.6054   24449522.7994
        35.9004         34.1004
 -11596754.63645  -9018821.37447  21906348.681    21906350.1024   21906353.6004
        46.0004         43.2004
    265325.12542    219194.44045  24422079.787    24422081.3724   24422087.7964
        37.3004         35.2004
 -10648337.44445  -8273543.61447  22051977.010    22051975.9084   22051975.8464
        45.8004         42.8004
 -20375460.28947 -15858008.15448  20339944.899    20339944.6644   20339948.8244
        51.0004         48.2004
  -7455061.31943  -5782780.35946  23721250.873    23721251.1594   23721257.1744
        39.6004         37.3004
 16  6  9  2 17 30.0000000  0  8G 6G23G16G 7G 3G 2G 9G30
 -10477920.25646  -8147661.25347  21041607.951    21041608.2684   21041614.3514
        48.6004         45.8004
 -15434165.32045 -12015256.21947  21945307.496    21945307.3054   21945308.8064
        46.0004         43.2004
   -923490.21942   -706875.88045  24440758.490    24440753.3324   24440757.6234
        35.7004         34.0004
 -11676341.14245  -9080836.82247  21891205.211    21891205.8954   21891208.2124
        46.0004         43.2004
    364166.94442    296214.01145  24440895.121    24440890.6324   24440896.6894
        37.1004         35.2004
 -10697394.52745  -8311769.90547  22042641.371    22042640.4374   22042641.1534
        45.5004         42.6004
 -20345975.81547 -15835033.24648  20345555.595    20345555.6454   20345559.6094
        51.0004         48.2004
  -7566102.01843  -5869305.54646  23700120.748    23700120.9754   23700125.6904
        39.6004         37.3004
 16  6  9  2 18  0.0000000  0  8G 6G23G16G 7G 3G 2G 9G30
 -10428078.25146  -8108823.33747  21051092.503    21051093.0634   21051099.0424
        48.6004         45.6004
 -15365647.76245 -11961865.92947  21958347.145    21958346.8924   21958346.7724
        46.0004         43.2004
   -969043.95342   -742372.28745  24432084.402    24432087.7304   24432091.8184
        35.7004         33.8004
 -11755551.26445  -9142558.98747  21876132.019    21876132.7034   21876135.2004
        46.0004         43.3004
    463123.87842    373323.28045  24459722.645    24459721.7124   24459728.5744
        37.1004         35.0004
 -10745965.05245  -8349617.06047  22033398.601    22033397.8314   22033397.8344
        45.3004         42.5004
 -20316099.00647 -15811752.60848  20351240.551    20351240.4104   20351244.8654
        51.0004         48.0004
  -7677015.62343  -5955731.69546  23679014.818    23679014.4994   23679019.7964
        39.6004         37.1004
 16  6  9  2 18 30.0000000  0  8G 6G23G16G 7G 3G 2G 9G30
 -10377690.52246  -8069560.17047  21060680.975    21060681.9954   21060687.1054
        48.6004         45.8004
 -15296894.06845 -11908291.63347  21971430.062    21971429.3174   21971429.8274
        45.8004         42.8004
  -1014096.03742   -777477.82345  24423515.614    24423512.7534   24423514.2354
        35.2004         33.6004
 -11834382.32345  -9203985.77747  21861132.214    21861132.2494   21861133.8194
        46.0004         43.3004
    562194.91442    450521.49445  24478568.730    24478573.1054   24478578.3604
        37.3004         35.5004
 -10794047.41445  -8387083.83447  22024249.120    22024248.2214   22024248.9564
        45.3004         42.5004
 -20285831.00647 -15788167.14848  20356999.967    20356999.8734   20357004.5794
        50.8004         48.0004
  -7787799.47543  -6042056.76346  23657932.511    23657932.7024   23657938.0634
        39.2004         36.7004
 16  6  9  2 19  0.0000000  0  8G 6G23G16G 7G 3G 2G 9G30
 -10326758.56646  -8029872.94347  21070373.463    21070373.8044   21070378.7984
        48.6004         45.6004
 -15227905.89745 -11854534.62747  21984558.916    21984558.1964   21984558.7574
        45.8004         43.0004
  -1058644.24142   -812190.72045  24415036.751    24415037.1034   24415040.4024
        34.9004         33.4004
 -11912831.98945  -9265115.37947  21846203.945    21846203.3334   21846205.6224
        46.2004         43.5004
    661379.26442    527808.02445  24497445.388    24497448.3314   24497452.5964
        37.3004         35.2004
 -10841639.65945  -8424168.69847  22015192.266    22015191.7304   22015192.1604
        45.3004         42.3004
 -20255173.01747 -15764277.80348  20362834.426    20362834.3504   20362838.9734
        50.8004         48.0004
  -7898451.06443  -6128278.74246  23636876.113    23636876.6334   23636881.2804
        39.0004         36.7004
 16  6  9  2 19 30.0000000  0  8G 6G23G16G 7G 3G 2G 9G30
 -10275284.03046  -7989762.91947  21080167.968    21080168.4864   21080174.0744
        48.4004         45.4004
 -15158684.37245 -11800595.78647  21997729.965    21997730.1114   21997730.5164
        45.6004         42.8004
  -1102685.95442   -846508.99545  24406657.388    24406657.6584   24406657.3734
        35.2004         33.8004
 -11990898.41845  -9325946.37047  21831347.762    21831347.9064   21831349.5004
        46.3004         43.7004
    760675.86542    605181.95745  24516344.356    24516345.2614   24516349.5384
        37.3004         35.2004
 -10888740.08045  -8460870.32347  22006229.029    22006227.6694   22006228.9484
        45.1004         42.3004
 -20224126.22847 -15740085.49748  20368742.152    20368742.1304   20368746.8804
        50.8004         48.0004
  -8008967.72243  -6214395.59646  23615846.217    23615844.9534   23615850.4274
        39.0004         36.6004
 16  6  9  2 20  0.0000000  0  8G 6G23G16G 7G 3G 2G 9G30
 -10223268.45246  -7949231.31447  21090066.735    21090067.3624   21090072.3984
        48.2004         45.4004
 -15089230.78645 -11746476.12147  22010948.054    22010947.3724   22010947.5884
        45.8004         43.0004
  -1146218.95942   -880430.74745  24398375.204    24398374.3654   24398375.8434
        35.6004         34.1004
 -12068579.43146  -9386477.03147  21816566.897    21816565.8384   21816567.9234
        46.5004         43.7004
    860083.92842    682642.75445  24535268.605    24535263.3664   24535267.5254
        37.3004         35.3004
 -10935346.83245  -8497187.27147  21997359.545    21997359.3624   21997360.0314
        45.1004         42.5004
 -20192691.85947 -15715591.17747  20374723.632    20374723.6314   20374728.6254
        50.7004         47.8004
  -8119346.92943  -6300405.35546  23594840.866    23594840.8664   23594845.3734
        38.7004         36.6004
 16  6  9  2 20 30.0000000  0  8G 6G23G16G 7G 3G 2G 9G30
 -10170713.49746  -7908279.40547  21100067.167    21100067.7774   21100073.6884
        48.2004         45.4004
 -15019546.70345 -11692176.86547  22024207.657    22024207.5714   22024207.6004
        45.8004         42.8004
  -1189241.02242   -913954.44245  24390192.448    24390187.6934   24390189.4494
        35.6004         34.0004
 -12145872.87046  -9446705.65547  21801857.036    21801857.1324   21801859.6254
        46.5004         43.7004
    959602.33542    760189.51045  24554201.340    24554201.1504   24554203.3724
        37.1004         35.0004
 -10981458.46945  -8533118.41247  21988585.341    21988584.6974   21988585.5254
        45.3004         42.6004
 -20160871.09647 -15690795.77647  20380779.204    20380779.1804   20380783.6284
        50.7004         47.8004
  -8229586.01343  -6386305.91546  23573864.307    23573864.4034   23573868.7094
        39.0004         36.7004
 16  6  9  2 21  0.0000000  0  8G 6G23G16G 7G 3G 2G 9G30
 -10117620.79746  -7866908.47647  21110170.867    21110171.3594   21110176.4524
        48.2004         45.4004
 -14949633.28045 -11637698.88447  22037511.866    22037512.1854   22037511.8094
        45.6004         42.8004
  -1231750.37642   -947078.61445  24382097.219    24382095.9634   24382099.7784
        35.6004         34.1004
 -12222776.29146  -9506630.39247  21787222.222    21787222.9604   21787225.4234
        46.5004         43.7004
   1059230.09642    837821.58945  24573148.882    24573155.5364   24573160.7864
        37.1004         35.2004
 -11027072.96845  -8568662.18247  21979905.278    21979905.0124   21979905.1534
        45.3004         42.6004
 -20128665.11747 -15665700.20747  20386908.244    20386907.8544   20386912.2834
        50.7004         47.8004
  -8339682.42743  -6472095.28946  23552913.860    23552912.9814   23552917.6704
        39.2004         36.9004
 16  6  9  2 21 30.0000000  0  8G 6G23G16G 7G 3G 2G 9G30
 -10063992.00046  -7825119.81947  21120375.734    21120376.1834   21120381.5904
        48.1004         45.2004
 -14879491.93745 -11583043.29847  22050860.129    22050858.9434   22050860.0204
        45.8004         42.8004
  -1273744.44642   -979801.28645  24374102.689    24374105.2404   24374108.6534
        35.9004         34.3004
 -12299287.74246  -9566249.69347  21772663.483    21772663.3184   21772665.9254
        46.5004         43.7004
   1158966.49442    915538.24245  24592135.896    24592135.7434   24592143.1444
        37.3004         35.3004
 -11072188.85245  -8603817.41847  21971319.054    21971319.4554   21971319.6724
        45.3004         42.6004
 -20096075.19847 -15640305.45747  20393109.540    20393109.5664   20393114.0674
        50.7004         47.8004
  -8449633.55143  -6557771.46346  23531989.916    23531990.1814   23531995.1024
        39.4004         37.3004
 16  6  9  2 22  0.0000000  0  8G 6G23G16G 7G 3G 2G 9G30
 -10009828.80046  -7782914.73947  21130682.857    21130683.3184   21130688.5164
        48.1004         45.1004
 -14809123.99845 -11528211.14847  22064250.202    22064249.9604   22064250.5164
        45.6004         43.0004
  -1315221.18942  -1012120.82445  24366208.339    24366211.9134   24366213.5054
        36.1004         34.3004
 -12375405.06846  -9625561.87947  21758178.904    21758178.3394   21758181.6654
        46.5004         43.7004
   1258810.44443    993338.67545  24611135.857    24611135.3214   24611142.4684
        37.6004         35.7004
 -11116804.52645  -8638582.87147  21962829.920    21962829.1584   21962829.9644
        45.5004         42.8004
 -20063102.51947 -15614612.45947  20399384.094    20399384.3194   20399388.4974
        50.7004         47.8004
  -8559436.73343  -6643332.35146  23511095.723    23511095.0654   23511100.0434
        39.6004         37.1004
 16  6  9  2 22 30.0000000  0  8G 6G23G16G 7G 3G 2G 9G30
  -9955132.85346  -7740294.53647  21141091.439    21141091.9934   21141097.3044
        48.1004         45.2004
 -14738530.63945 -11473203.33747  22077684.158    22077683.2744   22077683.9254
        45.6004         42.8004
  -1356178.41942  -1044035.50845  24358414.392    24358416.2574   24358419.5814
        35.7004         34.0004
 -12451126.16346  -9684565.32147  21743769.099    21743768.8074   21743772.2084
        46.5004         43.7004
   1358760.97943   1071222.17545  24630160.019    24630157.0064   24630161.7684
        37.6004         35.5004
 -11160918.06345  -8672957.06147  21954436.194    21954435.4994   21954434.9144
        45.6004         42.8004
 -20029748.29647 -15588622.16047  20405731.197    20405731.1324   20405735.4434
        50.7004         47.8004
  -8669089.46343  -6728776.00846  23490229.152    23490228.0934   23490233.5844
        39.6004         37.1004
 16  6  9  2 23  0.0000000  0  8G 6G23G16G 7G 3G 2G 9G30
  -9899905.90946  -7697260.55847  21151600.281    21151601.0624   21151606.6064
        48.1004         45.2004
 -14667713.35745 -11418021.05047  22091159.737    22091159.6814   22091160.3114
        45.6004         42.8004
  -1396613.88642  -1075543.70945  24350725.786    24350721.7674   24350725.9364
        36.1004         34.3004
 -12526448.83046  -9743258.30547  21729435.621    21729436.0454   21729438.0894
        46.5004         43.7004
   1458817.14843   1149187.97645  24649197.526    24649196.7294   24649201.3244
        37.6004         35.7004
 -11204527.80545  -8706938.68847  21946136.601    21946136.7294   21946136.7094
        45.6004         42.8004
 -19996013.76547 -15562335.50647  20412150.740    20412150.8174   20412155.1514
        50.7004         47.8004
  -8778589.05743  -6814100.35046  23469391.381    23469391.3514   23469397.4634
        39.7004         37.4004
 16  6  9  2 23 30.0000000  0  8G 6G23G16G 7G 3G 2G 9G30
  -9844149.67246  -7653814.16047  21162210.507    21162211.3094   21162216.4064
        48.1004         45.2004
 -14596673.47745 -11362665.31747  22104678.878    22104678.0754   22104678.1934
        45.6004         42.6004
  -1436525.63342  -1106643.80045  24343131.106    24343130.2224   24343130.4174
        36.4004         34.6004
 -12601370.99145  -9801639.19747  21715179.095    21715178.3134   21715180.6354
        46.3004         43.5004
   1558977.96143   1227235.36645  24668252.929    24668255.1734   24668263.0434
        38.0004         35.9004
 -11247632.42345  -8740526.70047  21937934.040    21937933.5334   21937933.5204
        45.5004         42.5004
 -19961900.12347 -15535753.44847  20418642.057    20418642.3544   20418646.7854
        50.7004         47.8004
  -8887932.93643  -6899303.36546  23448585.160    23448584.5584   23448589.5934
        39.7004         37.4004
 16  6  9  2 24  0.0000000  0  8G 6G23G16G 7G 3G 2G 9G30
  -9787865.92646  -7609956.70247  21172921.322    21172921.4024   21172926.6434
        48.1004         45.2004
 -14525412.21545 -11307137.06947  22118237.870    22118238.1194   22118239.2594
        45.6004         42.8004
  -1475911.49042  -1137334.08145  24335634.582    24335634.9494   24335636.1424
        37.0004         35.2004
 -12675890.43845  -9859706.30147  21700997.255    21700998.2804   21701000.2964
        46.3004         43.7004
   1659242.60243   1305363.63245  24687335.945    24687336.0664   24687342.5354
        38.0004         35.9004
 -11290230.14445  -8773719.74047  21929828.317    21929827.6274   21929828.6704
        45.5004         43.0004
 -19927408.63947 -15508876.96847  20425205.509    20425205.5704   20425210.0764
        50.7004         47.8004
  -8997118.54243  -6984383.03146  23427807.153    23427806.6964   23427810.6474
        39.7004         37.4004
 16  6  9  2 24 30.0000000  0  8G 6G23G16G 7G 3G 2G 9G30
  -9731056.41746  -7565689.56747  21183732.496    21183733.1334   21183737.6734
        48.2004         45.4004
 -14453930.83745 -11251437.29747  22131840.470    22131840.1244   22131841.2994
        45.5004         42.8004
  -1514769.35842  -1167612.95445  24328240.849    24328241.2964   24328242.6714
        37.0004         35.0004
 -12750005.07546  -9917457.96047  21686894.443    21686895.2064   21686897.2254
        46.5004         43.9004
   1759609.94043   1383571.89346  24706435.714    24706436.3134   24706441.9144
        38.3004         36.2004
 -11332319.21145  -8806516.41347  21921818.610    21921817.8844   21921819.6764
        45.8004         43.0004
 -19892540.51947 -15481707.00747  20431840.899    20431840.9524   20431845.1974
        50.5004         47.7004
  -9106143.21143  -7069337.31446  23407059.271    23407059.9264   23407064.2634
        39.7004         37.4004
 16  6  9  2 25  0.0000000  0  8G 6G23G16G 7G 3G 2G 9G30
  -9673722.96146  -7521014.15247  21194641.783    21194642.5334   21194647.9654
        48.2004         45.4004
 -14382230.88945 -11195567.22347  22145484.385    22145483.7844   22145485.6244
        45.5004         42.6004
  -1553097.34542  -1197478.94945  24320946.892    24320946.3014   24320948.1564
        36.4004         34.3004
 -12823713.06246  -9974892.74447  21672868.447    21672867.9254   21672871.0264
        46.7004         43.9004
   1860079.12843   1461859.56646  24725555.534    24725554.5764   24725560.9164
        38.3004         36.0004
 -11373898.33745  -8838915.72347  21913906.450    21913905.9174   21913906.4744
        45.8004         43.0004
 -19857296.99447 -15454244.51747  20438547.242    20438547.3934   20438552.1084
        50.5004         47.8004
  -9215004.37943  -7154164.18746  23386343.538    23386343.7404   23386348.9094
        39.9004         37.4004
 16  6  9  2 25 30.0000000  0  8G 6G23G16G 7G 3G 2G 9G30
  -9615867.34446  -7475931.86247  21205651.428    21205651.7554   21205657.4644
        48.1004         45.2004
 -14310313.65645 -11139527.84647  22159170.114    22159169.8454   22159171.3594
        45.5004         42.6004
  -1590893.29942  -1226930.35345  24313757.463    24313753.5314   24313754.7174
        36.4004         34.5004
 -12897012.09346 -10032008.86547  21658919.498    21658920.1754   21658922.4434
        46.7004         43.9004
   1960649.11343   1540225.73646  24744695.071    24744692.0284   24744697.8604
        38.3004         36.0004
 -11414965.47545  -8870916.09247  21906091.485    21906090.9614   21906091.2584
        45.8004         42.8004
 -19821679.31347 -15426490.47847  20445325.317    20445325.1814   20445329.9094
        50.5004         47.8004
  -9323699.37143  -7238861.59046  23365659.801    23365660.1864   23365665.2404
        39.9004         37.6004
 16  6  9  2 26  0.0000000  0  8G 6G23G16G 7G 3G 2G 9G30
  -9557491.39146  -7430444.12547  21216760.139    21216760.4754   21216765.5694
        48.1004         45.2004
 -14238180.24745 -11083319.99547  22172896.131    22172896.4524   22172897.8814
        45.5004         42.6004
  -1628155.14842  -1255965.51145  24306664.595    24306663.9884   24306665.8954
        36.6004         34.5004
 -12969900.07846 -10088804.69447  21645048.909    21645049.7924   21645052.8474
        46.5004         43.9004
   2061318.90043   1618669.71045  24763847.776    24763848.3934   24763854.8684
        38.0004         35.7004
 -11455519.35645  -8902516.52247  21898374.603    21898373.9414   21898374.4754
        45.8004         43.0004
 -19785688.72047 -15398445.85847  20452174.387    20452174.3264   20452178.6794
        50.7004         47.8004
  -9432225.66143  -7323427.50646  23345009.186    23345008.7934   23345014.4784
        40.1004         37.8004
 16  6  9  2 26 30.0000000  0  8G 6G23G16G 7G 3G 2G 9G30
  -9498596.97746  -7384552.38047  21227967.037    21227967.5744   21227973.3414
        48.1004         45.2004
 -14165832.08045 -11026944.82247  22186663.822    22186664.3804   22186664.8104
        45.3004         42.5004
  -1664880.76142  -1284582.88145  24299672.364    24299673.3684   24299679.0464
        36.4004         34.5004
 -13042375.47946 -10145279.01247  21631257.682    21631257.8654   21631260.3084
        46.5004         43.7004
   2162087.65843   1697190.79245  24783021.314    24783022.8054   24783029.3084
        37.8004         35.9004
 -11495558.68345  -8933715.99747  21890755.255    21890754.9024   21890755.2244
        46.0004         43.3004
 -19749326.43747 -15370111.60348  20459093.950    20459093.7604   20459098.4284
        50.7004         48.0004
  -9540580.62743  -7407859.92946  23324389.219    23324389.1984   23324395.0224
        40.1004         37.6004
 16  6  9  2 27  0.0000000  0  8G 6G23G16G 7G 3G 2G 9G30
  -9439185.94346  -7338258.07747  21239272.698    21239273.3344   21239278.7484
        48.1004         45.4004
 -14093270.44945 -10970403.29647  22200471.861    22200471.9444   22200472.7304
        45.3004         42.5004
  -1701068.66442  -1312781.25745  24292787.363    24292788.8104   24292791.9364
        36.8004         34.8004
 -13114435.59046 -10201429.73447  21617544.745    21617545.1224   21617547.8314
        46.5004         43.7004
   2262954.28443   1775788.13846  24802215.724    24802217.8844   24802223.3494
        38.2004         36.0004
 -11535081.61645  -8964513.07947  21883234.051    21883233.4144   21883233.5914
        46.2004         43.2004
 -19712593.72147 -15341488.70948  20466084.166    20466084.2394   20466088.3584
        50.7004         48.0004
  -9648761.66343  -7492156.82946  23303803.963    23303802.8694   23303808.3734
        40.3004         37.9004
