     2.10           OBSERVATION DATA    G (GPS)             RINEX VERSION / TYPE
teqc  2006Dec12     IGN-RGP             20160614 11:10:01UTCPGM / RUN BY / DATE
Linux 2.4.20-8|Pentium IV|gcc|Linux|486/DX+                 COMMENT
     2.11           OBSERVATION DATA    G (GPS)             COMMENT
teqc  2013Mar15     Observatoire de Pari20160614 00:52:18UTCCOMMENT
Linux 2.4.21-27.ELsmp|Opteron|gcc|Linux x86_64|=+           COMMENT
BIT 2 OF LLI FLAGS DATA COLLECTED UNDER A/S CONDITION       COMMENT
OPMT                                                        MARKER NAME
10001S006                                                   MARKER NUMBER
Automatic           BNM-SYRTE                               OBSERVER / AGENCY
02942               ASHTECH Z-XII3T     1L01-1D04           REC # / TYPE / VERS
00019               3S-02-TSADM     NONE                    ANT # / TYPE
  4202777.6220   171367.7610  4778659.9840                  APPROX POSITION XYZ
        0.0000        0.0000        0.0000                  ANTENNA: DELTA H/E/N
     1     1                                                WAVELENGTH FACT L1/2
     7    L1    L2    C1    P1    P2    S1    S2            # / TYPES OF OBSERV
 SNR is mapped to RINEX snr flag value [0-9]                COMMENT
  L1 & L2: min(max(int(snr_dBHz/6), 0), 9)                  COMMENT
pseudorange smoothing corrections not applied               COMMENT
  2016     6    13     0     0    0.0000000     GPS         TIME OF FIRST OBS
                                                            END OF HEADER
 16  6 13  0  0  0.0000000  0  9G 6G19G17G22G31G 9G 3G23G 1
  -5617893.81245  -4360744.36547  21908230.862    21908231.2874   21908236.5064
        46.2004         43.5004
 -14017225.17445 -10905974.19847  22238139.579    22238138.3094   22238140.0264
        46.0004         43.0004
  -9005918.43645  -6764020.73546  22478685.979    22478685.4444   22478688.7974
        44.6004         41.8004
  -9050339.85645  -7036806.76246  22422038.717    22422037.4044   22422039.2494
        44.1004         41.1004
  -5880767.11643  -4553092.23446  23882790.053    23882790.0244   23882793.7574
        39.9004         37.6004
 -13493653.57846 -10476051.01147  21461592.477    21461592.6464   21461597.8334
        46.9004         44.0004
 -18891068.22246 -14434094.10647  20896246.943    20896247.0714   20896252.1554
        49.5004         46.5004
 -20853466.32046 -15710436.77647  20717668.300    20717667.7214   20717668.3864
        49.3004         46.5004
  -2990825.82943  -2081220.11946  23409336.995    23409336.5024   23409343.5654
        39.9004         37.4004
 16  6 13  0  0 30.0000000  0  9G 6G19G17G22G31G 9G 3G23G 1
  -5695107.64645  -4420910.97747  21893537.520    21893537.7924   21893543.0264
        46.3004         43.5004
 -13988685.78545 -10883735.72347  22243569.505    22243568.5874   22243571.0784
        45.8004         42.8004
  -8942202.08245  -6714371.63846  22490810.481    22490810.6384   22490813.5134
        44.6004         41.9004
  -8975040.72145  -6978132.14646  22436367.599    22436366.9584   22436369.0604
        44.1004         41.2004
  -5830934.98643  -4514262.01046  23892274.273    23892273.6284   23892276.2554
        40.3004         37.8004
 -13571848.33046 -10536981.94847  21446712.484    21446712.4414   21446717.7124
        46.9004         44.0004
 -18843444.44746 -14396984.67647  20905309.173    20905309.5134   20905314.7164
        49.3004         46.5004
 -20878807.51546 -15730183.14247  20712845.669    20712844.9894   20712846.3144
        49.3004         46.5004
  -2886751.56843  -2000123.33346  23429142.181    23429141.8414   23429147.9634
        39.7004         37.1004
 16  6 13  0  1  0.0000000  0  9G 6G19G17G22G31G 9G 3G23G 1
  -5771986.88545  -4480816.87047  21878907.817    21878907.9604   21878913.6214
        46.2004         43.3004
 -13959543.69645 -10861027.62147  22249115.281    22249114.5554   22249117.0284
        45.8004         43.0004
  -8878038.45245  -6664374.01046  22503021.082    22503020.9404   22503022.8394
        44.6004         41.8004
  -8899562.35645  -6919317.86346  22450730.888    22450729.8804   22450731.3324
        44.1004         41.2004
  -5780575.24943  -4475020.66546  23901856.182    23901856.6014   23901858.5714
        40.3004         37.8004
 -13649654.99646 -10597610.49847  21431906.216    21431906.7714   21431911.3914
        46.9004         44.0004
 -18795521.46346 -14359642.10647  20914428.566    20914428.8014   20914434.3254
        49.3004         46.5004
 -20903671.04446 -15749557.30647  20708114.372    20708113.8894   20708115.1874
        49.3004         46.5004
  -2782488.51743  -1918879.43046  23448980.876    23448981.4754   23448989.0624
        39.4004         36.9004
 16  6 13  0  1 30.0000000  0  9G 6G19G17G22G31G 9G 3G23G 1
  -5848529.24745  -4540460.26447  21864341.641    21864341.9784   21864348.2074
        46.2004         43.3004
 -13929799.97745 -10837850.71947  22254775.603    22254774.6864   22254776.1764
        45.8004         43.0004
  -8813429.41745  -6614029.35046  22515314.666    22515315.0374   22515317.2814
        44.2004         41.1004
  -8823905.37645  -6860364.40746  22465128.187    22465127.3794   22465129.2214
        44.1004         41.4004
  -5729689.70143  -4435369.58746  23911539.474    23911539.4884   23911541.3794
        40.1004         37.4004
 -13727072.04946 -10657935.44147  21417174.265    21417174.3254   21417179.2734
        46.9004         44.0004
 -18747299.99046 -14322066.94947  20923605.275    20923605.3634   20923610.6724
        49.3004         46.5004
 -20928056.98946 -15768559.32147  20703474.076    20703473.4344   20703474.4624
        49.3004         46.6004
  -2678038.33543  -1837489.71846  23468859.537    23468858.3594   23468865.6734
        39.4004         36.9004
 16  6 13  0  2  0.0000000  0  9G 6G19G17G22G31G 9G 3G23G 1
  -5924732.41245  -4599839.33847  21849840.478    21849840.8594   21849847.0794
        46.2004         43.3004
 -13899456.05445 -10814206.12847  22260548.881    22260548.3744   22260551.6154
        45.8004         42.8004
  -8748378.68445  -6563340.49546  22527693.494    22527693.6994   22527696.6474
        43.9004         41.1004
  -8748070.28645  -6801272.15046  22479559.067    22479558.7114   22479559.7954
        44.1004         41.2004
  -5678279.73343  -4395309.86446  23921323.721    23921322.5224   23921324.4114
        39.9004         37.4004
 -13804098.00046 -10717955.63447  21402517.079    21402516.9824   21402521.9924
        46.9004         44.2004
 -18698780.69946 -14284259.72147  20932837.786    20932838.3944   20932843.3744
        49.3004         46.5004
 -20951965.00046 -15787188.92947  20698924.790    20698924.1824   20698924.9864
        49.5004         46.6004
  -2573402.77043  -1755955.56046  23488768.035    23488769.4394   23488777.2184
        39.2004         36.9004
 16  6 13  0  2 30.0000000  0  9G 6G19G17G22G31G 9G 3G23G 1
  -6000594.07145  -4658952.30947  21835404.809    21835405.1254   21835411.5504
        46.3004         43.5004
 -13868513.89245 -10790095.36647  22266437.665    22266436.7964   22266439.6294
        45.8004         42.8004
  -8682888.47145  -6512309.18746  22540155.993    22540156.0354   22540159.2114
        43.9004         41.1004
  -8672058.22445  -6742041.99346  22494024.338    22494022.7344   22494024.0904
        44.1004         41.1004
  -5626347.50043  -4354843.17246  23931205.950    23931205.4844   23931206.8044
        39.7004         37.4004
 -13880731.34446 -10777669.90547  21387933.855    21387934.1114   21387939.1784
        47.0004         44.2004
 -18649964.29846 -14246220.98547  20942127.624    20942128.2774   20942132.9394
        49.3004         46.5004
 -20975395.29646 -15805446.28747  20694465.871    20694465.3654   20694466.4624
        49.5004         46.6004
  -2468583.47743  -1674278.22046  23508715.399    23508716.1634   23508723.1774
        39.6004         37.1004
 16  6 13  0  3  0.0000000  0  9G 6G19G17G22G31G 9G 3G23G 1
  -6076111.87746  -4717797.34347  21821034.007    21821035.0264   21821041.3294
        46.5004         43.9004
 -13836973.93245 -10765518.80147  22272439.393    22272438.3654   22272440.9504
        45.6004         42.6004
  -8616960.29645  -6460936.60546  22552700.893    22552701.2224   22552704.8984
        43.7004         40.9004
  -8595868.97045  -6682673.76046  22508521.917    22508520.2544   22508523.9494
        43.9004         40.9004
  -5573894.26043  -4313970.52046  23941187.692    23941187.9494   23941189.0484
        40.1004         37.8004
 -13956970.64446 -10837077.12747  21373425.800    21373426.0454   21373431.3964
        47.0004         44.4004
 -18600851.47246 -14207951.25947  20951473.811    20951474.1514   20951478.6844
        49.3004         46.5004
 -20998347.60346 -15823331.18647  20690098.148    20690097.6824   20690098.5704
        49.5004         46.6004
  -2363582.17343  -1592459.04246  23528697.862    23528696.9784   23528704.5484
        39.6004         37.3004
 16  6 13  0  3 30.0000000  0  9G 6G19G17G22G31G 9G 3G23G 1
  -6151283.55646  -4776372.67247  21806730.183    21806730.4144   21806736.2814
        46.7004         44.0004
 -13804837.97145 -10740477.81647  22278554.744    22278553.9424   22278556.6224
        45.6004         42.8004
  -8550597.11745  -6409225.05346  22565329.054    22565329.4054   22565333.5474
        43.6004         40.9004
  -8519504.02845  -6623168.63146  22523052.788    22523052.5004   22523054.8704
        43.7004         40.7004
  -5520922.09943  -4272693.52646  23951267.085    23951266.1584   23951269.2824
        40.3004         37.6004
 -14032814.41846 -10896176.13647  21358993.783    21358993.5334   21358998.4854
        47.2004         44.4004
 -18551442.95146 -14169451.12447  20960875.932    20960875.9564   20960881.0894
        49.3004         46.3004
 -21020821.79146 -15840843.52247  20685821.299    20685820.8484   20685821.9784
        49.3004         46.6004
  -2258400.54543  -1510499.36846  23548714.390    23548712.7554   23548720.6434
        39.6004         37.1004
 16  6 13  0  4  0.0000000  0  9G 6G19G17G22G31G 9G 3G23G 1
  -6226106.76846  -4834676.46247  21792490.744    21792491.2484   21792497.8204
        46.7004         43.7004
 -13772107.79845 -10714973.80547  22284783.035    22284782.5884   22284784.9834
        45.6004         43.0004
  -8483801.71545  -6357176.70946  22578039.883    22578040.0934   22578044.1494
        43.7004         41.1004
  -8442963.74045  -6563526.86946  22537617.908    22537617.5824   22537620.0464
        43.6004         40.6004
  -5467432.69543  -4231013.49846  23961444.492    23961444.4274   23961446.5454
        39.9004         37.3004
 -14108261.22046 -10954965.81847  21344636.926    21344636.5504   21344641.4034
        47.4004         44.5004
 -18501739.38646 -14130721.09347  20970333.457    20970334.1554   20970339.1994
        49.3004         46.5004
 -21042817.62046 -15857983.12247  20681635.568    20681635.4484   20681636.1894
        49.5004         46.6004
  -2153040.33043  -1428400.51846  23568760.514    23568761.7664   23568769.7154
        39.6004         37.3004
 16  6 13  0  4 30.0000000  0  9G 6G19G17G22G31G 9G 3G23G 1
  -6300579.21746  -4892706.93647  21778319.848    21778320.4584   21778326.3754
        46.7004         43.9004
 -13738784.86745 -10689007.90247  22291124.207    22291123.4104   22291125.7304
        45.6004         42.8004
  -8416576.48045  -6304793.44046  22590832.781    22590833.6854   22590836.6604
        43.7004         41.1004
  -8366249.26144  -6503749.36646  22552215.201    22552214.7844   22552218.4194
        43.4004         40.6004
  -5413427.79043  -4188931.76546  23971722.159    23971721.7314   23971722.2134
        39.6004         36.9004
 -14183309.61946 -11013445.06147  21330355.257    21330355.2324   21330360.4184
        47.5004         44.7004
 -18451741.47946 -14091761.69447  20979847.785    20979848.5504   20979853.4884
        49.1004         46.3004
 -21064335.24746 -15874750.09447  20677541.470    20677540.5684   20677541.5144
        49.5004         46.8004
  -2047503.28943  -1346163.86446  23588841.754    23588844.5794   23588851.8904
        39.4004         37.1004
 16  6 13  0  5  0.0000000  0  9G 6G19G17G22G31G 9G 3G23G 1
  -6374698.61446  -4950462.30447  21764215.002    21764215.5994   21764221.4084
        46.7004         43.7004
 -13704870.66145 -10662581.25247  22297577.894    22297576.9024   22297579.5294
        45.6004         42.6004
  -8348924.03545  -6252077.28546  22603707.902    22603707.7044   22603710.6604
        43.9004         41.4004
  -8289360.95644  -6443836.42846  22566848.051    22566846.8644   22566849.9814
        43.4004         40.6004
  -5358909.24443  -4146449.80746  23982097.019    23982097.1704   23982095.5944
        39.2004         36.4004
 -14257958.18646 -11071612.74647  21316149.679    21316149.6714   21316155.5334
        47.5004         44.5004
 -18401449.93846 -14052573.49247  20989418.742    20989418.9964   20989423.7404
        49.1004         46.3004
 -21085374.52546 -15891144.32247  20673537.768    20673537.0854   20673537.8564
        49.5004         46.8004
  -1941791.05443  -1263790.71246  23608962.132    23608960.3674   23608968.7224
        39.4004         36.9004
 16  6 13  0  5 30.0000000  0  9G 6G19G17G22G31G 9G 3G23G 1
  -6448462.64046  -5007940.74447  21750178.177    21750178.5554   21750185.0574
        46.7004         43.9004
 -13670366.74445 -10635695.09947  22304143.933    22304142.8584   22304145.3574
        45.5004         42.6004
  -8280846.68745  -6199030.02046  22616662.431    22616662.3784   22616665.8244
        44.2004         41.6004
  -8212299.39145  -6383788.47946  22581512.621    22581511.7234   22581513.6754
        43.6004         40.9004
  -5303878.92843  -4103569.06246  23992568.156    23992568.6254   23992568.0574
        38.9004         36.4004
 -14332205.48346 -11129467.75247  21302021.113    21302021.3984   21302026.4994
        47.5004         44.7004
 -18350865.47346 -14013157.03747  20999044.351    20999044.8844   20999049.4544
        49.1004         46.3004
 -21105935.31146 -15907165.70447  20669624.887    20669624.1294   20669625.4754
        49.5004         46.8004
  -1835905.36343  -1181282.40846  23629112.573    23629111.6684   23629118.2494
        39.2004         36.9004
 16  6 13  0  6  0.0000000  0  9G 6G19G17G22G31G 9G 3G23G 1
  -6521868.96646  -5065140.46847  21736209.735    21736209.8954   21736215.9764
        46.7004         43.7004
 -13635274.72045 -10608350.69147  22310821.969    22310820.8924   22310823.0634
        45.3004         42.1004
  -8212347.29045  -6145653.87646  22629697.029    22629697.1014   22629700.3354
        44.2004         41.2004
  -8135065.57045  -6323606.31246  22596208.924    22596208.3984   22596211.5564
        43.6004         40.7004
  -5248338.90543  -4060291.14846  24003135.637    24003136.8754   24003138.3734
        38.9004         36.7004
 -14406050.16946 -11187009.03347  21287968.351    21287968.5684   21287974.1044
        47.5004         44.5004
 -18299988.75746 -13973512.84047  21008726.184    21008726.4184   21008731.0974
        49.1004         46.3004
 -21126017.92146 -15922814.48347  20665802.789    20665802.7734   20665803.5734
        49.5004         46.8004
  -1729848.03043  -1098640.36146  23649293.826    23649293.9984   23649300.3614
        39.4004         36.9004
 16  6 13  0  6 30.0000000  0  9G 6G19G17G22G31G 9G 3G23G 1
  -6594915.30946  -5122059.70347  21722309.059    21722309.9204   21722315.1484
        46.5004         43.7004
 -13599596.04645 -10580549.14747  22317611.072    22317610.2664   22317612.2894
        45.1004         42.1004
  -8143428.46445  -6091950.92246  22642811.965    22642812.1594   22642815.0874
        44.1004         41.2004
  -8057659.76944  -6263290.14246  22610940.539    22610938.3534   22610940.5504
        43.4004         40.6004
  -5192290.68943  -4016617.20346  24013801.577    24013802.3134   24013803.3144
        38.7004         36.4004
 -14479490.82546 -11244235.48647  21273993.804    21273993.7524   21273998.9884
        47.5004         44.7004
 -18248820.51246 -13933641.49347  21018462.367    21018462.9574   21018467.9644
        49.1004         46.1004
 -21145622.15947 -15938090.49847  20662073.317    20662072.3594   20662072.9014
        49.6004         46.8004
  -1623620.70343  -1015865.82546  23669507.706    23669508.2934   23669515.4344
        39.0004         36.7004
 16  6 13  0  7  0.0000000  0  9G 6G19G17G22G31G 9G 3G23G 1
  -6667599.36046  -5178696.61247  21708477.627    21708477.9654   21708483.9874
        46.5004         43.7004
 -13563332.59445 -10552291.91247  22324511.480    22324510.8304   22324513.4394
        45.1004         42.5004
  -8074092.54145  -6037922.94346  22656005.402    22656005.1994   22656008.9074
        43.9004         40.9004
  -7980082.95644  -6202840.68646  22625700.063    22625700.1784   22625703.6874
        43.4004         40.6004
  -5135736.07343  -3972548.67146  24024565.765    24024565.5954   24024566.2274
        38.9004         36.7004
 -14552526.04746 -11301146.01847  21260095.215    21260095.0944   21260100.4544
        47.5004         44.7004
 -18197361.40946 -13893543.50347  21028255.009    21028255.3224   21028260.4054
        48.9004         46.1004
 -21164748.23547 -15952993.91447  20658433.167    20658432.5724   20658433.4954
        49.6004         46.8004
  -1517225.15443   -932960.24546  23689753.960    23689753.5094   23689760.7304
        39.0004         36.7004
 16  6 13  0  7 30.0000000  0  9G 6G19G17G22G31G 9G 3G23G 1
  -6739918.84446  -5235049.44347  21694715.910    21694716.3474   21694722.4914
        46.5004         43.7004
 -13526485.75245 -10523580.10247  22331523.756    22331523.1274   22331525.1094
        45.5004         42.6004
  -8004342.09945  -5983571.95346  22669278.410    22669278.6424   22669282.1594
        43.7004         40.7004
  -7902335.85844  -6142258.56346  22640496.947    22640495.5004   22640498.1474
        43.2004         40.4004
  -5078677.30743  -3928087.30946  24035423.159    24035422.9404   24035425.1574
        39.0004         36.9004
 -14625154.47346 -11357739.57447  21246273.875    21246274.4304   21246279.6104
        47.7004         44.7004
 -18145612.16646 -13853219.42647  21038102.293    21038102.6754   21038107.8984
        48.9004         46.1004
 -21183396.03947 -15967524.66147  20654884.432    20654883.7824   20654885.0164
        49.6004         46.8004
  -1410663.11343   -849924.89946  23710030.811    23710032.0864   23710039.0134
        39.0004         36.7004
 16  6 13  0  8  0.0000000  0  9G 6G19G17G22G31G 9G 3G23G 1
  -6811871.41146  -5291116.37147  21681023.600    21681024.5434   21681029.8714
        46.5004         43.7004
 -13489057.14045 -10494414.95147  22338645.820    22338645.0564   22338647.4984
        45.5004         42.3004
  -7934179.95444  -5928900.18846  22682630.102    22682629.8854   22682632.7434
        43.4004         40.4004
  -7824419.18744  -6081544.28246  22655322.838    22655323.1424   22655325.1444
        43.2004         40.6004
  -5021116.04743  -3883234.37746  24046376.328    24046376.3074   24046377.5924
        39.2004         36.9004
 -14697374.75846 -11414015.08847  21232531.762    21232531.5274   21232536.8534
        47.7004         44.9004
 -18093573.44946 -13812669.79147  21048005.008    21048005.3504   21048010.7194
        48.8004         45.9004
 -21201565.39347 -15981682.58747  20651426.856    20651426.3024   20651427.2344
        49.6004         46.8004
  -1303936.30943   -766761.17046  23730341.583    23730341.6894   23730348.7654
        39.2004         36.7004
 16  6 13  0  8 30.0000000  0  9G 6G19G17G22G31G 9G 3G23G 1
  -6883454.80946  -5346895.63347  21667401.928    21667402.3534   21667407.8814
        46.7004         44.0004
 -13451048.74845 -10464798.01647  22345878.557    22345877.9894   22345880.6164
        45.1004         42.3004
  -7863608.40644  -5873909.40346  22696058.876    22696059.1904   22696062.8764
        43.2004         40.4004
  -7746333.25444  -6020698.12946  22670183.988    22670183.0134   22670184.7154
        43.2004         40.4004
  -4963054.42043  -3837991.55546  24057423.516    24057424.8144   24057426.1084
        39.0004         36.7004
 -14769185.52046 -11469971.49347  21218866.172    21218866.3514   21218871.4374
        47.7004         44.9004
 -18041245.98446 -13771895.15047  21057962.988    21057963.1884   21057968.0814
        48.8004         45.9004
 -21219256.66047 -15995467.97247  20648060.398    20648059.9544   20648060.6424
        49.6004         46.8004
  -1197046.47143   -683470.42246  23750683.142    23750681.0584   23750689.2014
        39.0004         36.7004
 16  6 13  0  9  0.0000000  0  9G 6G19G17G22G31G 9G 3G23G 1
  -6954666.71246  -5402385.41347  21653850.708    21653850.7324   21653856.8144
        46.9004         43.9004
 -13412462.30445 -10434730.67347  22353221.667    22353220.5004   22353223.2554
        45.1004         42.3004
  -7792630.38244  -5818601.86046  22709566.529    22709567.5554   22709570.0034
        43.4004         40.7004
  -7668079.04444  -5959720.84946  22685074.585    22685073.5414   22685075.5544
        43.2004         40.7004
  -4904493.89743  -3792359.99746  24068567.261    24068567.7854   24068570.6574
        39.0004         36.6004
 -14840585.48146 -11525607.79647  21205279.109    21205279.2824   21205284.6804
        47.7004         44.9004
 -17988630.44746 -13730896.04147  21067974.924    21067975.7914   21067981.2594
        48.8004         46.1004
 -21236470.00147 -16008880.95547  20644784.084    20644784.1204   20644785.1764
        49.6004         46.8004
  -1089995.41643   -600054.04446  23771053.137    23771053.2924   23771060.8354
        38.9004         36.6004
 16  6 13  0  9 30.0000000  0  9G 6G19G17G22G31G 9G 3G23G 1
  -7025504.85546  -5457583.95047  21640370.467    21640371.2134   21640376.6874
        46.7004         43.9004
 -13373299.42645 -10404214.16347  22360674.519    22360673.7234   22360675.3304
        45.1004         42.3004
  -7721248.58345  -5762979.70446  22723149.966    22723149.4464   22723153.0464
        43.6004         40.6004
  -7589657.42944  -5898613.12446  22699999.102    22699997.3164   22699999.7194
        43.4004         40.6004
  -4845437.00143  -3746341.65246  24079806.271    24079805.7554   24079809.1524
        38.9004         36.6004
 -14911573.25046 -11580922.92247  21191770.807    21191771.1094   21191776.2854
        47.9004         45.1004
 -17935727.56146 -13689673.01647  21078042.165    21078042.6324   21078047.6204
        48.8004         45.9004
 -21253205.12146 -16021921.30047  20641599.910    20641599.6784   20641600.5524
        49.5004         46.8004
   -982784.80843   -516513.35246  23791452.914    23791453.9304   23791461.4814
        38.7004         36.4004
 16  6 13  0 10  0.0000000  0  9G 6G19G17G22G31G 9G 3G23G 1
  -7095966.94046  -5512489.47347  21626962.317    21626962.8564   21626968.1884
        46.7004         44.0004
 -13333562.00045 -10373249.94347  22368236.104    22368235.3284   22368236.3764
        45.1004         42.1004
  -7649465.80144  -5707045.09846  22736808.876    22736808.7784   22736813.3574
        43.4004         40.7004
  -7511068.83644  -5837375.25346  22714952.754    22714952.0914   22714954.2744
        43.4004         40.6004
  -4785885.54743  -3699937.93146  24091139.081    24091139.1014   24091142.6274
        38.7004         36.4004
 -14982147.56246 -11635915.87047  21178341.310    21178341.3934   21178346.2344
        48.1004         45.2004
 -17882538.05046 -13648226.65547  21088163.854    21088164.3054   21088169.6794
        48.8004         45.9004
 -21269462.38746 -16034589.28947  20638506.388    20638505.9304   20638506.6774
        49.5004         46.8004
   -875416.43643   -432849.69946  23811884.835    23811885.1724   23811894.5854
        38.5004         36.0004
 16  6 13  0 10 30.0000000  0  9G 6G19G17G22G31G 9G 3G23G 1
  -7166050.64846  -5567100.15247  21613625.938    21613626.1654   21613632.0734
        46.7004         44.0004
 -13293251.84845 -10341839.42247  22375907.538    22375906.0104   22375907.1484
        45.1004         42.3004
  -7577284.38145  -5650799.85746  22750545.063    22750545.1554   22750549.1584
        43.6004         40.9004
  -7432313.92644  -5776007.81146  22729940.391    22729938.6334   22729940.5764
        43.4004         40.6004
  -4725841.13043  -3653150.11746  24102565.680    24102565.3824   24102567.8804
        38.9004         36.7004
 -15052307.07546 -11690585.60647  21164990.118    21164990.4494   21164994.9154
        48.1004         45.1004
 -17829062.53146 -13606557.43847  21098339.998    21098340.3594   21098345.4334
        48.8004         45.9004
 -21285241.72546 -16046884.86247  20635503.310    20635503.3294   20635503.9044
        49.5004         46.8004
   -767891.99443   -349064.45845  23832350.059    23832347.4764   23832354.4374
        38.3004         35.9004
 16  6 13  0 11  0.0000000  0  9G 6G19G17G22G31G 9G 3G23G 1
  -7235753.74546  -5621414.25447  21600362.231    21600362.2924   21600367.0384
        46.9004         44.0004
 -13252370.52945 -10309983.86747  22383687.088    22383685.9744   22383687.5284
        45.3004         42.6004
  -7504707.01945  -5594246.10946  22764356.092    22764356.1914   22764360.1134
        43.7004         41.1004
  -7353393.54444  -5714511.43446  22744957.708    22744956.9394   22744958.7464
        43.4004         40.7004
  -4665306.31843  -3605980.15446  24114082.063    24114082.7484   24114087.8234
        38.7004         36.2004
 -15122050.51146 -11744931.12647  21151718.334    21151718.4494   21151722.8574
        47.9004         45.1004
 -17775301.76046 -13564665.93347  21108569.949    21108570.5764   21108575.8264
        48.8004         45.9004
 -21300543.48647 -16058808.30547  20632591.655    20632591.5524   20632592.3854
        49.6004         46.8004
   -660213.28543   -265158.99245  23852838.837    23852836.8804   23852845.4294
        38.2004         35.9004
 16  6 13  0 11 30.0000000  0  9G 6G19G17G22G31G 9G 3G23G 1
  -7305073.92546  -5675429.97747  21587171.005    21587171.3214   21587176.5024
        46.9004         44.0004
 -13210920.04945 -10277684.80947  22391574.829    22391573.1054   22391575.5004
        45.1004         42.1004
  -7431736.72645  -5537386.16546  22778242.524    22778242.9394   22778245.6094
        43.9004         41.1004
  -7274308.36244  -5652886.65046  22760006.805    22760005.6904   22760007.8804
        43.4004         40.4004
  -4604282.85843  -3558429.45146  24125695.314    24125695.7504   24125699.4414
        38.7004         36.4004
 -15191376.62446 -11798951.45947  21138526.124    21138526.5204   21138530.8314
        47.9004         45.1004
 -17721256.39746 -13522552.67547  21118854.347    21118855.1124   21118860.5664
        48.8004         45.9004
 -21315367.59847 -16070359.55547  20629770.796    20629770.8194   20629771.6314
        49.6004         47.0004
   -552382.09743   -181134.72046  23873353.771    23873356.9494   23873364.6494
        38.3004         36.0004
 16  6 13  0 12  0.0000000  0  9G 6G19G17G22G31G 9G 3G23G 1
  -7374008.90846  -5729145.54747  21574052.991    21574053.5254   21574058.8914
        47.0004         44.2004
 -13168902.19845 -10244943.63846  22399568.343    22399567.8474   22399570.6824
        44.6004         41.4004
  -7358375.95145  -5480221.95246  22792203.108    22792203.3954   22792205.7914
        43.9004         41.4004
  -7195058.84544  -5591133.80146  22775086.984    22775087.1524   22775088.4414
        43.2004         40.6004
  -4542772.70643  -3510499.50846  24137401.318    24137401.1704   24137403.9524
        38.7004         36.4004
 -15260284.13746 -11852645.60147  21125413.482    21125413.4244   21125418.2784
        47.9004         45.1004
 -17666927.17946 -13480218.22947  21129193.380    21129193.6004   21129199.0934
        48.8004         45.9004
 -21329714.49047 -16081538.93747  20627040.430    20627040.3254   20627041.2884
        49.6004         47.0004
   -444400.17143    -96992.98646  23893900.386    23893904.4024   23893913.3274
        38.5004         36.2004
 16  6 13  0 12 30.0000000  0  9G 6G19G17G22G31G 9G 3G23G 1
  -7442556.38846  -5782559.16647  21561008.875    21561009.3494   21561014.8734
        47.2004         44.4004
 -13126318.94645 -10211761.89246  22407672.890    22407671.8064   22407673.3854
        44.2004         41.2004
  -7284627.55045  -5422755.69446  22806237.150    22806236.7614   22806239.7204
        44.1004         41.4004
  -7115646.06144  -5529253.73646  22790199.389    22790198.8584   22790200.7104
        43.4004         40.6004
  -4480778.34643  -3462192.21545  24149198.056    24149198.5994   24149199.9894
        38.3004         35.9004
 -15328771.76146 -11906012.56147  21112380.230    21112380.0654   21112385.9134
        47.9004         45.1004
 -17612314.79746 -13437663.13847  21139585.773    21139586.0914   21139591.6844
        48.8004         45.8004
 -21343584.06347 -16092346.38947  20624401.223    20624400.8464   20624401.7904
        49.6004         47.0004
   -336269.23043    -12735.13546  23914482.259    23914482.7534   23914489.7404
        38.5004         36.4004
 16  6 13  0 13  0.0000000  0  9G 6G19G17G22G31G 9G 3G23G 1
  -7510714.15046  -5835669.11247  21548038.453    21548038.7964   21548044.5184
        47.0004         44.4004
 -13083172.12345 -10178140.99246  22415883.024    22415882.2914   22415884.3644
        44.2004         41.6004
  -7210494.17045  -5364989.43846  22820343.118    22820343.6294   22820346.9294
        43.9004         41.1004
  -7036070.44644  -5467246.80246  22805341.547    22805341.0764   22805343.2894
        43.2004         40.2004
  -4418301.43143  -3413508.91045  24161087.053    24161088.1034   24161090.3594
        38.0004         35.7004
 -15396838.28246 -11959051.40847  21099427.542    21099428.0144   21099433.4714
        47.9004         45.1004
 -17557419.92646 -13394887.92747  21150030.836    21150031.9084   21150037.8124
        48.6004         45.9004
 -21356976.54847 -16102782.07447  20621853.037    20621852.6024   20621853.0914
        49.6004         47.0004
   -227991.08143     71637.38946  23935087.802    23935087.1644   23935095.4584
        38.5004         36.2004
 16  6 13  0 13 30.0000000  0  9G 6G19G17G22G31G 9G 3G23G 1
  -7578479.92646  -5888473.60547  21535143.328    21535144.0544   21535149.3664
        47.0004         44.4004
 -13039463.17045 -10144082.09747  22424201.502    22424200.8094   22424201.5224
        44.6004         42.1004
  -7135978.53545  -5306925.35146  22834523.055    22834523.2784   22834526.4204
        43.7004         40.9004
  -6956332.35544  -5405113.23046  22820515.727    22820515.0664   22820516.2944
        42.9004         40.0004
  -4355344.03843  -3364451.19745  24173065.721    24173067.2724   24173069.8714
        38.0004         35.9004
 -15464482.45146 -12011761.13147  21086555.537    21086555.7564   21086561.0884
        47.9004         45.1004
 -17502243.27846 -13351893.14847  21160531.762    21160531.8544   21160537.4684
        48.6004         45.8004
 -21369892.12747 -16112846.14947  20619395.124    20619394.8844   20619395.2244
        49.6004         46.8004
   -119567.47343    156123.27346  23955718.927    23955718.9464   23955728.7474
        38.3004         36.0004
 16  6 13  0 14  0.0000000  0  9G 6G19G17G22G31G 9G 3G23G 1
  -7645851.41146  -5940970.87047  21522322.713    21522323.3774   21522328.9234
        47.2004         44.4004
 -12995194.34745 -10109586.94146  22432625.363    22432624.0604   22432625.7254
        44.8004         41.8004
  -7061083.40344  -5248565.52646  22848773.968    22848774.9444   22848779.1674
        43.4004         40.6004
  -6876432.65944  -5342853.77246  22835720.216    22835719.1934   22835719.7684
        42.7004         39.9004
  -4291908.14743  -3315020.61946  24185139.766    24185139.0194   24185141.0714
        38.2004         36.0004
 -15531703.05946 -12064140.80347  21073763.965    21073763.9284   21073769.1714
        47.9004         45.1004
 -17446785.53846 -13308679.33547  21171083.969    21171084.8964   21171090.8354
        48.6004         45.8004
 -21382331.24947 -16122538.96447  20617028.070    20617027.8494   20617028.6094
        49.8004         47.0004
    -11000.22243    240721.11645  23976378.486    23976378.8534   23976385.9164
        38.0004         35.7004
 16  6 13  0 14 30.0000000  0  9G 6G19G17G22G31G 9G 3G23G 1
  -7712826.33746  -5993159.11847  21509578.095    21509578.7544   21509584.3914
        47.2004         44.5004
 -12950368.04945 -10074657.35846  22441155.230    22441153.6884   22441156.1824
        44.6004         41.8004
  -6985811.58245  -5189912.18546  22863099.409    22863099.6894   22863103.1894
        43.6004         40.9004
  -6796372.12244  -5280468.95446  22850956.326    22850955.2404   22850955.5164
        42.7004         39.9004
  -4227996.34543  -3265219.20446  24197302.132    24197302.3794   24197303.0724
        38.5004         36.4004
 -15598498.89346 -12116189.48147  21061053.152    21061052.9884   21061058.1854
        47.9004         45.1004
 -17391047.40446 -13265247.02847  21181692.021    21181691.7784   21181697.2254
        48.6004         45.8004
 -21394293.87347 -16131860.47847  20614751.977    20614751.6084   20614752.0814
        49.8004         47.0004
     97708.96243    325429.52345  23997065.156    23997066.1084   23997072.6364
        38.0004         35.7004
 16  6 13  0 15  0.0000000  0  9G 6G19G17G22G31G 9G 3G23G 1
  -7779402.49646  -6045036.63647  21496909.067    21496909.5664   21496915.0994
        47.5004         44.7004
 -12904985.97645 -10039294.71147  22449790.892    22449790.1054   22449792.4944
        44.8004         42.1004
  -6910165.81244  -5130967.45346  22877494.024    22877493.8734   22877496.6424
        43.4004         40.2004
  -6716151.37644  -5217959.32446  22866220.745    22866220.7754   22866221.4784
        42.5004         40.0004
  -4163610.44643  -3215048.37646  24209553.671    24209554.3664   24209557.0934
        38.9004         36.6004
 -15664868.77246 -12167906.25847  21048423.005    21048423.1874   21048428.5164
        47.9004         45.1004
 -17335029.60246 -13221596.80347  21192351.562    21192351.6184   21192357.2944
        48.6004         45.8004
 -21405780.49047 -16140811.08147  20612565.489    20612565.3604   20612566.0094
        49.6004         47.0004
    206558.29543    410247.15345  24017778.073    24017778.9204   24017784.9384
        38.0004         35.7004
 16  6 13  0 15 30.0000000  0  9G 6G19G17G22G31G 9G 3G23G 1
  -7845577.57346  -6096601.63347  21484316.500    21484316.7664   21484321.7424
        47.5004         44.5004
 -12859050.11745 -10003500.55147  22458532.272    22458531.4564   22458533.4744
        44.9004         42.3004
  -6834149.04044  -5071733.62146  22891959.110    22891958.8074   22891963.0164
        43.0004         40.2004
  -6635771.35344  -5155325.56546  22881516.877    22881516.6584   22881517.4104
        42.3004         39.7004
  -4098752.48943  -3164509.74346  24221894.982    24221896.0214   24221898.8324
        38.7004         36.2004
 -15730811.48446 -12219290.17047  21035874.813    21035874.6814   21035879.9614
        48.1004         45.2004
 -17278732.80546 -13177729.18447  21203064.317    21203064.4834   21203069.4934
        48.6004         45.6004
 -21416791.29247 -16149390.92147  20610470.275    20610470.2774   20610470.8254
        49.6004         47.0004
    315545.96143    495172.60845  24038514.680    24038518.5264   24038525.1984
        37.8004         35.7004
 16  6 13  0 16  0.0000000  0  9G 6G19G17G22G31G 9G 3G23G 1
  -7911349.38846  -6147852.38847  21471800.043    21471800.9074   21471806.1204
        47.4004         44.5004
 -12812562.66045  -9967276.58146  22467378.249    22467377.7154   22467380.0524
        44.8004         41.8004
  -6757764.08144  -5012212.88146  22906495.108    22906495.2154   22906499.2314
        43.0004         40.4004
  -6555232.40144  -5092567.97746  22896842.091    22896841.6074   22896843.8644
        42.5004         39.5004
  -4033424.87343  -3113605.12246  24234327.977    24234328.9514   24234329.7874
        38.3004         36.0004
 -15796325.87746 -12270340.33147  21023407.705    21023407.8134   21023412.7894
        48.2004         45.4004
 -17222157.72346 -13133644.72347  21213830.632    21213830.8004   21213835.8504
        48.4004         45.6004
 -21427326.35947 -16157600.05347  20608466.125    20608465.5284   20608465.9324
        49.8004         47.0004
    424670.14543    580204.38845  24059281.992    24059283.7204   24059292.2544
        37.6004         35.5004
 16  6 13  0 16 30.0000000  0  9G 6G19G17G22G31G 9G 3G23G 1
  -7976715.63246  -6198787.12247  21459361.797    21459362.4384   21459367.0954
        47.4004         44.5004
 -12765525.37145  -9930624.15246  22476330.390    22476329.0284   22476331.0974
        44.6004         41.8004
  -6681013.61344  -4952407.31746  22921100.530    22921101.0034   22921103.7284
        42.9004         40.0004
  -6474535.22844  -5029687.08246  22912200.235    22912198.0044   22912198.9784
        42.2004         39.5004
  -3967629.83743  -3062336.25146  24246850.774    24246848.5014   24246850.3874
        38.3004         36.2004
 -15861410.77646 -12321055.82947  21011023.009    21011022.7954   21011027.2774
        48.4004         45.6004
 -17165305.04346 -13089343.94947  21224648.475    21224649.2864   21224654.4564
        48.4004         45.4004
 -21437385.98247 -16165438.70647  20606551.984    20606551.1164   20606551.8844
        49.8004         47.2004
    533929.15243    665341.21545  24080078.073    24080076.0784   24080085.1214
        37.6004         35.5004
 16  6 13  0 17  0.0000000  0  9G 6G19G17G22G31G 9G 3G23G 1
  -8041674.09546  -6249404.10347  21446999.788    21447000.5604   21447005.8264
        47.4004         44.5004
 -12717940.40045  -9893544.98447  22485385.446    22485383.8444   22485385.4594
        44.8004         42.1004
  -6603900.41944  -4892319.15346  22935774.508    22935775.2474   22935776.2524
        42.5004         39.5004
  -6393680.79744  -4966683.67446  22927584.373    22927584.0844   22927584.4864
        42.2004         39.5004
  -3901369.07643  -3010704.53046  24259457.320    24259458.0554   24259459.1254
        38.3004         36.2004
 -15926065.07246 -12371435.78347  20998719.878    20998719.8154   20998724.1144
        48.4004         45.8004
 -17108175.47246 -13044827.42447  21235519.797    21235520.4944   21235525.7314
        48.2004         45.4004
 -21446970.62847 -16172907.25547  20604727.735    20604727.4754   20604727.9434
        49.8004         47.2004
    643321.20143    750581.71345  24100897.364    24100894.1664   24100900.3884
        37.6004         35.5004
 16  6 13  0 17 30.0000000  0  9G 6G19G17G22G31G 9G 3G23G 1
  -8106222.53646  -6299701.59847  21434717.105    21434717.6944   21434723.3934
        47.5004         44.9004
 -12669809.68745  -9856040.54247  22494544.181    22494543.3004   22494544.7184
        44.9004         42.1004
  -6526427.22644  -4831950.43646  22950517.297    22950516.5654   22950520.4304
        42.7004         40.0004
  -6312669.53444  -4903558.02546  22943000.233    22942999.9664   22943000.6604
        42.0004         39.2004
  -3834645.02243  -2958711.72345  24272155.553    24272154.9874   24272156.2744
        38.3004         35.9004
 -15990287.58946 -12421479.28647  20986498.800    20986498.6824   20986503.1274
        48.6004         45.8004
 -17050769.71346 -13000095.67547  21246444.659    21246444.7694   21246449.6344
        48.2004         45.4004
 -21456080.55647 -16180005.88947  20602994.167    20602993.7484   20602994.2834
        49.8004         47.0004
    752844.39543    835924.43145  24121735.878    24121734.8014   24121741.7714
        37.6004         35.3004
 16  6 13  0 18  0.0000000  0  9G 6G19G17G22G31G 9G 3G23G 1
  -8170358.74046  -6349677.85447  21422512.901    21422513.1674   21422518.6524
        47.7004         44.9004
 -12621135.66745  -9818112.73746  22503806.469    22503805.2894   22503807.4184
        44.8004         41.9004
  -6448596.90744  -4771303.44546  22965327.795    22965327.1694   22965331.4394
        42.9004         40.0004
  -6231502.29244  -4840310.85446  22958446.136    22958445.1044   22958446.6974
        41.8004         39.3004
  -3767459.94143  -2906359.69745  24284938.702    24284939.0994   24284943.4664
        38.0004         35.7004
 -16054077.25746 -12471185.49247  20974359.817    20974359.8594   20974364.6954
        48.8004         45.8004
 -16993088.44746 -12955149.25047  21257420.551    21257420.9084   21257426.3504
        48.2004         45.6004
 -21464716.28347 -16186735.01747  20601350.546    20601350.5374   20601350.9344
        49.8004         47.0004
    862497.05143    921368.00545  24142598.079    24142600.0474   24142607.3874
        37.6004         35.3004
 16  6 13  0 18 30.0000000  0  9G 6G19G17G22G31G 9G 3G23G 1
  -8234080.48046  -6399331.15847  21410386.445    21410387.5444   21410392.6354
        47.5004         44.7004
 -12571920.28745  -9779763.10646  22513171.340    22513170.9174   22513172.3194
        44.8004         41.9004
  -6370412.35344  -4710380.46046  22980205.343    22980204.7894   22980210.0554
        42.9004         40.0004
  -6150179.72144  -4776942.64246  22973921.915    22973920.3814   22973922.3244
        42.0004         39.3004
  -3699816.10643  -2853650.21845  24297813.418    24297812.2924   24297814.0664
        38.2004         35.9004
 -16117432.93746 -12520553.54347  20962303.056    20962303.3204   20962308.0524
        48.8004         45.8004
 -16935132.38446 -12909988.69647  21268450.136    21268450.3654   21268455.2774
        48.4004         45.6004
 -21472877.80347 -16193094.63147  20599798.017    20599797.2194   20599797.5864
        49.8004         47.0004
    972277.32342   1006911.03045  24163489.790    24163491.0674   24163498.5124
        37.5004         35.5004
 16  6 13  0 19  0.0000000  0  9G 6G19G17G22G31G 9G 3G23G 1
  -8297385.55246  -6448659.78747  21398339.579    21398340.0894   21398346.3994
        47.5004         44.7004
 -12522165.75145  -9740993.36147  22522640.136    22522638.7124   22522641.0294
        45.1004         42.5004
  -6291876.59644  -4649183.80446  22995150.200    22995150.5964   22995154.7334
        42.9004         40.2004
  -6068702.02644  -4713453.53446  22989425.027    22989425.0524   22989427.6454
        42.0004         39.3004
  -3631715.51343  -2800584.81345  24310770.759    24310770.3184   24310773.2204
        38.2004         35.9004
 -16180353.51846 -12569582.54347  20950330.091    20950330.0114   20950334.5504
        48.8004         45.9004
 -16876902.21846 -12864614.55647  21279530.499    21279530.8204   21279536.4384
        48.4004         45.6004
 -21480565.54047 -16199085.06947  20598334.525    20598334.3104   20598334.6994
        49.8004         47.0004
   1082183.41543   1092552.06545  24184409.423    24184405.2124   24184412.5114
        37.6004         35.5004
 16  6 13  0 19 30.0000000  0  9G 6G19G17G22G31G 9G 3G23G 1
  -8360271.69746  -6497661.97247  21386373.067    21386373.4974   21386378.7384
        47.7004         44.9004
 -12471874.09045  -9701805.09547  22532210.511    22532209.2664   22532211.4994
        45.3004         42.5004
  -6212991.91544  -4587715.24346  23010162.071    23010162.3704   23010166.5484
        42.9004         40.2004
  -5987070.42144  -4649844.53846  23004959.312    23004958.2704   23004961.0904
        41.8004         39.2004
  -3563160.72143  -2747165.47946  24323816.064    24323816.5964   24323819.2634
        38.2004         36.0004
 -16242837.95646 -12618271.68447  20938439.813    20938439.3724   20938444.6864
        48.8004         45.8004
 -16818398.66246 -12819027.38847  21290663.373    21290664.0204   21290668.9904
        48.4004         45.6004
 -21487780.27447 -16204706.92547  20596961.876    20596961.2894   20596962.3514
        49.8004         47.2004
   1192213.64942   1178289.84245  24205349.731    24205344.4054   24205350.3184
        37.5004         35.3004
 16  6 13  0 20  0.0000000  0  9G 6G19G17G22G31G 9G 3G23G 1
  -8422736.72746  -6546336.01947  21374486.405    21374487.0444   21374492.2934
        47.7004         44.9004
 -12421047.59545  -9662200.04047  22541882.541    22541881.3014   22541883.3714
        45.3004         42.3004
  -6133761.67644  -4525977.42646  23025238.912    23025239.1324   23025242.9594
        42.9004         40.2004
  -5905285.20544  -4586115.84346  23020522.974    23020522.6144   23020525.5554
        41.8004         39.3004
  -3494153.81143  -2693393.84446  24336947.841    24336947.5254   24336948.9804
        38.9004         36.7004
 -16304885.16546 -12666620.14447  20926632.051    20926632.3484   20926637.4864
        48.8004         45.8004
 -16759622.41846 -12773227.73247  21301847.996    21301848.2434   21301853.4914
        48.4004         45.4004
 -21494521.83147 -16209960.07647  20595678.422    20595678.4594   20595679.2294
        49.8004         47.0004
   1302366.01242   1264122.78445  24226310.819    24226306.0944   24226311.6594
        37.3004         35.2004
 16  6 13  0 20 30.0000000  0  9G 6G19G17G22G31G 9G 3G23G 1
  -8484778.43646  -6594680.21347  21362680.563    21362681.0654   21362686.3614
        47.9004         45.2004
 -12369688.56845  -9622180.04247  22551655.065    22551654.3514   22551656.6054
        45.1004         42.1004
  -6054189.00944  -4463972.77346  23040381.610    23040381.5494   23040384.6584
        42.9004         40.2004
  -5823347.29944  -4522268.16646  23036115.431    23036114.8574   23036117.4964
        41.8004         39.2004
  -3424697.28543  -2639271.86846  24350165.454    24350165.9184   24350166.3964
        38.9004         36.7004
 -16366494.09146 -12714627.08747  20914908.284    20914908.2964   20914913.6274
        48.6004         45.6004
 -16700574.23946 -12727216.18747  21313084.741    21313084.9904   21313090.2724
        48.4004         45.6004
 -21500790.52047 -16214844.75647  20594485.847    20594485.4304   20594486.4354
        49.8004         47.0004
   1412638.80942   1350049.55645  24247291.266    24247292.1414   24247296.6214
        37.1004         35.2004
 16  6 13  0 21  0.0000000  0  9G 6G19G17G22G31G 9G 3G23G 1
  -8546394.60946  -6642692.82047  21350955.135    21350955.5014   21350961.1314
        48.1004         45.2004
 -12317798.89145  -9581746.54046  22561528.980    22561528.0654   22561530.9574
        44.9004         41.9004
  -5974276.49744  -4401703.30646  23055589.190    23055588.1154   23055590.9174
        42.9004         40.2004
  -5741257.36644  -4458302.02446  23051737.303    23051736.7054   23051737.8474
        41.6004         39.0004
  -3354792.96743  -2584800.93846  24363466.415    24363466.4834   24363469.5044
        38.7004         36.2004
 -16427663.67046 -12762291.67647  20903268.249    20903268.2504   20903273.0934
        48.6004         45.8004
 -16641254.70046 -12680993.18347  21324372.606    21324372.8994   21324378.3684
        48.4004         45.4004
 -21506587.14947 -16219361.59847  20593382.553    20593382.4524   20593383.1264
        49.8004         47.0004
   1523030.25242   1436068.82645  24268292.707    24268296.8034   24268304.5864
        37.0004         34.8004
 16  6 13  0 21 30.0000000  0  9G 6G19G17G22G31G 9G 3G23G 1
  -8607583.10846  -6690372.17047  21339310.912    21339311.4244   21339317.2244
        48.1004         45.2004
 -12265381.01045  -9540901.44346  22571503.965    22571502.8034   22571505.0754
        44.6004         41.6004
  -5894026.77744  -4339171.09746  23070859.618    23070860.1374   23070863.3604
        42.7004         39.9004
  -5659015.94144  -4394217.82746  23067388.324    23067386.2734   23067388.6864
        41.6004         39.0004
  -3284443.21643  -2529982.95446  24376853.864    24376853.5574   24376857.2734
        38.7004         36.6004
 -16488392.88546 -12809613.12547  20891711.894    20891712.0864   20891716.7324
        48.8004         45.9004
 -16581664.50746 -12634559.29447  21335712.363    21335713.0184   21335717.8504
        48.2004         45.4004
 -21511912.15547 -16223510.94047  20592369.105    20592368.9924   20592369.8434
        49.8004         47.0004
   1633538.60142   1522179.17045  24289322.840    24289323.2964   24289332.4194
        36.4004         34.6004
 16  6 13  0 22  0.0000000  0  9G 6G19G17G22G31G 9G 3G23G 1
  -8668341.69946  -6737716.52347  21327749.201    21327749.7124   21327755.2854
        48.1004         45.4004
 -12212437.21045  -9499646.53846  22581578.232    22581577.6724   22581580.3604
        44.1004         41.1004
  -5813442.91644  -4276378.50746  23086193.845    23086193.8094   23086197.2464
        42.3004         39.7004
  -5576623.58344  -4330016.03746  23083065.273    23083063.7544   23083066.7264
        41.6004         38.8004
  -3213650.47743  -2474819.76046  24390326.501    24390326.1464   24390327.4164
        38.9004         36.6004
 -16548680.72846 -12856590.63747  20880239.936    20880239.6264   20880244.5554
        48.9004         46.1004
 -16521804.42846 -12587915.09247  21347102.886    21347103.6584   21347108.8844
        48.2004         45.2004
 -21516765.92947 -16227293.09047  20591446.138    20591445.4804   20591446.2514
        49.8004         47.0004
   1744161.98742   1608379.11445  24310376.971    24310375.1644   24310385.0624
        36.3004         34.5004
 16  6 13  0 22 30.0000000  0  9G 6G19G17G22G31G 9G 3G23G 1
  -8728668.22946  -6784724.20147  21316269.679    21316270.3344   21316275.7604
        48.2004         45.6004
 -12158969.63145  -9457983.49146  22591753.729    22591752.5684   22591754.6804
        44.1004         41.2004
  -5732527.75244  -4213327.77046  23101592.873    23101592.8614   23101595.0714
        42.3004         39.7004
  -5494081.09544  -4265697.23846  23098773.206    23098772.3294   23098773.5234
        41.5004         38.8004
  -3142417.16043  -2419313.25745  24403879.780    24403880.5394   24403883.0824
        38.2004         35.7004
 -16608526.17546 -12903223.43547  20868851.249    20868851.3244   20868856.4234
        48.9004         46.1004
 -16461675.13046 -12541061.10447  21358545.420    21358546.1464   21358551.4634
        48.2004         45.4004
 -21521148.56847 -16230708.12347  20590611.858    20590611.7024   20590612.4464
        49.8004         47.0004
   1854898.56742   1694667.26645  24331449.795    24331448.2964   24331455.5604
        36.1004         34.1004
 16  6 13  0 23  0.0000000  0  9G 6G19G17G22G31G 9G 3G23G 1
  -8788560.51046  -6831393.50647  21304872.373    21304873.0414   21304878.7044
        48.2004         45.6004
 -12104980.60745  -9415914.13746  22602026.878    22602025.6804   22602028.9434
        44.1004         41.4004
  -5651284.03744  -4150021.00246  23117051.818    23117051.9474   23117055.0604
        42.0004         39.3004
  -5411389.15944  -4201261.99346  23114509.831    23114508.1384   23114510.4704
        41.6004         39.0004
  -3070745.60443  -2363465.30345  24417518.251    24417518.9414   24417521.9174
        38.2004         35.9004
 -16667928.20446 -12949510.71747  20857547.560    20857547.5894   20857552.2444
        49.1004         46.3004
 -16401277.36646 -12493997.93847  21370038.923    21370039.0724   21370044.6084
        48.2004         45.2004
 -21525060.92747 -16233756.70947  20589867.292    20589866.8304   20589867.8424
        49.8004         47.2004
   1965746.61342   1781042.29545  24352544.490    24352540.9964   24352549.7624
        35.9004         34.0004
 16  6 13  0 23 30.0000000  0  9G 6G19G17G22G31G 9G 3G23G 1
  -8848016.38846  -6877722.75647  21293557.805    21293559.1474   21293564.4674
        48.2004         45.4004
 -12050472.58345  -9373440.37346  22612399.783    22612398.8144   22612400.9864
        44.1004         41.2004
  -5569715.30044  -4086460.97446  23132574.570    23132574.8094   23132577.8744
        42.0004         39.3004
  -5328548.46644  -4136710.84446  23130272.383    23130271.7464   23130273.2284
        41.3004         38.6004
  -2998638.17043  -2307277.68746  24431241.265    24431241.6184   24431243.9754
        38.3004         36.2004
 -16726885.91546 -12995451.76847  20846328.983    20846328.7694   20846333.3694
        49.3004         46.5004
 -16340611.76446 -12446726.05947  21381582.599    21381583.3444   21381589.5774
        48.1004         45.2004
 -21528503.13847 -16236438.93947  20589212.268    20589212.1054   20589213.0484
        49.8004         47.2004
   2076704.24842   1867502.70045  24373659.199    24373656.3794   24373663.1164
        35.7004         34.0004
 16  6 13  0 24  0.0000000  0  9G 6G19G17G22G31G 9G 3G23G 1
  -8907033.69446  -6923710.26647  21282327.234    21282328.1734   21282333.4744
        48.1004         45.1004
 -11995447.73645  -9330563.86746  22622870.832    22622869.9394   22622872.4994
        43.9004         41.1004
  -5487824.03344  -4022649.64446  23148156.262    23148157.3704   23148159.8764
        41.6004         38.6004
  -5245559.62244  -4072044.24446  23146065.629    23146064.5144   23146066.6104
        41.3004         38.6004
  -2926096.87043  -2250752.04846  24445045.523    24445046.1914   24445048.5684
        38.9004         36.7004
 -16785398.27346 -13041045.79547  20835194.570    20835194.0664   20835198.8694
        49.5004         46.6004
 -16279679.06246 -12399246.06347  21393178.382    21393178.2894   21393183.9784
        48.1004         45.1004
 -21531475.94147 -16238755.39347  20588646.189    20588646.0184   20588647.2364
        49.8004         47.0004
   2187769.68242   1954047.14945  24394791.458    24394791.9624   24394799.3004
        35.9004         34.1004
 16  6 13  0 24 30.0000000  0  9G 6G19G17G22G31G 9G 3G23G 1
  -8965610.27346  -6969354.36247  21271181.099    21271181.7094   21271186.9074
        48.1004         45.2004
 -11939908.37645  -9287286.45946  22633439.559    22633438.6744   22633441.1014
        44.1004         41.6004
  -5405613.46444  -3958589.48946  23163800.078    23163800.8814   23163803.4634
        41.1004         38.3004
  -5162423.53044  -4007262.91246  23161887.156    23161885.4114   23161886.7954
        41.3004         38.8004
  -2853124.43043  -2193890.41346  24458933.029    24458934.0734   24458933.5174
        39.0004         36.7004
 -16843464.37946 -13086292.09147  20824143.781    20824143.9474   20824149.3664
        49.5004         46.5004
 -16218479.94546 -12351558.46247  21404823.644    21404823.9154   21404829.5934
        47.9004         45.1004
 -21533979.81447 -16240706.45047  20588169.808    20588169.4824   20588170.6304
        49.8004         47.0004
   2298941.14542   2040674.20145  24415946.494    24415948.2724   24415953.1894
        35.7004         33.8004
 16  6 13  0 25  0.0000000  0  9G 6G19G17G22G31G 9G 3G23G 1
  -9023744.00446  -7014653.36447  21260118.554    21260119.0084   21260124.9124
        48.1004         45.2004
 -11883856.73145  -9243609.85846  22644106.546    22644105.6544   22644107.0624
        44.6004         41.9004
  -5323086.11344  -3894282.51146  23179506.053    23179505.8494   23179510.9704
        41.3004         38.8004
  -5079140.50644  -3942367.07946  23177734.059    23177733.1014   23177735.6344
        41.3004         38.8004
  -2779722.95643  -2136694.43546  24472901.106    24472900.6454   24472900.7434
        39.0004         36.6004
 -16901083.24646 -13131189.89047  20813178.869    20813179.1764   20813184.4934
        49.3004         46.5004
 -16157015.12546 -12303663.82047  21416519.865    21416520.1754   21416526.1404
        47.9004         45.1004
 -21536015.05047 -16242292.33647  20587782.226    20587782.1484   20587783.4494
        49.8004         47.0004
   2410216.74842   2127382.44045  24437123.176    24437123.1364   24437129.1474
        35.7004         34.0004
 16  6 13  0 25 30.0000000  0  9G 6G19G17G22G31G 9G 3G23G 1
  -9081432.75346  -7059605.62847  21249140.667    21249141.1694   21249146.4664
        48.1004         45.2004
 -11827295.80245  -9199536.41546  22654869.343    22654868.1014   22654870.6924
        44.6004         41.8004
  -5240245.16944  -3829731.14446  23195268.298    23195269.6094   23195272.6164
        40.9004         38.3004
  -4995711.18044  -3877357.24346  23193610.185    23193610.1464   23193612.0234
        41.5004         38.8004
  -2705895.00543  -2079166.17946  24486949.036    24486949.5044   24486950.6564
        39.2004         36.9004
 -16958253.96046 -13175738.48547  20802300.349    20802300.2084   20802305.0144
        49.3004         46.3004
 -16095285.30646 -12255562.68847  21428266.439    21428266.9254   21428272.9704
        47.9004         45.1004
 -21537582.40747 -16243513.64447  20587484.636    20587484.0964   20587485.1574
        49.8004         47.2004
   2521594.70942   2214170.39345  24458318.889    24458318.3024   24458326.6574
        35.7004         34.0004
 16  6 13  0 26  0.0000000  0  9G 6G19G17G22G31G 9G 3G23G 1
  -9138674.34446  -7104209.46847  21238248.313    21238248.5894   21238253.8694
        48.1004         45.4004
 -11770227.60145  -9155067.67646  22665729.021    22665727.4724   22665730.2924
        44.4004         41.6004
  -5157093.48644  -3764937.64646  23211092.190    23211093.1874   23211096.2094
        40.8004         38.1004
  -4912136.50044  -3812234.14846  23209512.627    23209512.8394   23209515.3854
        41.3004         38.8004
  -2631642.70143  -2021307.25746  24501078.231    24501078.9734   24501081.1184
        39.2004         36.9004
 -17014975.61546 -13219937.16047  20791506.918    20791506.5384   20791511.3074
        49.3004         46.5004
 -16033291.16546 -12207255.58847  21440064.025    21440064.5214   21440070.0104
        47.7004         44.9004
 -21538682.44447 -16244370.80447  20587275.392    20587274.7154   20587275.8844
        49.8004         47.2004
   2633073.24442   2301036.75145  24479530.491    24479530.2834   24479535.9084
        35.2004         33.6004
 16  6 13  0 26 30.0000000  0  9G 6G19G17G22G31G 9G 3G23G 1
  -9195466.70746  -7148463.24847  21227440.728    21227441.1644   21227446.3754
        48.2004         45.4004
 -11712654.39245  -9110205.45946  22676684.220    22676683.4544   22676685.6464
        44.1004         41.2004
  -5073634.20644  -3699904.45246  23226974.464    23226975.5714   23226978.0754
        40.8004         38.5004
  -4828417.07844  -3746998.26646  23225445.632    23225443.9714   23225447.5844
        41.3004         38.6004
  -2556968.72643  -1963119.72046  24515288.378    24515289.7014   24515291.1064
        39.2004         36.9004
 -17071247.28546 -13263785.19947  20780798.749    20780798.8464   20780803.1734
        49.3004         46.5004
 -15971033.41246 -12158743.07247  21451910.734    21451911.3954   21451916.9824
        47.7004         44.7004
 -21539315.55947 -16244864.12947  20587154.612    20587154.4414   20587155.3954
        49.8004         47.2004
   2744650.58342   2387980.17345  24500762.330    24500763.2734   24500771.9724
        35.0004         33.4004
 16  6 13  0 27  0.0000000  0  9G 6G19G17G22G31G 9G 3G23G 1
  -9251807.69146  -7192365.30547  21216719.306    21216719.9374   21216725.0074
        48.2004         45.4004
 -11654578.82245  -9064951.79146  22687736.141    22687734.7394   22687737.2964
        44.1004         41.2004
  -4989870.18444  -3634633.80446  23242916.072    23242915.4614   23242918.5764
        41.3004         38.8004
  -4744553.45444  -3681650.04146  23241404.717    23241402.1174   23241404.6024
        41.1004         38.5004
  -2481875.38143  -1904605.42046  24529577.669    24529578.5814   24529581.1684
        38.9004         36.4004
 -17127068.11646 -13307281.92947  20770175.719    20770175.6664   20770180.8384
        49.3004         46.3004
 -15908512.74346 -12110025.69247  21463809.577    21463809.6964   21463814.9294
        47.7004         44.9004
 -21539482.35847 -16244994.09347  20587122.952    20587122.6054   20587123.6244
        49.8004         47.2004
   2856324.74742   2474998.98345  24522016.271    24522017.0024   24522021.0524
        35.0004         33.4004
 16  6 13  0 27 30.0000000  0  9G 6G19G17G22G31G 9G 3G23G 1
  -9307695.19246  -7235914.00247  21206084.256    21206085.1054   21206089.7164
        48.2004         45.4004
 -11596003.25745  -9019308.49846  22698882.212    22698881.7004   22698884.3444
        44.1004         41.6004
  -4905804.34044  -3569127.96346  23258911.317    23258911.6264   23258915.7584
        41.3004         38.8004
  -4660546.42244  -3616190.04846  23257389.785    23257388.1264   23257390.4324
        40.9004         38.3004
  -2406365.11143  -1845766.24946  24543948.346    24543948.0894   24543949.4594
        38.7004         36.2004
 -17182437.20946 -13350426.66747  20759638.986    20759639.3774   20759644.3084
        49.3004         46.3004
 -15845729.85646 -12061103.97747  21475755.966    21475756.4544   21475761.7744
        47.7004         44.9004
 -21539183.27947 -16244761.04047  20587179.681    20587179.4064   20587180.3754
        49.8004         47.2004
   2968093.99942   2562091.91245  24543284.199    24543282.9104   24543292.3874
        35.0004         33.4004
 16  6 13  0 28  0.0000000  0  9G 6G19G17G22G31G 9G 3G23G 1
  -9363127.14946  -7279107.72347  21195536.179    21195536.3814   21195541.4114
        48.2004         45.2004
 -11536930.22345  -8973277.56746  22710123.915    22710123.0814   22710125.1434
        44.2004         41.4004
  -4821439.39344  -3503389.06146  23274966.123    23274966.5204   23274969.2584
        41.6004         39.0004
  -4576396.58244  -3550618.79446  23273403.458    23273401.6024   23273405.0744
        40.9004         38.5004
  -2330440.09543  -1786603.88946  24558396.917    24558396.4524   24558396.7484
        38.5004         36.2004
 -17237353.70846 -13393218.71947  20749189.380    20749188.9494   20749193.8234
        49.1004         46.3004
 -15782685.45146 -12011978.49047  21487752.842    21487753.7924   21487758.7654
        47.5004         44.5004
 -21538419.06347 -16244165.53247  20587325.559    20587325.2044   20587325.5814
        50.0004         47.2004
   3079956.40342   2649257.41045  24564569.902    24564569.4294   24564574.4574
        35.2004         33.6004
 16  6 13  0 28 30.0000000  0  9G 6G19G17G22G31G 9G 3G23G 1
  -9418101.43046  -7321944.81847  21185075.041    21185075.6994   21185080.4574
        48.2004         45.4004
 -11477362.05045  -8926860.82646  22721459.073    22721458.4104   22721459.9654
        44.2004         41.4004
  -4736778.68344  -3437419.70746  23291076.162    23291076.2934   23291079.5564
        41.5004         38.8004
  -4492104.38944  -3484936.60346  23289441.869    23289442.2834   23289444.8354
        40.9004         38.3004
  -2254103.17343  -1727120.55046  24572922.892    24572923.0614   24572924.1514
        38.5004         36.6004
 -17291816.78746 -13435657.46647  20738825.295    20738825.2674   20738830.1264
        49.3004         46.5004
 -15719380.24746 -11962649.76347  21499799.492    21499799.7414   21499805.1744
        47.5004         44.5004
 -21537190.06047 -16243207.85447  20587559.318    20587558.9704   20587559.6244
        50.0004         47.3004
   3191910.21842   2736494.10045  24585876.344    24585872.8204   24585877.5814
        35.2004         33.6004
 16  6 13  0 29  0.0000000  0  9G 6G19G17G22G31G 9G 3G23G 1
  -9472615.97946  -7364423.68447  21174701.244    21174701.5384   21174706.8234
        48.4004         45.6004
 -11417301.14145  -8880060.12546  22732888.041    22732887.3594   22732889.8994
        44.1004         41.2004
  -4651825.11344  -3371222.14646  23307243.055    23307243.8074   23307246.8304
        41.6004         39.2004
  -4407670.51644  -3419144.01646  23305511.052    23305509.2004   23305511.8364
        40.8004         38.3004
  -2177356.55843  -1667318.02646  24587526.822    24587526.8764   24587528.9264
        38.5004         36.2004
 -17345825.60046 -13477742.24047  20728548.039    20728547.7464   20728552.8404
        49.5004         46.6004
 -15655814.94746 -11913118.39447  21511894.934    21511895.7454   21511901.1744
        47.4004         44.4004
 -21535497.25947 -16241888.78847  20587881.109    20587881.0584   20587881.7534
        50.0004         47.2004
   3303953.57842   2823800.57445  24607197.516    24607192.8274   24607202.8624
        34.9004         33.6004
 16  6 13  0 29 30.0000000  0  9G 6G19G17G22G31G 9G 3G23G 1
  -9526668.71846  -7406542.70247  21164415.657    21164415.5764   21164420.9694
        48.4004         45.6004
 -11356750.12545  -8832877.51746  22744411.370    22744409.7164   22744411.3184
        44.1004         41.2004
  -4566581.57244  -3304798.62846  23323464.548    23323464.1974   23323467.3344
        41.8004         39.0004
  -4323095.86444  -3353241.72446  23321604.981    23321604.1824   23321606.3614
        40.8004         38.3004
  -2100202.84043  -1607198.21145  24602209.503    24602209.6784   24602207.7094
        37.8004         35.5004
 -17399379.29547 -13519472.37447  20718357.205    20718357.3094   20718362.0014
        49.6004         46.8004
 -15591990.24246 -11863384.87847  21524040.687    21524041.3264   21524046.7814
        47.2004         44.4004
 -21533341.18447 -16240208.72147  20588291.463    20588290.9454   20588291.9894
        50.0004         47.2004
   3416084.72242   2911175.40445  24628533.920    24628534.0944   24628541.4374
        35.2004         33.6004
 16  6 13  0 30  0.0000000  0  9G 6G19G17G22G31G 9G 3G23G 1
  -9580257.59146  -7448300.26147  21154217.608    21154217.9604   21154223.2034
        48.6004         45.6004
 -11295711.73145  -8785315.13546  22756026.311    22756025.0174   22756026.9904
        44.1004         41.2004
  -4481051.50144  -3238151.83846  23339738.388    23339738.8514   23339744.2244
        41.5004         38.6004
  -4238381.07043  -3287230.24846  23337725.306    23337723.8754   23337725.5024
        40.4004         37.6004
  -2022644.43043  -1546763.10645  24616969.188    24616969.0214   24616969.2984
        38.0004         35.9004
 -17452477.11047 -13560847.27547  20708252.558    20708252.7184   20708257.8274
        49.6004         46.8004
 -15527906.81546 -11813449.76247  21536236.425    21536236.7974   21536241.5434
        47.4004         44.7004
 -21530722.16047 -16238167.91447  20588789.264    20588789.2714   20588790.4894
        49.8004         47.2004
   3528301.77342   2998617.24745  24649885.225    24649886.4434   24649895.1344
        35.4004         33.8004
 16  6 13  0 30 30.0000000  0  9G 6G19G17G22G31G 9G 3G23G 1
  -9633380.53346  -7489694.76647  21144108.577    21144109.1794   21144114.0114
        48.4004         45.6004
 -11234188.30545  -8737374.82246  22767733.209    22767732.4174   22767734.7474
        43.7004         40.7004
  -4395237.34544  -3171283.70046  23356069.197    23356069.5154   23356074.5744
        41.5004         38.8004
  -4153526.83443  -3221110.10346  23353872.360    23353871.3964   23353873.3694
        40.4004         37.8004
  -1944683.73743  -1486014.53946  24631802.880    24631803.6334   24631803.2494
        38.3004         36.2004
 -17505118.23047 -13601866.31447  20698235.316    20698235.0674   20698239.9954
        49.6004         46.6004
 -15463565.40146 -11763313.61247  21548479.884    21548480.2104   21548485.4504
        47.4004         44.5004
 -21527641.11747 -16235767.09547  20589376.532    20589376.1624   20589376.6794
        49.8004         47.2004
   3640603.02642   3086124.72045  24671247.819    24671257.7214   24671264.1254
        35.2004         33.6004
 16  6 13  0 31  0.0000000  0  9G 6G19G17G22G31G 9G 3G23G 1
  -9686035.51346  -7530724.62447  21134088.604    21134088.9554   21134094.1524
        48.4004         45.6004
 -11172182.45245  -8689058.57046  22779532.564    22779532.6884   22779534.1054
        43.6004         40.6004
  -4309142.33844  -3104196.70046  23372452.727    23372452.8574   23372456.7474
        41.1004         38.5004
  -4068533.98743  -3154881.95746  23370043.968    23370044.9484   23370047.1204
        40.1004         37.6004
  -1866323.18043  -1424954.39546  24646714.712    24646716.0334   24646715.3944
        38.3004         36.2004
 -17557301.86646 -13642528.87247  20688304.911    20688305.0014   20688309.6474
        49.5004         46.5004
 -15398966.67646 -11712976.97047  21560772.147    21560772.6194   21560778.2314
        47.4004         44.5004
 -21524098.70947 -16233006.76847  20590050.867    20590050.3064   20590050.5574
        50.0004         47.2004
   3752986.52842   3173696.31645  24692634.938    24692643.2174   24692652.4374
        35.6004         33.8004
 16  6 13  0 31 30.0000000  0  9G 6G19G17G22G31G 9G 3G23G 1
  -9738220.47246  -7571388.23647  21124157.887    21124158.9574   21124163.9414
        48.6004         45.9004
 -11109696.23944  -8640368.02246  22791424.225    22791423.1954   22791425.5074
        43.4004         40.9004
  -4222769.58744  -3036893.29746  23388888.723    23388889.6404   23388892.7994
        41.1004         38.5004
  -3983402.62643  -3088545.85146  23386245.682    23386243.8684   23386247.1434
        39.7004         37.4004
  -1787565.26243  -1363584.61446  24661703.229    24661702.1954   24661702.3794
        38.5004         36.4004
 -17609027.29646 -13682834.39047  20678462.246    20678461.9694   20678466.2804
        49.5004         46.5004
 -15334111.35846 -11662440.37647  21573113.972    21573114.7554   21573119.5424
        47.2004         44.4004
 -21520095.59847 -16229887.45647  20590812.268    20590812.2164   20590812.2674
        50.0004         47.2004
   3865450.59342   3261330.66845  24714042.432    24714044.9104   24714052.3794
        35.2004         33.6004
 16  6 13  0 32  0.0000000  0  9G 6G19G17G22G31G 9G 3G23G 1
  -9789933.40746  -7611684.03347  21114317.600    21114317.9284   21114323.2224
        48.6004         45.8004
 -11046733.30945  -8591305.99146  22803406.313    22803404.9554   22803406.1034
        43.7004         41.1004
  -4136122.04244  -2969375.77646  23405377.559    23405378.5564   23405381.1644
        40.8004         38.1004
  -3898133.70143  -3022102.57846  23402470.403    23402470.0864   23402473.7524
        39.7004         37.3004
  -1708412.51743  -1301907.17346  24676764.421    24676764.0014   24676765.6834
        38.7004         36.4004
 -17660293.71146 -13722782.23547  20668706.555    20668706.5954   20668710.8844
        49.5004         46.6004
 -15269000.15246 -11611704.38947  21585503.772    21585504.0154   21585510.0374
        47.0004         44.2004
 -21515632.16547 -16226409.44847  20591661.576    20591661.2094   20591661.6574
        49.8004         47.2004
   3977993.17942   3349026.19945  24735464.172    24735460.5534   24735468.2004
        35.2004         33.8004
 16  6 13  0 32 30.0000000  0  9G 6G19G17G22G31G 9G 3G23G 1
  -9841172.31246  -7651610.45647  21104567.284    21104567.6914   21104572.7414
        48.6004         45.8004
 -10983295.71045  -8541874.10946  22815477.496    22815475.9454   22815478.0564
        43.6004         40.6004
  -4049202.71144  -2901646.48646  23421918.797    23421919.1514   23421921.8994
        40.8004         38.3004
  -3812727.83543  -2955552.59946  23418723.568    23418723.8584   23418726.4094
        39.7004         37.3004
  -1628867.58543  -1239924.18346  24691901.254    24691902.0944   24691901.5234
        38.7004         36.4004
 -17711100.39746 -13762371.84347  20659038.259    20659038.2954   20659042.9074
        49.5004         46.6004
 -15203633.71946 -11560769.53347  21597942.693    21597943.1564   21597948.1894
        46.9004         44.0004
 -21510709.53247 -16222573.62947  20592598.304    20592597.7264   20592598.6464
        49.8004         47.0004
   4090612.47042   3436781.44745  24756893.118    24756892.4694   24756896.8804
        35.0004         33.4004
 16  6 13  0 33  0.0000000  0  9G 6G19G17G22G31G 9G 3G23G 1
  -9891935.13946  -7691165.91447  21094907.481    21094907.8954   21094913.1074
        48.8004         45.9004
 -10919385.96444  -8492074.29546  22827638.590    22827637.8614   22827639.9224
        43.2004         40.4004
  -3962014.50144  -2833707.63746  23438510.169    23438510.4554   23438513.6784
        40.9004         38.5004
  -3727185.80943  -2888896.52146  23435002.559    23435001.7764   23435004.4014
        39.9004         37.4004
  -1548932.83443  -1177637.38746  24707112.236    24707112.5694   24707113.7974
        38.7004         36.6004
 -17761446.63346 -13801602.65647  20649457.300    20649457.3384   20649462.6834
        49.5004         46.6004
 -15138012.79046 -11509636.36247  21610429.986    21610430.9004   21610435.4004
        46.9004         44.0004
 -21505328.36547 -16218380.50647  20593622.146    20593621.7574   20593622.3214
        49.8004         47.0004
   4203306.61142   3524595.00145  24778339.391    24778335.2404   24778341.7194
        34.9004         33.8004
 16  6 13  0 33 30.0000000  0  9G 6G19G17G22G31G 9G 3G23G 1
  -9942219.92146  -7730348.85847  21085338.312    21085338.9634   21085344.1814
        48.8004         45.9004
 -10855006.74444  -8441908.67146  22839890.147    22839889.5084   22839891.5234
        43.4004         40.7004
  -3874560.62644  -2765561.79846  23455151.232    23455151.8514   23455155.3374
        40.8004         37.9004
  -3641508.14143  -2822134.74746  23451306.934    23451306.2034   23451307.4324
        39.7004         37.3004
  -1468610.83443  -1115048.84746  24722396.158    24722396.9584   24722397.4914
        38.7004         36.2004
 -17811331.69346 -13840474.11347  20639964.749    20639964.3004   20639969.9474
        49.5004         46.6004
 -15072138.07346 -11458305.44147  21622965.861    21622966.3134   21622972.0374
        46.9004         44.2004
 -21499488.98247 -16213830.32947  20594733.335    20594733.2964   20594733.6254
        49.6004         47.0004
   4316073.83342   3612465.47545  24799797.714    24799793.1504   24799799.5624
        34.9004         33.6004
 16  6 13  0 34  0.0000000  0  9G 6G19G17G22G31G 9G 3G23G 1
  -9992024.64546  -7769157.74147  21075861.143    21075861.6174   21075866.4794
        48.9004         46.1004
 -10790160.60145  -8391379.22746  22852229.535    22852228.2064   22852231.0414
        43.7004         41.1004
  -3786844.05943  -2697211.28746  23471845.205    23471844.5084   23471846.3054
        40.4004         37.8004
  -3555695.50743  -2755267.78146  23467635.001    23467634.8494   23467636.7834
        39.6004         37.1004
  -1387904.01143  -1052160.40846  24737755.463    24737755.5204   24737757.1004
        38.9004         36.7004
 -17860754.90246 -13878985.69847  20630559.582    20630559.9054   20630564.7724
        49.5004         46.6004
 -15006010.24946 -11406777.29447  21635549.345    21635549.7044   21635555.4784
        47.0004         44.2004
 -21493192.31947 -16208923.82447  20595931.380    20595930.8924   20595931.8214
        49.6004         47.0004
   4428912.28042   3700391.50445  24821269.550    24821267.8744   24821274.3394
        34.7004         33.3004
 16  6 13  0 34 30.0000000  0  9G 6G19G17G22G31G 9G 3G23G 1
 -10041347.37346  -7807591.03947  21066475.157    21066475.9164   21066480.8014
        48.9004         46.1004
 -10724850.41445  -8340488.17546  22864657.788    22864656.2494   22864659.1994
        43.7004         40.9004
  -3698867.58243  -2628658.21146  23488583.288    23488583.8164   23488588.8804
        40.4004         37.9004
  -3469748.51243  -2688296.12446  23483990.993    23483989.8124   23483992.9594
        39.4004         37.1004
  -1306815.18743   -988974.34846  24753185.787    24753185.9504   24753188.0954
        39.0004         36.7004
 -17909715.57146 -13917136.85247  20621242.519    20621242.8044   20621247.4064
        49.5004         46.6004
 -14939630.07646 -11355052.49547  21648181.077    21648181.3594   21648187.3184
        47.0004         44.2004
 -21486439.15847 -16203661.61147  20597216.741    20597216.1894   20597216.7194
        49.6004         47.0004
   4541820.07442   3788371.55545  24842754.896    24842754.3374   24842761.8464
        34.9004         33.4004
 16  6 13  0 35  0.0000000  0  9G 6G19G17G22G31G 9G 3G23G 1
 -10090186.10446  -7845647.20347  21057181.738    21057182.2754   21057187.2574
        48.9004         46.1004
 -10659078.83345  -8289237.60046  22877173.863    22877172.9524   22877175.2804
        43.7004         41.1004
  -3610634.86143  -2559905.48546  23505375.164    23505376.1144   23505378.5914
        40.4004         37.9004
  -3383667.92143  -2621220.41146  23500373.549    23500372.3994   23500372.1644
        39.7004         37.4004
  -1225346.55643   -925492.32846  24768688.511    24768688.4874   24768691.2254
        38.9004         36.6004
 -17958212.99146 -13954927.03347  20612013.658    20612013.9444   20612018.6944
        49.5004         46.6004
 -14872998.17646 -11303131.55447  21660860.755    21660861.2604   21660866.8294
        47.0004         44.2004
 -21479230.24347 -16198044.26647  20598588.875    20598588.1474   20598588.7674
        49.6004         47.0004
   4654795.53642   3876404.27045  24864252.132    24864250.1094   24864258.6464
        35.0004         33.8004
 16  6 13  0 35 30.0000000  0  9G 6G19G17G22G31G 9G 3G23G 1
 -10138538.93846  -7883324.73347  21047980.129    21047980.6554   21047985.9804
        48.9004         46.1004
 -10592848.33545  -8237629.44546  22889776.840    22889776.6064   22889778.4224
        43.9004         41.1004
  -3522148.55543  -2490955.17246  23522213.514    23522213.2124   23522215.5064
        40.1004         37.4004
  -3297454.74743  -2554041.31346  23516776.281    23516776.5784   23516779.1664
        39.4004         36.9004
  -1143500.72443   -861716.34746  24784262.093    24784261.9444   24784265.2644
        38.5004         36.2004
 -18006246.53147 -13992355.75147  20602873.696    20602873.5804   20602878.6104
        49.6004         46.8004
 -14806115.29846 -11251015.04747  21673587.959    21673588.8314   21673594.6934
        47.0004         44.2004
 -21471566.17947 -16192072.26547  20600047.028    20600046.5274   20600047.2924
        49.8004         47.0004
   4767836.70142   3964488.24545  24885765.965    24885765.8424   24885770.4404
        35.0004         33.3004
 16  6 13  0 36  0.0000000  0  9G 6G19G17G22G31G 9G 3G23G 1
 -10186403.86746  -7920622.07547  21038871.558    21038872.1824   21038877.4524
        48.9004         45.9004
 -10526161.79845  -8185665.91946  22902466.023    22902465.4994   22902468.3574
        43.6004         40.6004
  -3433411.54243  -2421809.47046  23539097.643    23539099.4364   23539103.0334
        39.7004         37.3004
  -3211108.99143  -2486758.97146  23533208.369    23533207.5894   23533208.9234
        39.4004         36.9004
  -1061280.45743   -797648.64046  24799909.022    24799909.4914   24799911.1264
        38.5004         36.0004
 -18053815.55747 -14029422.50847  20593821.569    20593821.5924   20593826.4294
        49.8004         46.8004
 -14738982.15946 -11198703.52647  21686363.412    21686364.1324   21686369.3544
        46.9004         44.0004
 -21463447.80947 -16185746.25747  20601591.621    20601591.3784   20601591.9644
        49.8004         47.0004
   4880941.79542   4052622.02745  24907287.747    24907288.0094   24907293.0884
        35.0004         33.4004
 16  6 13  0 36 30.0000000  0  9G 6G19G17G22G31G 9G 3G23G 1
 -10233778.99046  -7957537.75747  21029856.626    21029857.1004   21029862.0554
        48.8004         45.9004
 -10459022.07544  -8133349.24746  22915242.316    22915242.3654   22915245.0814
        43.2004         40.6004
  -3344426.98843  -2352470.90346  23556031.458    23556032.0234   23556037.9034
        40.3004         37.9004
  -3124631.63143  -2419374.04246  23549663.998    23549663.8394   23549665.6714
        39.0004         36.6004
   -978688.18443   -733291.05946  24815626.561    24815627.0924   24815627.7564
        38.5004         36.2004
 -18100919.43647 -14066126.80647  20584857.778    20584857.8564   20584862.6454
        49.8004         47.0004
 -14671599.42846 -11146197.51547  21699186.290    21699186.5314   21699191.5994
        46.7004         43.9004
 -21454876.17847 -16179067.05747  20603222.687    20603222.6564   20603222.9484
        49.8004         47.0004
   4994108.91142   4140804.11245  24928822.790    24928822.2684   24928827.1294
        35.2004         33.8004
 16  6 13  0 37  0.0000000  0  9G 6G19G17G22G31G 9G 3G23G 1
 -10280662.37446  -7994070.26147  21020934.957    21020935.3274   21020940.7034
        48.8004         45.9004
 -10391431.62445  -8080681.38946  22928106.143    22928104.7114   22928106.6394
        43.6004         40.7004
  -3255198.10343  -2282941.92246  23573011.136    23573011.0804   23573016.1764
        39.9004         37.3004
  -3038023.10843  -2351886.91846  23566146.952    23566145.8384   23566147.5664
        39.2004         36.9004
   -895726.52143   -668645.64946  24831412.869    24831411.9254   24831416.1264
        38.3004         36.0004
 -18147557.53247 -14102468.15647  20575983.076    20575982.8584   20575987.6804
        49.8004         46.8004
 -14603967.81346 -11093497.57347  21712055.604    21712056.2164   21712061.3284
        46.7004         43.9004
 -21445851.78947 -16172035.05647  20604940.503    20604940.1294   20604940.1584
        49.8004         47.0004
   5107336.18642   4229033.08745  24950367.093    24950367.5984   24950372.1134
        35.2004         33.8004
 16  6 13  0 37 30.0000000  0  9G 6G19G17G22G31G 9G 3G23G 1
 -10327052.11846  -8030218.10547  21012107.199    21012107.6824   21012113.0794
        48.8004         46.1004
 -10323393.08644  -8027664.37346  22941052.281    22941051.4114   22941053.6034
        43.2004         40.2004
  -3165727.80343  -2213224.86846  23590038.111    23590037.9104   23590040.2874
        39.7004         37.1004
  -2951284.23943  -2284298.22246  23582652.724    23582652.1074   23582653.3374
        39.4004         37.1004
   -812398.06843   -603714.44145  24847267.480    24847269.0744   24847273.0024
        38.0004         35.9004
 -18193729.25947 -14138446.10747  20567196.924    20567197.1374   20567201.7294
        49.8004         47.0004
 -14536088.03346 -11040604.26447  21724973.917    21724973.9904   21724978.4394
        46.7004         43.9004
 -21436375.33547 -16164650.79647  20606743.990    20606743.2624   20606743.5614
        49.8004         47.0004
   5220621.86742   4317307.52645  24971923.963    24971923.9464   24971933.6374
        35.2004         33.8004
 16  6 13  0 38  0.0000000  0  9G 6G19G17G22G31G 9G 3G23G 1
 -10372946.31446  -8065979.81147  21003373.467    21003373.9414   21003379.9784
        48.8004         45.9004
 -10254909.32344  -7974300.39646  22954083.631    22954083.0894   22954085.3194
        42.7004         39.9004
  -3076019.25543  -2143322.12946  23607108.805    23607109.3874   23607112.9144
        39.7004         37.3004
  -2864416.10743  -2216608.80646  23599182.228    23599181.3334   23599184.3444
        39.6004         37.1004
   -728705.31443   -538499.32846  24863194.718    24863194.7784   24863197.5624
        38.0004         36.2004
 -18239434.06547 -14174060.23047  20558499.919    20558499.9334   20558504.5394
        50.0004         47.2004
 -14467960.79246 -10987518.10847  21737937.086    21737937.2564   21737943.3894
        46.7004         43.9004
 -21426447.94747 -16156915.16547  20608632.207    20608631.9944   20608632.7164
        49.8004         47.0004
   5333964.08242   4405626.07145  24993491.317    24993492.6304   24993503.2984
        35.4004         34.0004
 16  6 13  0 38 30.0000000  0  9G 6G19G17G22G31G 9G 3G23G 1
 -10418343.09346  -8101353.92047  20994734.714    20994735.5544   20994740.8864
        48.8004         45.9004
 -10185983.33244  -7920591.83846  22967200.755    22967199.1164   22967202.3204
        42.9004         40.0004
  -2986075.29943  -2073235.97846  23624226.070    23624225.8774   23624228.6724
        40.1004         37.8004
  -2777418.74943  -2148818.68246  23615736.445    23615735.8554   23615738.7784
        39.4004         37.1004
   -644650.85743   -473002.35646  24879190.140    24879191.0314   24879193.5094
        38.3004         36.2004
 -18284671.31047 -14209310.02147  20549891.457    20549891.5764   20549896.0254
        50.0004         47.0004
 -14399586.79546 -10934239.69347  21750948.624    21750948.8434   21750954.3854
        46.7004         43.7004
 -21416070.32047 -16148828.69447  20610607.853    20610607.2404   20610607.9944
        49.8004         47.2004
   5447361.01842   4493987.25945  25015071.611    25015073.1914   25015082.6994
        35.2004         33.4004
 16  6 13  0 39  0.0000000  0  9G 6G19G17G22G31G 9G 3G23G 1
 -10463240.57246  -8136338.96247  20986191.360    20986191.8294   20986197.0874
        48.8004         45.8004
 -10116617.72344  -7866540.73046  22980399.646    22980398.6294   22980401.4634
        42.5004         39.5004
  -2895899.14643  -2002968.84346  23641384.530    23641383.4004   23641388.5294
        40.1004         37.6004
  -2690293.07443  -2080928.59546  23632317.652    23632316.8484   23632318.9574
        39.4004         37.1004
   -560237.23643   -407225.51746  24895254.284    24895253.8264   24895257.2944
        38.5004         36.2004
 -18329440.49747 -14244195.08247  20541371.619    20541371.5294   20541376.6024
        49.8004         47.0004
 -14330966.76846 -10880769.54747  21764006.253    21764006.6564   21764012.4054
        46.5004         43.9004
 -21405243.26447 -16140392.02047  20612668.243    20612667.7464   20612668.1954
        49.8004         47.2004
   5560810.80342   4582389.58845  25036662.311    25036659.8684   25036668.2504
        35.0004         33.4004
 16  6 13  0 39 30.0000000  0  9G 6G19G17G22G31G 9G 3G23G 1
 -10507636.90146  -8170933.50047  20977742.668    20977743.2864   20977748.8994
        48.6004         45.8004
 -10046815.16844  -7812149.13446  22993683.645    22993682.3624   22993684.0974
        42.2004         39.5004
  -2805493.98043  -1932523.30946  23658587.921    23658588.3134   23658591.7394
        40.1004         37.6004
  -2603039.84643  -2012939.06146  23648920.003    23648919.5044   23648922.4834
        39.2004         36.9004
   -475467.27843   -341171.04846  24911385.117    24911385.1364   24911388.1964
        38.9004         36.7004
 -18373741.02347 -14278714.95647  20532941.041    20532941.3364   20532946.4164
        49.8004         47.0004
 -14262101.38046 -10827108.22047  21777110.969    21777111.2724   21777116.5724
        46.5004         43.9004
 -21393967.61947 -16131605.79347  20614813.883    20614813.2284   20614813.8724
        50.0004         47.2004
   5674311.50942   4670831.60345  25058259.629    25058258.8784   25058266.7714
        35.4004         33.8004
 16  6 13  0 40  0.0000000  0  9G 6G19G17G22G31G 9G 3G23G 1
 -10551530.21146  -8205136.06747  20969390.303    20969390.9124   20969396.2334
        48.8004         45.9004
  -9976578.45944  -7757419.24846  23007049.587    23007049.0874   23007049.8874
        42.3004         39.7004
  -2714862.64943  -1861901.53346  23675834.371    23675834.6204   23675839.6074
        40.1004         37.6004
  -2515659.47543  -1944850.50546  23665549.978    23665547.2054   23665549.6354
        39.4004         36.9004
   -390343.50943   -274840.88646  24927584.658    24927584.7774   24927585.2724
        39.0004         36.7004
 -18417572.39947 -14312869.25947  20524601.101    20524600.9024   20524605.9614
        50.0004         47.2004
 -14192991.35546 -10773256.26947  21790262.218    21790263.1154   21790268.0274
        46.5004         43.7004
 -21382244.22847 -16122470.67447  20617044.746    20617043.9434   20617044.6534
        49.8004         47.0004
   5787861.37842   4759311.88545  25079869.505    25079867.6144   25079876.1174
        35.6004         34.0004
 16  6 13  0 40 30.0000000  0  9G 6G19G17G22G31G 9G 3G23G 1
 -10594918.65846  -8238945.24447  20961134.380    20961135.0704   20961139.8674
        48.9004         46.1004
  -9905910.41744  -7702353.27446  23020496.774    23020495.4124   23020497.9504
        42.7004         40.0004
  -2624008.53243  -1791106.17846  23693123.627    23693123.3024   23693129.2324
        40.1004         37.8004
  -2428152.66743  -1876663.40346  23682201.403    23682200.4344   23682202.7794
        39.6004         37.1004
   -304868.38943   -208236.94246  24943849.221    24943849.5514   24943850.9784
        38.5004         36.0004
 -18460934.07547 -14346657.56347  20516349.470    20516349.5544   20516354.2704
        50.0004         47.3004
 -14123637.38346 -10719214.23347  21803459.379    21803460.1514   21803465.0254
        46.5004         43.7004
 -21370073.95847 -16112987.34447  20619360.104    20619359.9294   20619360.3044
        49.8004         47.0004
   5901458.63042   4847829.16845  25101486.996    25101485.2084   25101491.5994
        35.4004         33.8004
 16  6 13  0 41  0.0000000  0  9G 6G19G17G22G31G 9G 3G23G 1
 -10637800.43346  -8272359.59947  20952973.531    20952974.2454   20952979.6474
        48.9004         46.1004
  -9834814.17844  -7646953.60846  23034024.993    23034024.4444   23034026.5884
        42.5004         39.7004
  -2532934.64043  -1720139.53946  23710454.247    23710453.7894   23710458.7134
        40.1004         37.4004
  -2340520.19143  -1808378.38746  23698877.750    23698876.8284   23698877.8774
        39.6004         37.1004
   -219044.58043   -141361.25946  24960181.596    24960181.6724   24960182.8314
        38.3004         36.2004
 -18503825.55947 -14380079.48147  20508187.558    20508187.2284   20508192.3374
        50.2004         47.2004
 -14054040.19245 -10664982.67347  21816703.439    21816703.5874   21816709.8234
        46.3004         43.5004
 -21357457.83947 -16103156.59847  20621760.922    20621760.2894   20621761.2664
        49.6004         46.8004
   6015101.34942   4936381.84445  25123110.317    25123109.6954   25123117.3604
        35.2004         33.6004
 16  6 13  0 41 30.0000000  0  9G 6G19G17G22G31G 9G 3G23G 1
 -10680173.73146  -8305377.73847  20944910.068    20944910.7294   20944916.2114
        48.8004         45.8004
  -9763292.27844  -7591222.25046  23047636.911    23047636.1584   23047637.4894
        42.9004         40.6004
  -2441643.68443  -1649003.79946  23727827.142    23727827.2814   23727830.9104
        40.1004         37.6004
  -2252762.59243  -1739995.86446  23715576.650    23715576.0354   23715577.7654
        39.4004         37.1004
   -132874.74343    -74215.99846  24976578.899    24976578.7984   24976580.5834
        38.3004         36.2004
 -18546246.37547 -14413134.64047  20500114.991    20500114.8864   20500119.8984
        50.2004         47.2004
 -13984200.46845 -10610562.13547  21829992.930    21829993.5304   21829999.6104
        46.2004         43.3004
 -21344396.59347 -16092978.98847  20624245.915    20624246.2134   20624246.7324
        49.6004         46.8004
   6128787.52842   5024968.35545  25144743.292    25144745.3214   25144751.0944
        35.7004         34.0004
 16  6 13  0 42  0.0000000  0  9G 6G19G17G22G31G 9G 3G23G 1
 -10722036.73746  -8337998.25247  20936943.950    20936944.7374   20936949.7514
        48.8004         45.9004
  -9691347.50144  -7535161.40746  23061327.871    23061326.3524   23061328.3754
        43.4004         40.7004
  -2350138.98343  -1577701.49246  23745239.246    23745238.4184   23745243.4684
        40.1004         37.6004
  -2164880.66943  -1671516.43646  23732298.572    23732297.5584   23732302.0104
        39.2004         36.7004
    -46361.60743     -6803.21246  24993042.390    24993043.7614   24993043.6824
        38.5004         36.4004
 -18588196.04147 -14445822.67047  20492131.859    20492131.7934   20492137.0054
        50.0004         47.2004
 -13914118.93945 -10555953.16647  21843330.051    21843330.0664   21843335.5964
        46.2004         43.3004
 -21330891.06447 -16082455.19347  20626816.615    20626816.0014   20626816.8184
        49.6004         46.8004
   6242515.48742   5113587.38145  25166382.951    25166385.5334   25166392.6184
        35.6004         33.8004
 16  6 13  0 42 30.0000000  0  9G 6G19G17G22G31G 9G 3G23G 1
 -10763387.67746  -8370219.75147  20929075.365    20929075.7664   20929080.9414
        48.8004         45.9004
  -9618982.82644  -7478773.35946  23075097.243    23075094.8754   23075098.1814
        43.0004         39.7004
  -2258423.77343  -1506235.10646  23762692.771    23762692.4674   23762697.2904
        40.1004         37.6004
  -2076875.03743  -1602940.63246  23749045.819    23749044.0194   23749048.8814
        39.2004         36.7004
     40492.51343     60875.25946  25009568.570    25009569.4964   25009570.5334
        38.5004         36.4004
 -18629674.08447 -14478143.20147  20484238.576    20484238.5054   20484244.0824
        50.0004         47.0004
 -13843796.31145 -10501156.32747  21856712.087    21856712.5954   21856718.1614
        46.3004         43.7004
 -21316942.19247 -16071585.92847  20629470.934    20629470.5674   20629471.0014
        49.6004         46.8004
   6356283.23842   5202237.36945  25188034.013    25188036.5704   25188043.5424
        35.7004         34.3004
 16  6 13  0 43  0.0000000  0  9G 6G19G17G22G31G 9G 3G23G 1
 -10804224.76846  -8402040.84247  20921304.414    20921304.8024   20921310.0004
        48.9004         46.1004
  -9546201.17444  -7422060.39646  23088947.244    23088946.4074   23088947.7724
        42.3004         39.5004
  -2166501.01043  -1434607.04546  23780185.386    23780185.2344   23780189.4334
        40.3004         37.9004
  -1988746.45643  -1534269.01346  23765816.508    23765816.7184   23765818.6234
        39.4004         37.1004
    127684.84543    128817.30445  25026162.040    25026161.0444   25026163.5694
        38.0004         35.7004
 -18670680.04747 -14510095.88047  20476435.340    20476435.3284   20476440.6594
        49.8004         47.0004
 -13773233.28345 -10446172.16947  21870140.903    21870140.5264   21870145.4054
        46.3004         43.7004
 -21302551.07847 -16060372.07047  20632209.497    20632209.1594   20632209.6494
        49.6004         46.8004
   6470089.18342   5290917.14945  25209690.496    25209694.2044   25209699.1164
        35.6004         33.8004
 16  6 13  0 43 30.0000000  0  9G 6G19G17G22G31G 9G 3G23G 1
 -10844546.25346  -8433460.16447  20913631.327    20913631.6444   20913636.9634
        48.9004         46.1004
  -9473005.16044  -7365024.58146  23102875.848    23102874.8334   23102876.6754
        42.3004         39.5004
  -2074373.68843  -1362819.56346  23797716.972    23797716.9974   23797720.7414
        40.1004         37.6004
  -1900495.37643  -1465501.94646  23782611.683    23782610.3454   23782611.8184
        39.6004         37.4004
    215212.08443    197020.30545  25042818.182    25042817.9464   25042818.3644
        38.0004         35.7004
 -18711213.52447 -14541680.38747  20468722.323    20468722.7024   20468727.2734
        50.0004         47.2004
 -13702430.55845 -10391001.24047  21883613.385    21883613.5794   21883618.7924
        46.3004         43.7004
 -21287718.43947 -16048814.16547  20635032.212    20635031.9834   20635032.0714
        49.6004         47.0004
   6583931.59642   5379625.38745  25231353.450    25231354.1764   25231361.9454
        35.4004         34.0004
 16  6 13  0 44  0.0000000  0  9G 6G19G17G22G31G 9G 3G23G 1
 -10884350.40046  -8464476.36247  20906056.892    20906057.1684   20906062.5854
        48.9004         46.3004
  -9399398.05044  -7307668.40346  23116882.775    23116881.8014   23116884.4794
        42.3004         39.5004
  -1982044.80643  -1290875.00646  23815284.379    23815285.4434   23815289.3364
        40.1004         37.4004
  -1812122.56543  -1396640.04046  23799429.540    23799426.9424   23799429.4834
        39.7004         37.3004
    303072.62843    265483.03245  25059537.399    25059537.2994   25059539.3194
        38.0004         35.9004
 -18751274.07147 -14572896.38147  20461099.709    20461099.5814   20461103.8644
        50.0004         47.2004
 -13631388.87445 -10335644.09647  21897132.027    21897131.8214   21897137.5784
        46.3004         43.3004
 -21272445.40547 -16036913.09047  20637938.676    20637937.9554   20637938.6294
        49.6004         46.8004
   6697808.45342   5468360.54445  25253026.258    25253026.5234   25253033.5504
        35.7004         34.3004
 16  6 13  0 44 30.0000000  0  9G 6G19G17G22G31G 9G 3G23G 1
 -10923635.45446  -8495088.07347  20898581.156    20898581.7444   20898587.2914
        49.1004         46.3004
  -9325382.75744  -7249994.15446  23130966.680    23130967.0484   23130968.9444
        42.3004         39.7004
  -1889517.82843  -1218776.12046  23832894.609    23832894.1894   23832897.7304
        40.3004         37.8004
  -1723628.67543  -1327683.73346  23816266.678    23816266.1814   23816269.6354
        39.6004         37.1004
    391263.43443    334203.11545  25076319.634    25076319.3804   25076320.0544
        37.8004         35.5004
 -18790861.27647 -14603743.53447  20453566.650    20453566.3394   20453571.2054
        50.2004         47.3004
 -13560108.92345 -10280101.30047  21910696.048    21910695.9844   21910701.4594
        46.3004         43.3004
 -21256732.56547 -16024669.31647  20640928.059    20640927.6674   20640928.4274
        49.6004         46.6004
   6811717.81542   5557120.98745  25274703.010    25274702.5624   25274710.5664
        35.9004         34.1004
 16  6 13  0 45  0.0000000  0  9G 6G19G17G22G31G 9G 3G23G 1
 -10962399.74046  -8525293.99747  20891204.031    20891204.8484   20891209.9484
        48.9004         45.9004
  -9250961.80744  -7192003.82246  23145130.524    23145129.8984   23145130.6774
        42.9004         40.2004
  -1796795.69243  -1146525.14946  23850537.521    23850537.3404   23850541.8194
        40.3004         37.6004
  -1635014.48043  -1258633.74346  23833130.896    23833130.0054   23833132.5384
        39.6004         37.1004
    479781.64742    403178.30845  25093163.829    25093164.2144   25093165.1984
        37.5004         35.5004
 -18829974.76947 -14634221.56547  20446122.843    20446122.9584   20446127.9644
        50.2004         47.3004
 -13488591.38445 -10224373.36847  21924305.833    21924306.0304   21924310.4644
        46.2004         43.3004
 -21240581.22746 -16012083.85247  20644002.027    20644001.2224   20644001.6494
        49.5004         46.6004
   6925657.93642   5645905.45145  25296383.778    25296386.0754   25296391.0354
        35.7004         34.0004
 16  6 13  0 45 30.0000000  0  9G 6G19G17G22G31G 9G 3G23G 1
 -11000641.52046  -8555092.76747  20883926.801    20883927.3934   20883933.3154
        48.9004         46.1004
  -9176138.22144  -7133699.76146  23159368.470    23159367.7684   23159369.6414
        42.9004         40.2004
  -1703881.24443  -1074124.32346  23868217.978    23868217.8474   23868222.4614
        40.1004         37.4004
  -1546280.41743  -1189490.31646  23850014.823    23850014.0424   23850015.8774
        39.0004         36.6004
    568624.92842    472406.78745  25110070.074    25110068.6744   25110070.8914
        37.1004         34.8004
 -18868614.16747 -14664330.17147  20438770.198    20438770.1594   20438775.1104
        50.3004         47.3004
 -13416837.00945 -10168460.89247  21937959.118    21937959.8144   21937965.0054
        46.0004         43.2004
 -21223992.00746 -15999157.19047  20647158.496    20647158.3374   20647158.4754
        49.5004         46.6004
   7039627.03042   5734712.52445  25318070.573    25318071.2344   25318078.5374
        35.6004         34.0004
 16  6 13  0 46  0.0000000  0  9G 6G19G17G22G31G 9G 3G23G 1
 -11038359.09046  -8584483.07147  20876749.745    20876749.9364   20876755.6184
        48.9004         46.1004
  -9100914.96944  -7075084.22746  23173682.506    23173681.9614   23173683.7044
        42.5004         39.7004
  -1610777.76943  -1001576.21646  23885935.808    23885935.6364   23885939.8554
        39.9004         37.6004
  -1457427.49143  -1120254.27046  23866924.142    23866921.9224   23866925.9154
        39.0004         36.7004
    657790.31942    541886.28345  25127038.563    25127038.3234   25127039.0994
        37.1004         35.2004
 -18906779.11747 -14694069.06647  20431507.597    20431507.4414   20431512.6514
        50.2004         47.3004
 -13344846.49545 -10112364.40747  21951658.942    21951659.2034   21951664.6284
        46.0004         43.2004
 -21206966.15646 -15985890.29147  20650399.025    20650398.6074   20650398.0874
        49.5004         46.6004
   7153623.06442   5823540.55345  25339763.851    25339763.5114   25339773.9554
        35.6004         34.0004
 16  6 13  0 46 30.0000000  0  9G 6G19G17G22G31G 9G 3G23G 1
 -11075550.82846  -8613463.63547  20869672.390    20869672.8134   20869678.4214
        48.9004         46.1004
  -9025295.08844  -7016159.64546  23188073.520    23188072.9164   23188074.0854
        42.3004         39.9004
  -1517488.25643   -928883.12346  23903686.843    23903687.4434   23903694.1204
        40.3004         37.8004
  -1368455.98743  -1050925.81146  23883854.356    23883852.6904   23883856.0514
        38.9004         36.4004
    747275.42042    611614.90145  25144065.898    25144066.3444   25144069.4264
        37.3004         35.5004
 -18944469.25047 -14723437.98947  20424335.355    20424335.3734   20424340.2504
        50.2004         47.3004
 -13272620.56445 -10056084.47247  21965402.456    21965403.3244   21965409.1594
        46.0004         43.2004
 -21189504.63946 -15972283.90347  20653721.588    20653721.1954   20653721.3524
        49.5004         46.6004
   7267644.42942   5912388.25745  25361462.209    25361463.1904   25361469.5374
        35.0004         33.4004
 16  6 13  0 47  0.0000000  0  8G 6G19G17G22G31G 9G 3G23
 -11112215.03846  -8642033.13647  20862695.577    20862695.8824   20862701.4064
        49.1004         46.3004
  -8949281.39744  -6956928.24546  23202538.492    23202537.6174   23202537.5214
        42.2004         39.3004
  -1424015.98743   -856047.64146  23921473.727    23921474.1804   23921478.8524
        39.9004         37.4004
  -1279366.56843   -981505.47746  23900807.844    23900805.1514   23900808.2884
        38.9004         36.6004
    837077.35442    681590.37745  25161154.452    25161154.7084   25161157.6114
        37.1004         35.0004
 -18981684.22847 -14752436.65247  20417253.488    20417253.5614   20417258.6544
        50.2004         47.3004
 -13200159.87745  -9999621.63047  21979191.565    21979192.4684   21979197.1954
        46.0004         43.2004
 -21171608.39946 -15958338.77547  20657127.237    20657126.7384   20657127.2514
        49.5004         46.6004
 16  6 13  0 47 30.0000000  0  8G 6G19G17G22G31G 9G 3G23
 -11148350.09946  -8670190.30447  20855819.032    20855819.7444   20855824.8534
        49.1004         46.5004
  -8872876.90044  -6897392.27946  23217075.665    23217074.3994   23217077.5804
        41.5004         38.5004
  -1330363.55343   -783071.76746  23939297.014    23939297.0194   23939301.1864
        39.7004         37.3004
  -1190160.00943   -911993.89346  23917784.666    23917782.5514   23917782.8614
        38.9004         36.4004
    927193.44042    751810.63245  25178302.686    25178303.3754   25178306.0364
        37.0004         34.8004
 -19018423.73847 -14781064.82247  20410262.174    20410262.2464   20410267.2934
        50.2004         47.3004
 -13127465.21845  -9942976.46447  21993026.104    21993025.9104   21993031.4094
        46.0004         43.3004
 -21153278.42646 -15944055.67547  20660614.770    20660614.5654   20660615.1144
        49.5004         46.6004
 16  6 13  0 48  0.0000000  0  8G 6G19G17G22G31G 9G 3G23
 -11183954.35246  -8697933.86147  20849043.676    20849044.3344   20849049.7794
        49.3004         46.5004
  -8796084.58444  -6837554.11246  23231690.175    23231688.8614   23231691.1334
        41.6004         39.2004
  -1236534.87743   -709958.58746  23957152.691    23957152.2974   23957156.1174
        39.9004         37.6004
  -1100837.10643   -842391.62146  23934779.347    23934780.0364   23934782.3234
        38.7004         36.4004
   1017621.31742    822273.86645  25195511.741    25195511.5424   25195511.4394
        37.0004         34.8004
 -19054687.46947 -14809322.24947  20403361.092    20403361.3464   20403366.3274
        50.2004         47.3004
 -13054537.27145  -9886149.52447  22006902.905    22006903.2204   22006909.7254
        46.2004         43.3004
 -21134515.75546 -15929435.40547  20664185.395    20664185.1474   20664185.4474
        49.5004         46.6004
 16  6 13  0 48 30.0000000  0  8G 6G19G17G22G31G 9G 3G23
 -11219026.19246  -8725262.55947  20842369.655    20842370.4084   20842376.1614
        49.5004         46.6004
  -8718907.21444  -6777415.93746  23246376.012    23246375.4444   23246377.3644
        41.6004         38.8004
  -1142532.43443   -636709.95446  23975038.827    23975038.6364   23975044.1334
        39.4004         36.7004
  -1011398.51743   -772699.22346  23951798.702    23951798.2614   23951800.9274
        38.3004         36.4004
   1108358.05042    892977.78045  25212778.363    25212777.2564   25212779.4584
        36.6004         34.3004
 -19090475.13747 -14837208.72447  20396550.840    20396551.2034   20396556.2414
        50.2004         47.3004
 -12981376.72745  -9829141.33547  22020825.328    22020826.2434   22020830.7124
        46.2004         43.3004
 -21115321.39246 -15914478.75647  20667837.712    20667837.4034   20667838.0044
        49.5004         46.6004
 16  6 13  0 49  0.0000000  0  8G 6G19G17G22G31G 9G 3G23
 -11253564.03846  -8752175.15547  20835797.678    20835798.0694   20835803.4284
        49.5004         46.5004
  -8641348.09744  -6716980.25746  23261133.727    23261132.9194   23261136.5364
        41.1004         38.1004
  -1048359.55943   -563328.52346  23992960.918    23992960.4164   23992964.6734
        39.4004         37.1004
   -921845.03443   -702917.32246  23968842.637    23968842.1094   23968843.3704
        38.7004         36.4004
   1199400.99542    963920.26945  25230102.392    25230103.2804   25230104.7064
        36.3004         34.5004
 -19125786.45447 -14864724.02247  20389831.658    20389831.6294   20389836.4774
        50.2004         47.3004
 -12907984.30645  -9771952.46847  22034791.910    22034792.1824   22034797.3244
        46.2004         43.2004
 -21095696.25846 -15899186.44047  20671572.326    20671571.7914   20671572.4474
        49.3004         46.5004
 16  6 13  0 49 30.0000000  0  8G 6G19G17G22G31G 9G 3G23
 -11287566.29846  -8778670.41347  20829327.394    20829327.8234   20829332.9644
        49.3004         46.5004
  -8563409.88844  -6656249.21446  23275966.511    23275965.2954   23275967.3954
        41.3004         38.8004
   -954019.12343   -489816.55246  24010914.010    24010914.1354   24010916.4134
        39.6004         37.1004
   -832177.19943   -633046.29746  23985906.728    23985905.9514   23985905.5564
        38.9004         36.7004
   1290747.51642   1035099.27845  25247484.211    25247482.6624   25247487.8274
        35.7004         33.6004
 -19160621.15947 -14891867.93547  20383203.341    20383202.9604   20383207.7694
        50.2004         47.3004
 -12834360.75745  -9714583.48947  22048802.457    22048802.4544   22048807.3624
        46.2004         43.3004
 -21075641.53646 -15883559.38247  20675388.425    20675387.9884   20675388.8164
        49.3004         46.5004
 16  6 13  0 50  0.0000000  0  8G 6G19G17G22G31G 9G 3G23
 -11321031.38746  -8804747.10047  20822959.246    20822959.7774   20822964.9234
        49.5004         46.6004
  -8485095.71444  -6595225.21846  23290869.852    23290869.0104   23290870.5474
        41.6004         39.2004
   -859514.44043   -416176.60946  24028897.620    24028897.4944   24028899.4704
        39.2004         36.7004
   -742395.43343   -563086.51246  24002991.266    24002990.3014   24002991.1304
        39.0004         36.6004
   1382394.88842   1106512.77745  25264923.286    25264925.4714   25264929.7134
        35.6004         34.0004
 -19194979.06047 -14918640.31147  20376664.574    20376664.9734   20376669.7424
        50.2004         47.3004
 -12760506.76345  -9657034.93947  22062854.974    22062855.1834   22062861.4284
        46.0004         43.0004
 -21055158.27946 -15867598.39447  20679286.684    20679286.2674   20679286.8514
        49.3004         46.6004
 16  6 13  0 50 30.0000000  0  8G 6G19G17G22G31G 9G 3G23
 -11353957.76146  -8830404.00747  20816693.437    20816694.0514   20816698.7294
        49.5004         46.5004
  -8406408.81044  -6533910.76246  23305842.513    23305841.5654   23305844.0124
        41.5004         38.5004
   -764848.50043   -342410.94146  24046910.024    24046910.3714   24046916.8174
        39.2004         36.9004
   -652500.52143   -493038.56246  24020097.084    24020096.4854   24020097.4414
        38.7004         36.4004
   1474340.46042   1178158.62445  25282421.795    25282423.0154   25282427.9064
        35.0004         33.4004
 -19228859.74847 -14945040.82847  20370217.526    20370217.8294   20370222.4764
        50.2004         47.3004
 -12686423.03945  -9599307.39247  22076952.961    22076953.4314   22076958.7754
        45.8004         43.0004
 -21034247.37546 -15851304.18347  20683265.963    20683265.8174   20683266.1404
        49.5004         46.8004
 16  6 13  0 51  0.0000000  0  7G 6G19G17G22G 9G 3G23
 -11386343.90146  -8855639.94947  20810530.236    20810531.0014   20810536.2624
        49.5004         46.5004
  -8327351.99644  -6472308.07846  23320887.829    23320886.3424   23320887.6874
        41.3004         38.6004
   -670024.39343   -268522.08046  24064956.539    24064956.7924   24064959.7444
        39.4004         37.1004
   -562493.37643   -422903.12546  24037224.319    24037222.8154   24037224.5634
        38.5004         36.2004
 -19262263.10847 -14971069.40447  20363861.263    20363861.1024   20363865.8994
        50.2004         47.5004
 -12612110.32345  -9541401.39047  22091093.344    22091093.6824   22091100.0204
        45.6004         42.6004
 -21012910.08146 -15834677.71047  20687326.410    20687326.0024   20687326.5244
        49.5004         46.8004
 16  6 13  0 51 30.0000000  0  7G 6G19G17G22G 9G 3G23
 -11418188.27546  -8880453.73747  20804470.608    20804471.2294   20804476.1534
        49.3004         46.5004
  -8247928.11044  -6410419.35746  23336001.173    23335999.8794   23336001.4604
        41.3004         38.8004
   -575045.30543   -194512.43846  24083028.597    24083028.9634   24083033.7894
        39.2004         36.7004
   -472374.26443   -352680.48746  24054373.670    24054372.1394   24054374.9304
        38.5004         36.2004
 -19295188.93447 -14996725.87347  20357595.465    20357595.5674   20357600.5294
        50.3004         47.5004
 -12537569.28145  -9483317.49247  22105278.918    22105279.5024   22105285.1724
        45.5004         42.6004
 -20991147.31346 -15817719.71147  20691467.478    20691467.1644   20691467.8864
        49.5004         46.6004
 16  6 13  0 52  0.0000000  0  7G 6G19G17G22G 9G 3G23
 -11449489.35746  -8904844.18547  20798514.125    20798514.7314   20798519.8874
        49.3004         46.5004
  -8168140.19944  -6348246.97146  23351184.186    23351182.7004   23351184.6244
        41.3004         38.6004
   -479914.10143   -120384.27746  24101131.316    24101131.8954   24101136.1904
        39.2004         36.7004
   -382144.10843   -282371.30546  24071542.780    24071542.2764   24071545.2654
        38.3004         36.0004
 -19327636.99947 -15022010.06347  20351420.458    20351420.6674   20351425.6974
        50.3004         47.5004
 -12462800.72245  -9425056.29647  22119506.959    22119507.4154   22119512.9384
        45.5004         42.8004
 -20968960.15046 -15800431.01347  20695689.645    20695689.2194   20695689.7934
        49.5004         46.6004
 16  6 13  0 52 30.0000000  0  7G 6G19G17G22G 9G 3G23
 -11480245.68046  -8928810.14747  20792661.551    20792661.8554   20792667.1484
        49.3004         46.5004
  -8087991.56844  -6285793.53246  23366436.724    23366435.4404   23366437.0934
        41.5004         39.0004
   -384633.52643    -46139.67946  24119263.558    24119264.2874   24119267.3154
        39.2004         36.9004
   -291803.50543   -211976.07745  24088735.260    24088734.6764   24088736.7804
        38.2004         35.9004
 -19359607.15347 -15046921.86147  20345337.092    20345337.0384   20345342.0564
        50.3004         47.5004
 -12387805.27345  -9366618.30747  22133779.300    22133779.3254   22133784.3664
        45.6004         42.8004
 -20946349.73146 -15782812.50547  20699992.282    20699991.7754   20699992.3704
        49.5004         46.6004
 16  6 13  0 53  0.0000000  0  7G 6G19G17G22G 9G 3G23
 -11510455.76646  -8952350.46947  20786912.908    20786913.2484   20786918.7574
        49.5004         46.6004
  -8007485.23244  -6223061.34946  23381754.782    23381754.2204   23381757.1734
        41.6004         39.0004
   -289207.68143     28218.06946  24137422.427    24137423.3484   24137426.9094
        39.2004         36.7004
   -201353.26543   -141495.39345  24105945.942    24105946.1274   24105950.3414
        38.0004         35.7004
 -19391099.19647 -15071461.09647  20339344.395    20339344.5454   20339349.4384
        50.3004         47.5004
 -12312583.71245  -9308004.12447  22148091.592    22148092.8234   22148098.7854
        45.5004         42.6004
 -20923317.35346 -15764865.19347  20704375.011    20704374.8254   20704375.6914
        49.5004         46.6004
 16  6 13  0 53 30.0000000  0  7G 6G19G17G22G 9G 3G23
 -11540118.17246  -8975464.02247  20781267.815    20781268.4624   20781273.8504
        49.5004         46.6004
  -7926624.07244  -6160052.68646  23397142.283    23397142.1414   23397144.2894
        41.8004         39.3004
   -193639.12943    102687.04546  24155608.011    24155608.7354   24155611.5504
        38.9004         36.4004
   -110794.04343    -70929.80845  24123181.091    24123179.3224   24123183.1484
        38.0004         35.7004
 -19422113.02047 -15095627.69947  20333442.695    20333442.6334   20333447.6504
        50.3004         47.5004
 -12237136.72945  -9249214.28147  22162449.547    22162449.5294   22162455.2694
        45.5004         42.6004
 -20899863.79146 -15746589.68547  20708838.234    20708837.7144   20708838.6354
        49.5004         46.6004
 16  6 13  0 54  0.0000000  0  7G 6G19G17G22G 9G 3G23
 -11569231.44346  -8998149.68547  20775728.176    20775728.5594   20775733.9114
        49.5004         46.6004
  -7845411.13444  -6096769.90646  23412596.876    23412594.9274   23412598.7804
        41.8004         39.2004
    -97930.91343    177264.85445  24173819.789    24173820.5674   24173823.6664
        38.3004         35.9004
    -20126.38643      -279.72845  24140430.647    24140431.1974   24140436.5604
        38.0004         35.7004
 -19452648.44547 -15119421.52947  20327631.674    20327631.9804   20327636.7864
        50.3004         47.5004
 -12161465.05345  -9190249.37147  22176850.321    22176849.8374   22176855.2834
        45.5004         42.6004
 -20875990.34946 -15727987.00047  20713380.430    20713380.3904   20713381.3194
        49.3004         46.3004
 16  6 13  0 54 30.0000000  0  8G 6G19G17G22G 2G 9G 3G23
 -11597794.16146  -9020406.34647  20770292.781    20770293.4564   20770298.3934
        49.5004         46.6004
  -7763849.71744  -6033215.56046  23428117.353    23428116.4404   23428119.4484
        41.6004         39.0004
     -2086.16943    251949.04246  24192061.829    24192061.6284   24192065.3524
        38.5004         36.4004
     70649.03143     70454.36945  24157706.327    24157705.7964   24157710.5864
        37.8004         35.5004
   -272851.44853   -197290.65656  23929860.903    23929859.2264   23929861.6584
        39.2004         37.4004
 -19482705.35147 -15142842.47947  20321912.085    20321912.0004   20321917.1264
        50.3004         47.5004
 -12085569.40545  -9131109.91647  22191291.068    22191291.6494   22191297.3214
        45.3004         42.5004
 -20851698.00846 -15709057.90347  20718003.678    20718003.2394   20718003.8294
        49.3004         46.5004
 16  6 13  0 55  0.0000000  0  8G 6G19G17G22G 2G 9G 3G23
 -11625804.93546  -9042232.92347  20764962.573    20764963.1454   20764968.1814
        49.5004         46.5004
  -7681942.62444  -5969391.90346  23443704.271    23443703.0384   23443706.0524
        41.6004         39.0004
     93891.98143    326737.21846  24210321.882    24210323.7184   24210329.2664
        38.5004         36.4004
    161531.47042    141271.80745  24175001.635    24175000.1684   24175004.6844
        37.3004         35.3004
   -367146.35743   -270767.19546  23911917.434    23911916.5424   23911919.5044
        39.9004         37.8004
 -19512283.60947 -15165890.46347  20316283.983    20316283.9154   20316288.7184
        50.5004         47.7004
 -12009450.48845  -9071796.49147  22205777.664    22205777.9034   22205782.4624
        45.3004         42.5004
 -20826987.83046 -15689803.21847  20722706.258    20722705.9014   20722705.9234
        49.3004         46.5004
 16  6 13  0 55 30.0000000  0  8G 6G19G17G22G 2G 9G 3G23
 -11653262.35846  -9063628.30647  20759737.334    20759737.9484   20759743.5334
        49.5004         46.6004
  -7599692.59444  -5905301.01246  23459354.601    23459353.2724   23459357.5654
        41.5004         38.8004
    190000.52043    401626.95646  24228613.146    24228612.8954   24228618.6814
        38.3004         36.2004
    252520.29842    212172.14745  24192315.318    24192314.1744   24192318.7864
        37.0004         35.0004
   -461247.97353   -344093.08556  23894011.040    23894010.3834   23894011.8504
        40.4004         37.9004
 -19541383.13547 -15188565.40847  20310746.776    20310746.5284   20310750.9614
        50.5004         47.7004
 -11933109.05145  -9012309.67147  22220304.830    22220304.1984   22220310.1864
        45.1004         42.3004
 -20801861.14646 -15670223.98547  20727487.546    20727486.9374   20727487.6864
        49.1004         46.3004
 16  6 13  0 56  0.0000000  0  8G 6G19G17G22G 2G 9G 3G23
 -11680165.08546  -9084591.46447  20754617.902    20754618.3894   20754623.6784
        49.5004         46.6004
  -7517103.61644  -5840945.96946  23475071.322    23475070.6344   23475073.8264
        41.3004         38.6004
    286236.49343    476615.98146  24246926.567    24246925.5394   24246930.3814
        38.5004         36.2004
    343614.72942    283154.80345  24209650.229    24209648.1414   24209653.2164
        36.6004         34.5004
   -555154.44243   -417266.92446  23876140.447    23876139.8904   23876142.3524
        40.4004         37.9004
 -19570003.84147 -15210867.25247  20305300.349    20305300.1244   20305304.5714
        50.5004         47.7004
 -11856545.81645  -8952650.03047  22234873.203    22234873.8534   22234879.2814
        45.1004         42.3004
 -20776318.98746 -15650321.00147  20732347.543    20732347.3034   20732347.9794
        49.1004         46.3004
 16  6 13  0 56 30.0000000  0  8G 6G19G17G22G 2G 9G 3G23
 -11706511.75146  -9105121.32847  20749604.085    20749604.7054   20749609.9704
        49.5004         46.6004
  -7434178.37144  -5776328.91946  23490853.242    23490851.7294   23490853.5274
        41.3004         38.6004
    382596.86643    551701.96146  24265263.521    24265263.4504   24265266.8584
        38.5004         36.2004
    434814.21942    354219.28745  24227007.767    24227005.2604   24227006.9664
        36.4004         34.5004
   -648863.13543   -490286.67646  23858308.647    23858307.8794   23858309.5214
        40.4004         37.9004
 -19598145.65847 -15232795.93147  20299944.618    20299944.7844   20299949.3624
        50.5004         47.5004
 -11779761.47245  -8892818.09947  22249484.900    22249485.9424   22249490.5774
        44.9004         42.1004
 -20750362.56546 -15630095.21747  20737286.803    20737286.7454   20737287.4194
        48.9004         46.3004
 16  6 13  0 57  0.0000000  0  8G 6G19G17G22G 2G 9G 3G23
 -11732301.02146  -9125216.86547  20744696.989    20744697.4394   20744702.2174
        49.5004         46.6004
  -7350919.70444  -5711452.07846  23506695.061    23506694.0094   23506696.8214
        40.8004         37.8004
    479078.36743    626882.32846  24283624.105    24283622.0854   24283627.0434
        38.3004         36.0004
    526117.96942    425365.08845  24244377.031    24244379.1984   24244380.4404
        36.1004         34.1004
   -742371.87043   -563150.60546  23840512.864    23840512.3144   23840515.4944
        40.3004         37.6004
 -19625808.48847 -15254351.37447  20294680.695    20294680.5394   20294685.2774
        50.3004         47.5004
 -11702756.78845  -8832814.47047  22264138.500    22264138.9254   22264144.2914
        44.9004         42.1004
 -20723993.00046 -15609547.49947  20742304.839    20742304.6344   20742305.6524
        49.1004         46.3004
 16  6 13  0 57 30.0000000  0  8G 6G19G17G22G 2G 9G 3G23
 -11757531.58646  -9144877.04147  20739895.566    20739896.3964   20739901.1344
        49.5004         46.6004
  -7267330.84643  -5646317.91146  23522601.215    23522600.1104   23522602.7514
        40.1004         37.4004
    575677.95343    702154.68445  24302004.803    24302005.9294   24302009.4404
        38.2004         35.9004
    617525.50242    496591.73345  24261776.287    24261773.4104   24261778.2594
        36.3004         34.5004
   -835678.09843   -635856.74346  23822757.783    23822757.6444   23822759.9194
        40.1004         37.6004
 -19652992.35947 -15275533.59747  20289507.943    20289507.6734   20289512.3174
        50.3004         47.7004
 -11625532.45945  -8772639.68446  22278834.077    22278834.5544   22278839.8704
        44.8004         41.9004
 -20697211.60846 -15588678.88147  20747401.963    20747401.2054   20747402.0344
        49.1004         46.3004
 16  6 13  0 58  0.0000000  0  8G 6G19G17G22G 2G 9G 3G23
 -11782202.16246  -9164100.86347  20735200.943    20735201.5114   20735207.1834
        49.5004         46.6004
  -7183414.85843  -5580928.86746  23538572.242    23538570.9044   23538573.1834
        40.3004         38.1004
    672392.62143    777516.74446  24320411.333    24320410.8714   24320413.0294
        38.2004         36.0004
    709035.96242    567898.57045  24279191.367    24279187.4024   24279190.3574
        36.6004         34.6004
   -928779.59943   -708403.33446  23805042.381    23805041.5134   23805043.6684
        40.3004         37.9004
 -19679697.18047 -15296342.53747  20284426.270    20284426.0634   20284430.7254
        50.5004         47.7004
 -11548089.21345  -8712294.31746  22293569.557    22293570.8944   22293576.9404
        44.6004         41.9004
 -20670018.95946 -15567489.79947  20752576.322    20752575.7724   20752576.6504
        49.1004         46.3004
 16  6 13  0 58 30.0000000  0  8G 6G19G17G22G 2G 9G 3G23
 -11806311.44347  -9182887.31647  20730613.514    20730613.7284   20730619.4564
        49.6004         46.8004
  -7099175.03344  -5515287.47846  23554601.852    23554600.7794   23554603.5164
        40.6004         38.1004
    769218.91543    852965.80245  24338833.677    24338833.7504   24338839.6904
        38.0004         35.7004
    800648.66642    639285.03345  24296616.263    24296619.1634   24296622.5294
        36.8004         34.6004
  -1021674.63543   -780789.06146  23787364.900    23787364.3094   23787366.0424
        40.4004         37.9004
 -19705922.95847 -15316778.20347  20279435.670    20279435.7624   20279440.2814
        50.5004         47.8004
 -11470427.78945  -8651778.93346  22308348.886    22308349.1014   22308355.1044
        44.6004         41.9004
 -20642416.88046 -15545981.68247  20757828.404    20757828.0374   20757828.8894
        49.1004         46.3004
 16  6 13  0 59  0.0000000  0  9G 6G19G17G22G 7G 2G 9G 3G23
 -11829858.18746  -9201235.42647  20726132.614    20726132.9494   20726138.3624
        49.5004         46.6004
  -7014614.34343  -5449396.03146  23570691.140    23570691.0304   23570693.7124
        40.3004         37.6004
    866154.18843    928499.76745  24357280.328    24357281.8624   24357285.5944
        37.8004         35.7004
    892362.82242    710750.60445  24314072.535    24314073.3664   24314075.1994
        37.1004         35.2004
                    -56307.55753  24170789.425
                        23.4004
  -1114360.38243   -853011.70546  23769727.828    23769727.1634   23769727.9594
        40.4004         37.8004
 -19731669.69247 -15336840.57847  20274536.037    20274535.7864   20274540.8404
        50.7004         47.8004
 -11392548.88345  -8591094.09346  22323168.737    22323169.4814   22323175.4354
        44.6004         41.9004
 -20614406.25346 -15524155.21647  20763158.720    20763158.5244   20763159.1144
        49.1004         46.3004
 16  6 13  0 59 30.0000000  0  9G 6G19G17G22G 7G 2G 9G 3G23
 -11852841.13746  -9219144.22447  20721758.841    20721759.6384   20721764.6324
        49.5004         46.5004
  -6929735.72443  -5383256.88246  23586844.110    23586842.9824   23586845.1504
        40.1004         37.8004
    963195.32243   1004116.21145  24375748.609    24375748.8434   24375751.9864
        37.8004         35.7004
    984178.03842    782294.92945  24331551.578    24331546.5534   24331549.8904
        37.5004         35.5004
                   -139660.84445  24150434.098
                        35.5004
  -1206834.73143   -925069.61346  23752130.152    23752129.5264   23752131.1634
        40.4004         37.8004
 -19756937.36247 -15356529.65747  20269727.266    20269727.4074   20269732.5004
        50.7004         47.8004
 -11314453.28745  -8530240.40347  22338030.733    22338031.1784   22338036.6754
        44.8004         42.1004
 -20585988.40146 -15502011.42947  20768566.676    20768566.0334   20768566.7464
        49.1004         46.3004
 16  6 13  1  0  0.0000000  0  9G 6G19G17G22G 7G 2G 9G 3G23
 -11875259.08446  -9236612.76047  20717493.630    20717493.7994   20717498.7574
        49.5004         46.6004
  -6844542.53343  -5316872.61246  23603056.459    23603055.6234   23603057.8874
        40.4004         37.9004
   1060339.36543   1079812.84845  24394235.436    24394235.9584   24394236.1434
        37.8004         35.7004
   1076093.45143    853917.28845  24349040.662    24349038.7864   24349039.6964
        37.8004         35.9004
                   -222964.40246  24130089.093                    24130092.3894
                        36.2004
  -1299095.17443   -996960.83846  23734574.019    23734572.8504   23734573.1514
        40.1004         37.6004
 -19781726.01647 -15375845.48047  20265010.218    20265010.3324   20265015.3994
        50.7004         47.8004
 -11236141.69245  -8469218.41047  22352933.183    22352933.2954   22352938.7734
        44.9004         42.1004
 -20557164.57946 -15479551.30447  20774051.521    20774051.1234   20774051.8794
        49.1004         46.3004
 16  6 13  1  0 30.0000000  0  9G 6G19G17G22G 7G 2G 9G 3G23
 -11897110.83246  -9253640.09847  20713334.709    20713335.6104   20713340.5864
        49.5004         46.8004
  -6759037.87744  -5250245.63646  23619328.042    23619326.7284   23619328.8554
        40.6004         38.1004
   1157583.08342   1155587.18245  24412737.355    24412739.1944   24412742.5234
        37.5004         35.2004
   1168108.48643    925617.30645  24366548.832    24366548.2674   24366549.1704
        37.8004         35.5004
   -406893.40543   -306216.20346  24109755.053    24109755.5664   24109760.5234
        37.8004         36.4004
  -1391139.50043  -1068683.66546  23717058.313    23717057.6844   23717058.8754
        40.1004         37.6004
 -19806035.68247 -15394788.06447  20260384.251    20260384.6824   20260389.5134
        50.7004         47.8004
 -11157614.82145  -8408028.66146  22367875.163    22367874.9804   22367882.1474
        44.9004         41.9004
 -20527935.65346 -15456775.51747  20779613.718    20779613.4574   20779614.1154
        49.1004         46.3004
 16  6 13  1  1  0.0000000  0  9G 6G19G17G22G 7G 2G 9G 3G23
 -11918395.17847  -9270225.30447  20709285.086    20709285.3424   20709290.1274
        49.6004         46.8004
  -6673224.74144  -5183378.27246  23635656.139    23635655.8524   23635657.7294
        40.6004         38.1004
   1254923.48342   1231436.81745  24431262.492    24431264.5174   24431264.4474
        37.0004         34.8004
   1260222.43843    997394.44545  24384076.585    24384076.4364   24384077.7634
        37.6004         35.5004
   -513664.46543   -389414.35046  24089439.479    24089438.3664   24089443.0224
        38.5004         36.4004
  -1482965.46443  -1140236.35246  23699584.649    23699583.8594   23699585.6364
        40.1004         37.6004
 -19829866.43047 -15413357.46347  20255849.908    20255849.6094   20255854.3724
        50.7004         47.8004
 -11078873.39045  -8346671.71547  22382859.357    22382859.3184   22382866.0334
        44.9004         42.1004
 -20498303.12846 -15433685.23847  20785252.876    20785252.2174   20785252.8084
        48.9004         46.1004
 16  6 13  1  1 30.0000000  0  9G 6G19G17G22G 7G 2G 9G 3G23
 -11939110.94247  -9286367.46747  20705342.856    20705343.4004   20705348.0314
        49.6004         46.8004
  -6587106.56044  -5116273.25046  23652044.559    23652043.1494   23652046.0164
        40.6004         37.9004
   1352357.38342   1307359.28045  24449801.660    24449802.1114   24449805.0384
        36.8004         34.6004
   1352434.53242   1069248.00445  24401623.822    24401623.1164   24401624.8324
        37.3004         35.0004
   -620364.04553   -472556.80556  24069136.443    24069134.6174   24069137.8104
        38.9004         36.7004
  -1574570.81143  -1211617.12246  23682152.693    23682151.6884   23682153.0804
        40.3004         37.9004
 -19853218.29147 -15431553.71047  20251406.072    20251405.9684   20251410.6964
        50.7004         47.8004
 -10999918.16045  -8285148.16447  22397884.163    22397884.8334   22397891.1874
        44.8004         42.1004
 -20468268.14046 -15410281.35247  20790968.281    20790967.9174   20790968.2244
        48.9004         46.3004
 16  6 13  1  2  0.0000000  0  9G 6G19G17G22G 7G 2G 9G 3G23
 -11959256.99447  -9302065.69147  20701509.290    20701509.5494   20701514.3224
        49.6004         46.8004
  -6500686.50243  -5048932.96146  23668489.440    23668488.1234   23668491.8354
        40.4004         37.9004
   1449881.94142   1383352.39545  24468357.772    24468359.6204   24468364.9844
        36.1004         34.5004
   1444744.10942   1141177.54345  24419189.095    24419189.1724   24419189.8424
        37.1004         34.8004
   -726988.84743   -555640.96446  24048846.767    24048845.7684   24048847.9424
        39.0004         36.6004
  -1665953.02743  -1282824.00246  23664762.840    23664762.4864   23664763.9494
        40.3004         37.8004
 -19876091.35647 -15449376.87247  20247053.218    20247053.3374   20247058.1914
        50.7004         47.8004
 -10920749.86945  -8223458.60347  22412949.730    22412950.0214   22412955.7204
        44.8004         42.1004
 -20437831.99446 -15386564.86847  20796759.757    20796759.6604   20796759.9904
        48.9004         46.1004
 16  6 13  1  2 30.0000000  0  9G 6G19G17G22G 7G 2G 9G 3G23
 -11978832.20147  -9317319.10447  20697784.139    20697784.6604   20697789.2084
        49.6004         46.8004
  -6413967.13944  -4981359.46646  23684991.390    23684990.9244   23684993.7714
        40.8004         38.3004
   1547493.82742   1459413.58445  24486935.911    24486934.8274   24486940.0444
        36.1004         34.3004
   1537150.43642   1213182.47645  24436773.408    24436772.6634   24436774.2484
        37.0004         35.2004
   -833537.35443   -638665.71346  24028570.163    24028569.4624   24028572.7274
        39.0004         36.7004
  -1757109.67243  -1353855.13846  23647417.057    23647416.4774   23647417.2364
        40.3004         37.8004
 -19898485.71047 -15466827.01047  20242791.796    20242791.8114   20242796.7734
        50.7004         47.8004
 -10841369.22345  -8161603.57847  22428055.108    22428055.8534   22428061.3814
        44.8004         42.1004
 -20406995.90446 -15362536.74147  20802627.865    20802627.3814   20802627.9684
        48.9004         46.3004
 16  6 13  1  3  0.0000000  0  9G 6G19G17G22G 7G 2G 9G 3G23
 -11997835.45847  -9332126.83547  20694167.528    20694168.1354   20694173.2524
        49.6004         46.8004
  -6326952.01744  -4913555.48646  23701550.241    23701549.4234   23701552.0654
        40.9004         38.5004
   1645190.32742   1535540.70745  24505526.581    24505526.7994   24505528.6364
        36.1004         34.1004
   1629652.89342   1285262.34645  24454375.649    24454376.9674   24454377.3104
        37.3004         35.3004
   -940006.09343   -721628.29746  24008310.006    24008309.6174   24008311.2644
        39.0004         36.6004
  -1848038.75243  -1424708.97546  23630113.884    23630112.5634   23630113.2104
        40.3004         37.8004
 -19920401.45247 -15483904.20047  20238621.153    20238621.2454   20238626.2674
        50.7004         47.8004
 -10761776.99345  -8099583.68346  22443201.690    22443202.5044   22443207.4454
        44.8004         41.9004
 -20375760.85946 -15338197.74047  20808571.693    20808571.2354   20808571.6594
        48.9004         46.1004
 16  6 13  1  3 30.0000000  0  9G 6G19G17G22G 7G 2G 9G 3G23
 -12016265.68847  -9346488.05047  20690660.260    20690660.6274   20690666.3024
        49.6004         46.6004
  -6239644.25044  -4845523.50246  23718164.409    23718163.8434   23718166.7094
        40.9004         38.3004
   1742968.06242   1611731.12545  24524133.266    24524133.3794   24524136.6624
        36.1004         34.5004
   1722250.72042   1357416.51345  24471999.455    24471996.6094   24471998.1244
        37.5004         35.3004
  -1046392.58543   -804526.80746  23988065.056    23988065.3144   23988067.7944
        39.0004         36.7004
  -1938737.92443  -1495383.62746  23612854.562    23612853.2494   23612853.1784
        40.3004         37.6004
 -19941838.75147 -15500608.58047  20234542.050    20234541.8734   20234546.9894
        50.7004         47.8004
 -10681973.88245  -8037399.45446  22458387.539    22458387.8414   22458392.9704
        44.6004         41.6004
 -20344127.90446 -15313548.67647  20814591.355    20814591.0514   20814591.4874
        48.9004         46.3004
 16  6 13  1  4  0.0000000  0  9G 6G19G17G22G 7G 2G 9G 3G23
 -12034121.77346  -9360401.89447  20687262.477    20687263.0414   20687268.1434
        49.5004         46.6004
  -6152046.98444  -4777265.92746  23734833.718    23734832.5694   23734835.5124
        40.9004         38.5004
   1840824.19942   1687982.65645  24542755.343    24542756.1664   24542757.9864
        36.4004         34.6004
   1814943.29242   1429644.47845  24489637.525    24489636.8684   24489636.4854
        37.3004         35.0004
  -1152694.33343   -887359.27346  23967834.500    23967835.6004   23967839.3154
        39.0004         36.7004
  -2029204.57443  -1565877.10446  23595637.884    23595637.1454   23595638.4984
        40.1004         37.6004
 -19962797.67047 -15516940.20047  20230553.206    20230553.4234   20230558.3504
        50.7004         47.8004
 -10601960.64145  -7975051.49846  22473613.051    22473613.9994   22473619.0164
        44.6004         41.8004
 -20312098.94846 -15288591.05047  20820686.119    20820685.5804   20820686.0684
        48.9004         46.1004
 16  6 13  1  4 30.0000000  0  9G 6G19G17G22G 7G 2G 9G 3G23
 -12051402.69746  -9373867.56347  20683974.209    20683974.6804   20683979.7444
        49.5004         46.6004
  -6064163.45944  -4708785.25946  23751557.807    23751557.0874   23751560.0964
        40.9004         38.5004
   1938755.67842   1764292.85845  24561390.292    24561391.9544   24561394.4644
        36.4004         34.6004
   1907729.79642   1501945.71145  24507291.951    24507292.3534   24507292.6194
        37.1004         35.2004
  -1258908.96143   -970123.86146  23947622.667    23947623.2414   23947626.7924
        38.9004         36.4004
  -2119436.43243  -1636187.65346  23578467.808    23578466.9744   23578468.5314
        40.3004         37.9004
 -19983278.36047 -15532899.16347  20226656.137    20226656.0404   20226660.8874
        50.7004         47.8004
 -10521738.00045  -7912540.36146  22488879.147    22488879.3694   22488884.6514
        44.4004         41.8004
 -20279674.93946 -15263325.58847  20826856.231    20826855.7514   20826856.5164
        48.9004         46.1004
 16  6 13  1  5  0.0000000  0  9G 6G19G17G22G 7G 2G 9G 3G23
 -12068107.43646  -9386884.25547  20680794.792    20680795.3984   20680801.1114
        49.5004         46.6004
  -5975996.66644  -4640083.90646  23768335.630    23768334.8404   23768335.7694
        40.9004         38.3004
   2036759.46242   1840659.42545  24580039.578    24580038.5064   24580042.0504
        37.0004         35.0004
   2000609.81442   1574319.79645  24524967.470    24524967.1774   24524967.4094
        37.1004         35.0004
  -1365033.33643  -1052818.10446  23927428.647    23927428.4784   23927430.9594
        38.5004         36.2004
  -2209431.39143  -1706313.59446  23561342.502    23561342.3274   23561343.6024
        40.4004         37.9004
 -20003280.99347 -15548485.61147  20222849.652    20222849.5384   20222854.4874
        50.7004         47.8004
 -10441306.69445  -7849866.62546  22504184.303    22504185.0394   22504190.3434
        44.4004         41.6004
 -20246857.15646 -15237753.28747  20833101.186    20833100.8284   20833101.4324
        48.9004         46.3004
 16  6 13  1  5 30.0000000  0  9G 6G19G17G22G 7G 2G 9G 3G23
 -12084234.98846  -9399451.17647  20677726.225    20677726.3114   20677732.4074
        49.5004         46.6004
  -5887549.67544  -4571164.18246  23785166.173    23785165.7114   23785168.2654
        40.8004         38.3004
   2134832.63142   1917080.05945  24598699.734    24598701.8814   24598706.9364
        36.6004         34.5004
   2093582.41542   1646765.99645  24542657.706    24542657.0084   24542657.6484
        36.4004         34.5004
  -1471065.50043  -1135440.51346  23907251.892    23907251.0334   23907253.7254
        38.5004         36.2004
  -2299186.95144  -1776252.97146  23544262.721    23544262.5464   23544263.0584
        40.6004         38.3004
 -20022805.74047 -15563699.68947  20219134.211    20219134.5544   20219139.0694
        50.7004         47.8004
 -10360667.49045  -7787030.88946  22519529.226    22519529.7704   22519535.4144
        44.4004         41.6004
 -20213646.90946 -15211875.17247  20839420.725    20839420.8504   20839421.2184
        48.9004         46.1004
 16  6 13  1  6  0.0000000  0  9G 6G19G17G22G 7G 2G 9G 3G23
 -12099784.32846  -9411567.55147  20674767.020    20674767.5814   20674773.1874
        49.5004         46.6004
  -5798826.13844  -4502028.98446  23802050.648    23802049.8164   23802050.6304
        40.8004         38.3004
   2232972.05942   1993552.33445  24617378.725    24617377.8914   24617380.7474
        36.4004         34.5004
   2186647.05542   1719283.90645  24560370.361    24560368.6254   24560370.2864
        36.4004         34.5004
  -1577002.28343  -1217988.58546  23887092.645    23887091.3044   23887094.2434
        38.5004         36.2004
  -2388700.62544  -1846003.84046  23527229.216    23527228.6244   23527229.6454
        40.9004         38.5004
 -20041852.77047 -15578541.52047  20215509.477    20215509.5564   20215514.6804
        50.7004         47.8004
 -10279821.08445  -7724033.70646  22534914.162    22534915.1454   22534920.6814
        44.6004         41.8004
 -20180045.26046 -15185692.06947  20845815.106    20845814.7944   20845815.3714
        48.9004         46.1004
 16  6 13  1  6 30.0000000  0  9G 6G19G17G22G 7G 2G 9G 3G23
 -12114754.50646  -9423232.63447  20671918.624    20671919.0954   20671924.6514
        49.5004         46.6004
  -5709828.85544  -4432680.48446  23818986.884    23818985.0224   23818987.3314
        40.9004         38.5004
   2331174.61442   2070073.78645  24636065.175    24636065.5364   24636068.3924
        36.1004         34.1004
   2279802.97142   1791872.95445  24578095.868    24578094.8214   24578096.8004
        36.4004         34.6004
  -1682841.08343  -1300460.32746  23866952.811    23866951.0304   23866954.2064
        38.5004         36.4004
  -2477970.21544  -1915564.51846  23510242.333    23510240.8824   23510241.5764
        41.1004         38.5004
 -20060422.27247 -15593011.24748  20211975.954    20211976.1984   20211980.9834
        50.7004         48.0004
 -10198768.24745  -7660875.66846  22550338.787    22550338.8574   22550344.8444
        44.6004         41.9004
 -20146053.62046 -15159205.07047  20852283.472    20852282.9714   20852283.9244
        48.9004         45.9004
 16  6 13  1  7  0.0000000  0  9G 6G19G17G22G 7G 2G 9G 3G23
 -12129144.57746  -9434445.68647  20669179.890    20669180.3724   20669186.1934
        49.3004         46.5004
  -5620561.08144  -4363121.17846  23835971.622    23835970.7584   23835974.1864
        40.9004         38.3004
   2429437.25942   2146642.00445  24654761.444    24654762.6324   24654768.7914
        36.1004         34.3004
   2373049.40042   1864532.51845  24595838.754    24595839.9194   24595839.6994
        36.8004         35.0004
  -1788579.13843  -1382853.56646  23846830.327    23846829.7684   23846833.4654
        38.7004         36.6004
  -2566993.23344  -1984933.06746  23493300.258    23493299.3704   23493300.7254
        40.9004         38.3004
 -20078514.49647 -15607109.07347  20208533.361    20208533.3104   20208538.0424
        50.7004         47.8004
 -10117509.72545  -7597557.35546  22565801.989    22565802.4234   22565807.3954
        44.6004         41.6004
 -20111673.22946 -15132415.15247  20858825.681    20858825.1614   20858825.8844
        48.8004         45.9004
 16  6 13  1  7 30.0000000  0  9G 6G19G17G22G 7G 2G 9G 3G23
 -12142953.59746  -9445205.97047  20666552.253    20666552.7164   20666558.5754
        49.5004         46.6004
  -5531025.98744  -4293353.59246  23853010.734    23853009.7674   23853011.8834
        40.9004         38.5004
   2527757.16242   2223254.85745  24673474.268    24673474.0934   24673476.8974
        35.9004         34.0004
   2466385.70542   1937262.10245  24613604.088    24613599.5914   24613600.8234
        36.8004         34.8004
  -1894214.42443  -1465166.75146  23826729.837    23826728.6324   23826730.6944
        39.2004         36.9004
  -2655767.71844  -2054107.96946  23476407.723    23476406.8504   23476407.9674
        40.8004         38.3004
 -20096129.65747 -15620835.16347  20205181.339    20205181.3784   20205185.9744
        50.7004         47.8004
 -10036046.21645  -7534079.31446  22581302.545    22581304.1754   22581309.0114
        44.4004         41.8004
 -20076905.35446 -15105323.29647  20865442.163    20865441.5164   20865442.1674
        48.8004         45.9004
 16  6 13  1  8  0.0000000  0  9G 6G19G17G22G 7G 2G 9G 3G23
 -12156180.67846  -9455512.80047  20664035.402    20664035.9164   20664041.4204
        49.5004         46.8004
  -5441226.64344  -4223380.12046  23870099.156    23870098.0014   23870100.1894
        41.1004         38.6004
   2626131.20642   2299909.93645  24692191.632    24692193.9464   24692199.7634
        35.9004         34.0004
   2559811.09442   2010061.16445  24631374.974    24631378.4404   24631378.8234
        36.4004         34.3004
  -1999743.87843  -1547397.45646  23806649.438    23806646.4314   23806649.9304
        39.4004         36.9004
  -2744290.96444  -2123087.11846  23459562.698    23459561.3094   23459563.2144
        40.9004         38.5004
 -20113267.92947 -15634189.65847  20201919.996    20201920.0544   20201924.5614
        50.7004         47.7004
  -9954378.53545  -7470442.17446  22596844.558    22596845.2234   22596850.1334
        44.2004         41.4004
 -20041751.38846 -15077930.60047  20872131.396    20872131.0324   20872131.4534
        48.6004         45.8004
 16  6 13  1  8 30.0000000  0  9G 6G19G17G22G 7G 2G 9G 3G23
 -12168824.91347  -9465365.46247  20661628.895    20661629.6234   20661635.1614
        49.6004         46.8004
  -5351166.27644  -4153203.25646  23887236.734    23887235.3584   23887238.3534
        41.1004         38.5004
   2724556.43542   2376604.91045  24710924.249    24710924.3164   24710928.7824
        35.9004         34.3004
   2653325.06242   2082929.24445  24649172.051    24649172.6034   24649173.7464
        36.3004         34.3004
  -2105165.10843  -1629543.82946  23786586.446    23786585.9554   23786588.6994
        39.6004         37.1004
  -2832560.65744  -2191868.68546  23442765.563    23442763.8824   23442765.8854
        40.9004         38.5004
 -20129929.60147 -15647172.77547  20198749.785    20198749.7594   20198753.6884
        50.7004         47.7004
  -9872507.38545  -7406646.49146  22612423.719    22612423.8554   22612429.8134
        44.2004         41.6004
 -20006212.50846 -15050237.96847  20878893.777    20878893.4114   20878894.2244
        48.6004         45.8004
 16  6 13  1  9  0.0000000  0  9G 6G19G17G22G 7G 2G 9G 3G23
 -12180885.45446  -9474763.29247  20659334.069    20659334.5674   20659340.3774
        49.5004         46.6004
  -5260847.97744  -4082825.37846  23904424.481    23904423.2864   23904426.3414
        41.3004         38.8004
   2823029.94642   2453337.48645  24729662.967    24729662.9024   24729664.2804
        36.1004         34.3004
   2746926.67042   2155865.58745  24666990.023    24666987.3824   24666987.2684
        36.6004         34.6004
  -2210475.06643  -1711603.49646  23766546.187    23766546.2284   23766548.9734
        39.6004         37.1004
  -2920574.41044  -2260450.83146  23426017.426    23426016.6694   23426016.9884
        40.9004         38.3004
 -20146114.94047 -15659784.71747  20195669.721    20195669.5504   20195673.7754
        50.7004         47.8004
  -9790433.50445  -7342692.83246  22628041.761    22628042.5254   22628048.1234
        44.1004         41.2004
 -19970290.10646 -15022246.48247  20885729.805    20885729.4234   20885729.9004
        48.6004         45.8004
 16  6 13  1  9 30.0000000  0  9G 6G19G17G22G 7G 2G 9G 3G23
 -12192361.45246  -9483705.64147  20657150.745    20657150.8394   20657156.2734
        49.5004         46.6004
  -5170275.21144  -4012249.24246  23921659.973    23921658.1284   23921661.0264
        41.1004         38.3004
   2921548.84142   2530105.40245  24748410.841    24748410.1624   24748413.3094
        35.7004         33.8004
   2840615.33042   2228869.74445  24684820.351    24684815.3184   24684816.7724
        37.0004         35.0004
  -2315671.53843  -1793574.72446  23746527.947    23746527.6184   23746531.0714
        39.6004         37.1004
  -3008330.10444  -2328831.89646  23409316.741    23409316.4344   23409317.6794
        40.8004         37.9004
 -20161824.19147 -15672025.68247  20192679.865    20192679.8004   20192684.5464
        50.7004         47.7004
  -9708157.66545  -7278581.81046  22643698.468    22643699.0134   22643704.8274
        43.9004         41.1004
 -19933985.40546 -14993957.10947  20892638.061    20892637.9404   20892638.8294
        48.6004         45.8004
 16  6 13  1 10  0.0000000  0  9G 6G19G17G22G 7G 2G 9G 3G23
 -12203252.09147  -9492191.86347  20655078.024    20655078.5214   20655083.9084
        49.6004         46.8004
  -5079451.10044  -3941477.23946  23938942.453    23938940.9214   23938944.6464
        40.8004         37.9004
   3020109.75042   2606906.04845  24767166.288    24767167.8574   24767166.7344
        35.4004         33.8004
   2934390.11242   2301941.03145  24702659.239    24702657.2854   24702659.8864
        37.1004         35.3004
  -2420751.75943  -1875455.37746  23726533.408    23726532.2534   23726534.8024
        39.7004         37.3004
  -3095825.16844  -2397009.87346  23392667.525    23392666.9834   23392667.6094
        40.8004         38.3004
 -20177057.66647 -15683895.92247  20189780.905    20189781.0644   20189785.9204
        50.7004         47.8004
  -9625680.61545  -7214313.98446  22659393.363    22659393.8204   22659399.7394
        43.7004         40.9004
 -19897299.79846 -14965370.92247  20899619.937    20899619.3664   20899619.8734
        48.6004         45.8004
 16  6 13  1 10 30.0000000  0  9G 6G19G17G22G 7G 2G 9G 3G23
 -12213556.54347  -9500221.31347  20653117.361    20653117.7844   20653123.0304
        49.6004         46.8004
  -4988378.59844  -3870511.67446  23956273.235    23956271.8244   23956275.5124
        40.8004         38.3004
   3118709.96042   2683737.31045  24785929.613    24785928.9784   24785933.4584
        36.1004         34.5004
   3028250.62242   2375079.17745  24720520.927    24720517.9524   24720522.9404
        36.8004         34.8004
  -2525712.83643  -1957243.17646  23706559.466    23706558.0764   23706562.1684
        39.6004         37.3004
  -3183057.32144  -2464982.98146  23376067.740    23376067.9454   23376069.1244
        40.9004         38.6004
 -20191815.62747 -15695395.61847  20186972.975    20186972.8274   20186977.5644
        50.7004         47.8004
  -9543003.06445  -7149889.93546  22675125.357    22675126.0964   22675132.1534
        43.6004         40.7004
 -19860234.40546 -14936488.79647  20906672.958    20906672.5054   20906673.0234
        48.6004         45.8004
 16  6 13  1 11  0.0000000  0  9G 6G19G17G22G 7G 2G 9G 3G23
 -12223274.02946  -9507793.38547  20651267.880    20651268.1814   20651273.7014
        49.5004         46.6004
  -4897061.06744  -3799355.20446  23973650.229    23973648.0274   23973652.3834
        40.6004         37.8004
   3217346.44642   2760596.86745  24804697.463    24804697.5284   24804703.2394
        36.1004         34.3004
   3122196.08342   2448283.49645  24738399.987    24738395.6504   24738401.1584
        36.4004         34.5004
  -2630552.44043  -2038936.35546  23686607.703    23686608.2744   23686611.5334
        39.7004         37.4004
  -3270024.15744  -2532749.32446  23359518.474    23359517.6984   23359518.6424
        41.3004         39.0004
 -20206098.40647 -15706525.04548  20184254.769    20184254.7944   20184259.7174
        50.7004         48.0004
  -9460125.81945  -7085310.26946  22690897.732    22690897.8894   22690903.9714
        43.6004         40.9004
 -19822790.63246 -14907311.83047  20913798.795    20913798.3434   20913798.6724
        48.6004         45.9004
 16  6 13  1 11 30.0000000  0  9G 6G19G17G22G 7G 2G 9G 3G23
 -12232403.81746  -9514907.51947  20649530.474    20649530.9134   20649536.1654
        49.5004         46.5004
  -4805501.56543  -3728010.15646  23991072.613    23991071.5184   23991074.5884
        40.1004         37.3004
   3316016.00742   2837482.16345  24823473.592    24823473.9354   24823479.9204
        35.7004         34.0004
   3216225.70842   2521553.36445  24756286.931    24756290.5464   24756291.0654
        36.4004         34.6004
  -2735267.70243  -2120532.62946  23666680.349    23666680.9564   23666684.3474
        39.9004         37.4004
  -3356723.23644  -2600307.03646  23343020.077    23343019.3594   23343021.2194
        41.8004         39.5004
 -20219906.35447 -15717284.46948  20181626.925    20181627.0734   20181631.9974
        50.7004         48.0004
  -9377049.60945  -7020575.57846  22706707.939    22706707.6794   22706712.8314
        43.7004         41.2004
 -19784969.83646 -14877841.08047  20920995.035    20920995.2484   20920995.4134
        48.6004         45.8004
 16  6 13  1 12  0.0000000  0  9G 6G19G17G22G 7G 2G 9G 3G23
 -12240945.13746  -9521563.10947  20647905.319    20647905.5544   20647910.7954
        49.3004         46.5004
  -4713703.43343  -3656479.16646  24008542.651    24008541.3864   24008543.8704
        39.9004         37.6004
   3414715.79942   2914390.98945  24842258.235    24842256.0464   24842261.0274
        35.0004         33.6004
   3310338.86142   2594888.31945  24774200.307    24774199.7994   24774202.6034
        36.3004         34.5004
  -2839856.33543  -2202030.24846  23646777.099    23646778.2444   23646781.7644
        39.9004         37.6004
  -3443152.31444  -2667654.35246  23326573.031    23326572.3964   23326573.6994
        42.3004         39.9004
 -20233239.76447 -15727674.12948  20179090.034    20179089.8704   20179094.7684
        50.8004         48.0004
  -9293775.21245  -6955686.44346  22722552.721    22722553.3954   22722558.9224
        43.7004         41.1004
 -19746773.42846 -14848077.64347  20928264.362    20928263.8264   20928263.6384
        48.6004         45.8004
 16  6 13  1 12 30.0000000  0  9G 6G19G17G22G 7G 2G 9G 3G23
 -12248897.29546  -9527759.60747  20646391.746    20646392.3774   20646397.5804
        49.3004         46.6004
  -4621669.70143  -3584764.59746  24026056.022    24026054.8954   24026056.3564
        39.7004         37.3004
   3513442.94642   2991321.16745  24861045.240    24861045.4844   24861048.6184
        35.0004         34.0004
   3404534.75642   2668287.71745  24792128.752    24792124.0634   24792126.8984
        36.1004         34.5004
  -2944315.35743  -2283426.84746  23626902.193    23626900.6114   23626904.2704
        40.3004         37.8004
  -3529309.06544  -2734789.47046  23310178.473    23310177.7184   23310178.7154
        42.9004         40.6004
 -20246099.00447 -15737694.31348  20176642.683    20176642.9574   20176647.7854
        50.8004         48.0004
  -9210303.32145  -6890643.43946  22738438.530    22738437.8154   22738443.3734
        43.7004         40.9004
 -19708202.68346 -14818022.51547  20935604.174    20935603.5424   20935603.4384
        48.6004         45.6004
 16  6 13  1 13  0.0000000  0  9G 6G19G17G22G 7G 2G 9G 3G23
 -12256259.57246  -9533496.45047  20644990.496    20644991.1354   20644996.9874
        49.5004         46.6004
  -4529403.54743  -3512868.93246  24043612.506    24043612.2034   24043615.0624
        39.6004         37.1004
   3612194.48842   3068270.34545  24879836.268    24879836.9834   24879841.1474
        35.4004         33.8004
   3498812.76442   2741751.14145  24810066.139    24810066.0884   24810065.3644
        35.9004         34.1004
  -3048641.96243  -2364720.26746  23607048.318    23607047.8194   23607052.1064
        40.3004         37.8004
  -3615191.42744  -2801710.76946  23293835.253    23293834.5474   23293835.8024
        43.4004         40.9004
 -20258484.42147 -15747345.27948  20174285.889    20174285.9724   20174290.8694
        50.8004         48.0004
  -9126634.77345  -6825447.17446  22754358.310    22754359.2024   22754364.5034
        43.6004         40.7004
 -19669258.73746 -14787676.57847  20943014.809    20943013.9494   20943014.2624
        48.6004         45.6004
 16  6 13  1 13 30.0000000  0  9G 6G19G17G22G 7G 2G 9G 3G23
 -12263031.30346  -9538773.13947  20643702.323    20643702.8844   20643708.2914
        49.5004         46.8004
  -4436908.35243  -3440794.76546  24061214.261    24061213.4544   24061217.0584
        39.7004         37.3004
   3710967.63942   3145236.41845  24898630.131    24898630.9854   24898635.3724
        35.2004         33.6004
   3593171.98442   2815277.84645  24828022.879    24828021.4264   24828022.6394
        35.6004         34.0004
  -3152833.97243  -2445908.81946  23587220.201    23587220.6494   23587224.6354
        40.3004         37.8004
  -3700796.33145  -2868415.88346  23277545.617    23277544.8374   23277545.6554
        43.7004         41.2004
 -20270396.38747 -15756627.31948  20172019.547    20172019.3214   20172024.0964
        50.8004         48.0004
  -9042770.24444  -6760098.21946  22770317.500    22770317.4224   22770323.4974
        43.4004         40.7004
 -19629943.24046 -14757041.13047  20950495.926    20950495.7994   20950495.4234
        48.6004         45.6004
 16  6 13  1 14  0.0000000  0  9G 6G19G17G22G 7G 2G 9G 3G23
 -12269211.82947  -9543589.15347  20642526.641    20642526.8874   20642532.2694
        49.6004         46.8004
  -4344187.23543  -3368544.58846  24078858.543    24078857.6334   24078859.7434
        39.7004         37.3004
   3809759.42442   3222216.98945  24917431.273    24917430.8354   24917435.7704
        34.5004         32.6004
   3687611.98342   2888867.45945  24845991.186    24845991.8504   24845992.7684
        35.7004         34.0004
  -3256888.36743  -2526990.13146  23567420.165    23567420.0434   23567423.4254
        40.3004         37.8004
  -3786121.66545  -2934903.13946  23261308.603    23261307.8904   23261308.4504
        44.1004         41.4004
 -20281835.30647 -15765540.75848  20169842.582    20169842.5244   20169847.2314
        50.8004         48.0004
  -8958710.54544  -6694597.16246  22786312.836    22786313.0394   22786320.3444
        43.2004         40.4004
 -19590257.39046 -14726117.09047  20958048.292    20958047.6854   20958047.8814
        48.4004         45.6004
 16  6 13  1 14 30.0000000  0  9G 6G19G17G22G 7G 2G 9G 3G23
 -12274800.54647  -9547944.01347  20641462.712    20641463.4694   20641468.8804
        49.6004         46.8004
  -4251243.34343  -3296120.81946  24096545.552    24096543.8134   24096546.9014
        39.4004         37.1004
   3908566.25841   3299209.23145  24936233.193    24936232.3694   24936235.5524
        34.2004         32.9004
   3782131.87242   2962519.34545  24863979.213    24863978.7504   24863980.1854
        35.4004         33.8004
  -3360802.86743  -2607962.42046  23547645.362    23547645.5204   23547649.8734
        40.3004         37.9004
  -3871165.24145  -3001170.83046  23245125.335    23245124.5624   23245125.2724
        44.2004         41.6004
 -20292801.55147 -15774085.87948  20167755.869    20167756.0334   20167760.5234
        50.8004         48.0004
  -8874456.42444  -6628944.62546  22802346.169    22802347.0304   22802353.6994
        43.4004         40.7004
 -19550202.38846 -14694905.40547  20965669.947    20965669.7124   20965670.1374
        48.4004         45.6004
 16  6 13  1 15  0.0000000  0  9G 6G19G17G22G 7G 2G 9G 3G23
 -12279796.83447  -9551837.23347  20640512.388    20640512.9694   20640518.0504
        49.8004         47.0004
  -4158079.68743  -3223525.78246  24114273.231    24114272.1874   24114275.9434
        39.9004         37.4004
   4007385.75641   3376211.41845  24955038.834    24955036.6354   24955044.0514
        34.3004         33.1004
   3876731.20842   3036233.08945  24881983.577    24881981.4304   24881981.0534
        35.4004         33.8004
  -3464574.59243  -2688823.48046  23527897.845    23527897.6894   23527903.1514
        40.3004         37.8004
  -3955924.59545  -3067217.05446  23228996.788    23228995.5094   23228996.2694
        44.2004         41.4004
 -20303295.53847 -15782262.99948  20165759.194    20165758.9874   20165763.8164
        50.8004         48.0004
  -8790008.64445  -6563141.17446  22818417.014    22818417.5674   22818423.7074
        43.6004         41.1004
 -19509779.79246 -14663407.27547  20973361.924    20973361.4804   20973362.9754
        48.4004         45.4004
 16  6 13  1 15 30.0000000  0  9G 6G19G17G22G 7G 2G 9G 3G23
 -12284200.09647  -9555268.35247  20639674.647    20639674.9824   20639680.2074
        49.8004         47.0004
  -4064699.94343  -3150762.40146  24132044.711    24132042.7934   24132044.5814
        39.9004         37.6004
   4106215.08341   3453221.34545  24973843.272    24973843.9334   24973847.4864
        33.8004         32.6004
   3971408.78642   3110007.83145  24899995.693    24899996.2394   24899995.8374
        35.0004         33.6004
  -3568200.65944  -2769571.03546  23508177.797    23508179.3164   23508183.2904
        40.6004         38.3004
  -4040397.27145  -3133039.88746  23212921.352    23212920.5464   23212921.8554
        44.2004         41.4004
 -20313317.69247 -15790072.46147  20163851.864    20163851.8484   20163856.2584
        50.8004         47.8004
  -8705367.96245  -6497187.41246  22834524.435    22834524.4414   22834529.9944
        43.7004         41.1004
 -19468990.82646 -14631623.67047  20981123.570    20981123.1574   20981124.1874
        48.2004         45.4004
 16  6 13  1 16  0.0000000  0  9G 6G19G17G22G 7G 2G 9G 3G23
 -12288009.77047  -9558236.93747  20638949.880    20638950.2744   20638954.9814
        49.8004         47.0004
  -3971107.14543  -3077832.98146  24149853.825    24149852.8964   24149854.4844
        39.7004         37.3004
   4205051.23641   3530236.56945  24992652.234    24992654.8634   24992660.2684
        33.5004         32.4004
   4066164.04142   3183843.16645  24918029.997    24918029.5074   24918028.9584
        35.2004         34.1004
  -3671679.24044  -2850203.67446  23488486.903    23488488.0404   23488491.0934
        40.8004         38.1004
  -4124581.23745  -3198637.75046  23196901.569    23196900.9264   23196901.4904
        44.2004         41.4004
 -20322868.46047 -15797514.61048  20162034.093    20162034.2844   20162038.7194
        50.7004         48.0004
  -8620535.13645  -6431083.91946  22850666.422    22850667.2754   22850672.6204
        43.9004         41.1004
 -19427836.98246 -14599555.73747  20988955.156    20988954.8854   20988955.5254
        48.4004         45.6004
 16  6 13  1 16 30.0000000  0  9G 6G19G17G22G 7G 2G 9G 3G23
 -12291225.30747  -9560742.56047  20638337.876    20638338.2324   20638343.0394
        49.8004         47.0004
  -3877304.29443  -3004739.84546  24167704.142    24167702.9424   24167705.1114
        40.1004         37.6004
   4303890.95341   3607254.52645  25011462.815    25011463.2444   25011467.7804
        33.7004         32.7004
   4160996.21542   3257738.39545  24936079.262    24936074.3704   24936074.1534
        35.7004         34.1004
  -3775007.03044  -2930718.83246  23468825.572    23468824.5714   23468828.7264
        40.8004         38.3004
  -4208473.40945  -3264008.25246  23180937.829    23180936.7334   23180937.6204
        44.2004         41.6004
 -20331948.26547 -15804589.77548  20160306.010    20160306.3104   20160311.0014
        50.8004         48.0004
  -8535510.94545  -6364831.32146  22866845.815    22866846.3594   22866851.8314
        43.7004         41.1004
 -19386319.57146 -14567204.50547  20996855.500    20996855.5154   20996855.9904
        48.4004         45.6004
 16  6 13  1 17  0.0000000  0  9G 6G19G17G22G 7G 2G 9G 3G23
 -12293846.19947  -9562784.81847  20637838.495    20637839.0594   20637844.2234
        49.6004         46.8004
  -3783294.42843  -2931485.44346  24185593.659    24185592.4584   24185593.8074
        39.7004         37.1004
   4402731.52741   3684273.10945  25030268.772    25030271.2404   25030266.9204
        33.0004         31.9004
   4255904.89642   3331693.20445  24954140.388    24954135.9884   24954135.0614
        35.9004         34.1004
  -3878181.22844  -3011114.27746  23449191.580    23449192.4684   23449195.0564
        40.9004         38.3004
  -4292072.33245  -3329150.23646  23165029.178    23165028.7544   23165029.3594
        44.4004         41.6004
 -20340557.56247 -15811298.31648  20158667.962    20158668.2424   20158672.8384
        50.8004         48.0004
  -8450296.16845  -6298430.21146  22883062.052    22883061.8544   22883067.3734
        43.7004         40.9004
 -19344439.73746 -14534570.87047  21004825.707    21004825.3144   21004825.3334
        48.4004         45.6004
 16  6 13  1 17 30.0000000  0  9G 6G19G17G22G 7G 2G 9G 3G23
 -12295871.96547  -9564363.33847  20637453.124    20637453.7224   20637459.2544
        49.6004         46.8004
  -3689081.01543  -2858072.40846  24203520.356    24203519.7544   24203522.8784
        39.4004         36.9004
   4501569.91741   3761290.05045  25049076.704    25049078.1274   25049083.0704
        33.1004         32.2004
   4350889.08742   3405706.88545  24972207.871    24972208.3734   24972211.2204
        35.7004         34.3004
  -3981199.53344  -3091388.26046  23429588.140    23429587.5784   23429591.2944
        40.8004         38.3004
  -4375375.13145  -3394061.48846  23149177.337    23149176.6144   23149177.7334
        44.4004         41.6004
 -20348696.82047 -15817640.58648  20157119.241    20157119.1294   20157123.8454
        50.8004         48.0004
  -8364891.56344  -6231881.18346  22899313.591    22899313.7724   22899318.9124
        43.4004         40.6004
 -19302198.92046 -14501655.94547  21012863.876    21012863.5894   21012863.2934
        48.4004         45.6004
 16  6 13  1 18  0.0000000  0  9G 6G19G17G22G 7G 2G 9G 3G23
 -12297302.09347  -9565477.73047  20637180.940    20637181.6564   20637187.0734
        49.6004         46.8004
  -3594667.14243  -2784503.19046  24221486.806    24221486.1064   24221488.1104
        39.0004         36.6004
   4600403.24941   3838303.05745  25067887.433    25067888.6944   25067886.5254
        33.7004         32.6004
   4445948.25742   3479779.01645  24990293.164    24990296.5524   24990301.7134
        35.7004         34.0004
  -4084059.31244  -3171538.70546  23410013.583    23410014.6314   23410017.0564
        40.6004         37.9004
  -4458379.40845  -3458740.11646  23133382.379    23133381.3594   23133382.0504
        44.4004         41.8004
 -20356366.52647 -15823616.97248  20155659.765    20155659.8264   20155664.3584
        50.8004         48.0004
  -8279297.87444  -6165184.82146  22915601.416    22915602.3924   22915607.1874
        43.2004         40.6004
 -19259598.71946 -14468460.98047  21020970.260    21020969.4734   21020970.3724
        48.4004         45.6004
 16  6 13  1 18 30.0000000  0  9G 6G19G17G22G 7G 2G 9G 3G23
 -12298136.16347  -9566127.66447  20637022.389    20637023.1244   20637028.3064
        49.6004         47.0004
  -3500056.02143  -2710780.25946  24239489.271    24239489.5004   24239492.1384
        38.5004         36.0004
   4699229.19241   3915310.19245  25086692.772    25086690.6664   25086695.0034
        33.8004         32.6004
   4541081.57042   3553908.89745  25008400.171    25008398.8094   25008404.1984
        35.9004         34.3004
  -4186758.14544  -3251563.73346  23390471.022    23390470.9744   23390474.9894
        40.6004         38.1004
  -4541083.03045  -3523184.46946  23117644.730    23117643.3264   23117644.5994
        44.2004         41.4004
 -20363567.17747 -15829227.86148  20154289.742    20154289.4074   20154294.2834
        50.8004         48.0004
  -8193515.88144  -6098341.72746  22931925.828    22931925.5864   22931930.5954
        43.4004         40.6004
 -19216640.37546 -14434986.94347  21029144.657    21029144.4884   21029145.1644
        48.4004         45.6004
 16  6 13  1 19  0.0000000  0  9G 6G19G17G22G 7G 2G 9G 3G23
 -12298373.74747  -9566312.80447  20636977.092    20636977.7824   20636983.3024
        49.8004         47.0004
  -3405250.88343  -2636906.16346  24257532.292    24257531.9894   24257533.7784
        38.7004         36.4004
   4798044.08141   3992308.75745  25105499.224    25105495.9604   25105502.0374
        33.8004         32.7004
   4636288.33542   3628095.97845  25026520.418    25026519.8024   25026520.1894
        35.7004         34.1004
  -4289292.66144  -3331460.71046  23370958.973    23370959.5254   23370963.1664
        40.6004         38.1004
  -4623483.47745  -3587392.57846  23101963.990    23101963.4144   23101964.0734
        44.1004         41.1004
 -20370299.26847 -15834473.64047  20153008.192    20153008.0744   20153013.2164
        50.8004         47.8004
  -8107546.38044  -6031352.49846  22948283.111    22948284.4514   22948290.4454
        43.2004         40.4004
 -19173325.34346 -14401234.96247  21037387.198    21037386.9074   21037387.8154
        48.4004         45.6004
 16  6 13  1 19 30.0000000  0  8G 6G19G22G 7G 2G 9G 3G23
 -12298014.40147  -9566032.80947  20637045.419    20637045.7734   20637051.3414
        49.8004         47.0004
  -3310254.95543  -2562883.34046  24275609.527    24275608.9514   24275611.4724
        38.5004         36.2004
   4731567.69942   3702339.64045  25044649.376    25044648.9924   25044651.5474
        35.2004         33.8004
  -4391660.71644  -3411228.00846  23351479.898    23351480.0324   23351482.9364
        40.9004         38.3004
  -4705578.31345  -3651362.55246  23086342.122    23086341.5014   23086341.5344
        43.7004         40.7004
 -20376563.33147 -15839354.72048  20151815.828    20151816.0104   20151821.1614
        50.7004         48.0004
  -8021390.10144  -5964217.74946  22964681.158    22964680.0554   22964685.4564
        43.0004         40.4004
 -19129654.96446 -14367206.08947  21045697.350    21045697.0264   21045698.2604
        48.2004         45.4004
 16  6 13  1 20  0.0000000  0  8G 6G19G22G 7G 2G 9G 3G23
 -12297057.80147  -9565287.41747  20637227.190    20637227.9054   20637233.8784
        49.8004         47.0004
  -3215071.43543  -2488714.38446  24293721.415    24293720.8084   24293724.9064
        38.5004         36.4004
   4826918.97942   3776639.36445  25062793.620    25062793.8574   25062798.4504
        35.4004         33.8004
  -4493859.49344  -3490863.38846  23332030.352    23332031.4034   23332034.9294
        40.9004         38.5004
  -4787365.35144  -3715092.67446  23070777.871    23070777.0954   23070778.0774
        43.4004         40.4004
 -20382359.87247 -15843871.49948  20150713.529    20150713.3334   20150717.9544
        50.8004         48.0004
  -7935047.86244  -5896938.08846  22981109.111    22981110.3704   22981116.0964
        42.9004         40.2004
 -19085630.51046 -14332901.31447  21054075.223    21054074.7224   21054075.5004
        48.2004         45.6004
 16  6 13  1 20 30.0000000  0  8G 6G19G22G 7G 2G 9G 3G23
 -12295503.55047  -9564076.32347  20637523.510    20637524.0304   20637529.3154
        49.8004         47.2004
  -3119703.71443  -2414401.91046  24311871.298    24311870.0324   24311871.7514
        38.3004         36.0004
   4922341.65442   3850994.73145  25080954.314    25080951.6154   25080953.1824
        35.6004         34.0004
  -4595886.60344  -3570365.01146  23312615.456    23312616.5904   23312619.0744
        40.9004         38.3004
  -4868842.29044  -3778581.15446  23055272.863    23055272.9434   23055273.0174
        42.9004         40.0004
 -20387689.42547 -15848024.39648  20149699.439    20149699.3684   20149703.8794
        50.8004         48.2004
  -7848520.39344  -5829514.11746  22997576.716    22997575.9204   22997582.0884
        42.9004         40.0004
 -19041253.32846 -14298321.68847  21062520.006    21062519.3034   21062520.4794
        48.2004         45.4004
 16  6 13  1 21  0.0000000  0  7G 6G19G 7G 2G 9G 3G23
 -12293351.29747  -9562399.24947  20637932.863    20637933.5354   20637938.6824
        49.8004         47.0004
  -3024154.66343  -2339948.11845  24330050.833    24330051.7904   24330053.1684
        37.8004         35.5004
  -4697739.30044  -3649730.74246  23293235.047    23293234.9304   23293237.1734
        40.9004         38.5004
  -4950006.38044  -3841825.86546  23039828.858    23039827.1334   23039828.5094
        42.9004         40.2004
 -20392552.55847 -15851813.84548  20148773.997    20148774.1224   20148778.4444
        51.0004         48.2004
  -7761808.51644  -5761946.43046  23014075.688    23014077.3364   23014082.4234
        42.7004         40.0004
 -18996524.91446 -14263468.38447  21071031.332    21071030.9654   21071031.2534
        48.2004         45.4004
 16  6 13  1 21 30.0000000  0  7G 6G19G 7G 2G 9G 3G23
 -12290600.75547  -9560255.97347  20638456.616    20638456.9484   20638462.2644
        49.8004         47.2004
  -2928427.20243  -2265355.31845  24348269.360    24348266.7714   24348270.3234
        37.6004         35.5004
  -4799415.20644  -3728958.70546  23273887.219    23273886.3044   23273889.0564
        40.9004         38.3004
  -5030855.44044  -3904825.11246  23024442.659    23024442.5604   23024442.8904
        42.9004         40.0004
 -20396949.81047 -15855240.27348  20147937.458    20147937.3184   20147941.7304
        51.0004         48.2004
  -7674913.01944  -5694235.68346  23030613.065    23030613.0384   23030617.8734
        42.7004         40.0004
 -18951446.68646 -14228342.49147  21079609.315    21079608.8224   21079609.3374
        48.2004         45.2004
 16  6 13  1 22  0.0000000  0  7G 6G19G 7G 2G 9G 3G23
 -12287251.61747  -9557646.25847  20639093.948    20639094.3084   20639099.5904
        49.8004         47.2004
  -2832524.91243  -2190626.27146  24366519.668    24366519.0464   24366520.5354
        38.3004         36.2004
  -4900911.01644  -3808046.31546  23254574.179    23254572.9644   23254575.3194
        40.9004         38.5004
  -5111387.43044  -3967577.28146  23009117.595    23009117.2804   23009118.2454
        42.7004         40.0004
 -20400881.76747 -15858304.13648  20147188.508    20147188.9154   20147193.5454
        51.0004         48.2004
  -7587834.61144  -5626382.39346  23047183.627    23047183.5634   23047188.1874
        42.5004         39.7004
 -18906020.12446 -14192945.17747  21088253.924    21088253.3724   21088254.2644
        48.2004         45.4004
 16  6 13  1 22 30.0000000  0  7G 6G19G 7G 2G 9G 3G23
 -12283303.61847  -9554569.89147  20639844.920    20639845.3734   20639850.9074
        50.0004         47.0004
  -2736450.96343  -2115763.48446  24384801.494    24384799.3764   24384802.0934
        38.3004         36.2004
  -5002224.51944  -3886991.86646  23235292.685    23235292.5504   23235296.4034
        40.9004         38.5004
  -5191599.51644  -4030080.19046  22993854.542    22993853.3154   22993854.7234
        42.7004         40.0004
 -20404349.00947 -15861005.87448  20146528.931    20146529.1254   20146533.5274
        51.0004         48.2004
  -7500574.16444  -5558387.24646  23063787.912    23063788.8054   23063794.0364
        42.3004         39.7004
 -18860246.48846 -14157277.40547  21096964.365    21096963.6004   21096964.4774
        48.2004         45.4004
 16  6 13  1 23  0.0000000  0  7G 6G19G 7G 2G 9G 3G23
 -12278756.51247  -9551026.69047  20640710.146    20640710.6504   20640716.0204
        49.8004         46.8004
  -2640208.50843  -2040769.38545  24403115.088    24403114.3104   24403116.2654
        38.0004         35.7004
  -5103353.15844  -3965793.39846  23216049.241    23216048.4724   23216050.4044
        40.9004         38.5004
  -5271489.76444  -4092332.29046  22978651.780    22978651.5694   22978651.6154
        42.9004         40.4004
 -20407352.11047 -15863345.94548  20145957.668    20145957.5824   20145962.2684
        51.0004         48.2004
  -7413132.41544  -5490250.85146  23080427.998    23080428.8744   23080433.5664
        42.3004         39.7004
 -18814127.09846 -14121340.21847  21105740.576    21105740.2694   21105740.6304
        48.2004         45.4004
 16  6 13  1 23 30.0000000  0  7G 6G19G 7G 2G 9G 3G23
 -12273610.09047  -9547016.49447  20641689.279    20641689.5404   20641695.2574
        49.6004         46.6004
  -2543800.55643  -1965646.33145  24421460.368    24421459.6224   24421462.2534
        38.2004         35.9004
  -5204294.35344  -4044448.85746  23196842.026    23196840.4434   23196842.4844
        41.3004         38.8004
  -5351055.57844  -4154331.60546  22963512.124    22963510.0894   22963510.6814
        43.2004         40.6004
 -20409891.70747 -15865324.84548  20145474.115    20145474.2924   20145478.7464
        51.0004         48.2004
  -7325510.13244  -5421973.78446  23097102.650    23097102.2204   23097106.5304
        42.0004         39.3004
 -18767663.25746 -14085134.62547  21114581.832    21114581.7194   21114582.5864
        48.2004         45.4004
 16  6 13  1 24  0.0000000  0  7G 6G19G 7G 2G 9G 3G23
 -12267864.12846  -9542539.12047  20642782.698    20642783.0404   20642788.6744
        49.5004         46.6004
  -2447230.31643  -1890396.80546  24439839.199    24439838.3654   24439838.6674
        38.3004         36.0004
  -5305045.18644  -4122955.97846  23177667.970    23177667.8824   23177670.0104
        41.5004         39.0004
  -5430294.60744  -4216076.27046  22948431.401    22948431.5594   22948431.7384
        43.2004         40.7004
 -20411968.40447 -15866943.03948  20145079.486    20145079.4574   20145083.4414
        51.2004         48.4004
  -7237708.14744  -5353556.66946  23113810.123    23113810.2704   23113814.9204
        41.8004         39.2004
 -18720856.55446 -14048661.86847  21123489.480    21123489.1274   21123490.1384
        48.2004         45.6004
 16  6 13  1 24 30.0000000  0  7G 6G19G 7G 2G 9G 3G23
 -12261518.47846  -9537594.45847  20643989.956    20643990.6734   20643996.2914
        49.5004         46.6004
  -2350501.34643  -1815023.61345  24458244.452    24458243.9434   24458245.2274
        38.0004         35.7004
  -5405602.90244  -4201312.61346  23158531.583    23158532.8854   23158535.1154
        41.8004         39.2004
  -5509204.39344  -4277564.38546  22933415.030    22933414.9044   22933416.6204
        43.4004         40.7004
 -20413582.81447 -15868201.00748  20144772.138    20144772.1144   20144776.3804
        51.2004         48.4004
  -7149727.19944  -5285000.11946  23130552.311    23130552.7894   23130557.4034
        41.8004         39.2004
 -18673708.36746 -14011923.01947  21132461.370    21132461.0564   21132461.8844
        48.4004         45.6004
 16  6 13  1 25  0.0000000  0  7G 6G19G 7G 2G 9G 3G23
 -12254572.95546  -9532182.35947  20645311.979    20645312.5194   20645317.7824
        49.5004         46.5004
  -2253616.51243  -1739528.97245  24476680.794    24476681.9144   24476682.2554
        37.8004         35.5004
  -5505965.24844  -4279516.99946  23139434.010    23139434.5874   23139437.0584
        42.0004         39.3004
  -5587782.97144  -4338794.42946  22918462.803    22918462.0354   22918463.1904
        43.4004         40.7004
 -20414735.56047 -15869099.24348  20144553.042    20144552.8044   20144556.7854
        51.2004         48.4004
  -7061568.12944  -5216304.74746  23147328.739    23147328.0614   23147334.3094
        41.8004         39.2004
 -18626220.15646 -13974919.21747  21141497.778    21141497.6614   21141498.5894
        48.4004         45.6004
 16  6 13  1 25 30.0000000  0  7G 6G19G 7G 2G 9G 3G23
 -12247027.46846  -9526302.74847  20646747.555    20646748.2304   20646753.7834
        49.3004         46.5004
  -2156579.00643  -1663915.37845  24495145.974    24495146.4634   24495147.7244
        37.6004         35.5004
  -5606129.58944  -4357567.13346  23120373.079    23120373.7624   23120376.6874
        42.0004         39.3004
  -5666027.66344  -4399764.30146  22903573.290    22903573.3534   22903573.2454
        43.4004         40.6004
 -20415427.35447 -15869638.29048  20144420.861    20144420.8494   20144425.2234
        51.0004         48.2004
  -6973231.67444  -5147471.14846  23164137.096    23164138.3434   23164144.6464
        41.8004         39.3004
 -18578393.58746 -13937651.75347  21150599.463    21150598.5654   21150599.7384
        48.4004         45.4004
 16  6 13  1 26  0.0000000  0  7G 6G19G 7G 2G 9G 3G23
 -12238881.86546  -9519955.52947  20648298.176    20648298.7784   20648303.8944
        49.5004         46.6004
  -2059391.89443  -1588185.20545  24513640.478    24513639.3844   24513642.3184
        37.6004         35.5004
  -5706092.89744  -4435460.58146  23101349.555    23101350.9344   23101354.1154
        42.2004         39.5004
  -5743936.20545  -4460472.24246  22888748.149    22888747.3074   22888748.1924
        43.6004         40.7004
 -20415658.80047 -15869818.62548  20144376.816    20144376.8744   20144381.3584
        51.0004         48.2004
  -6884718.66644  -5078499.98846  23180981.592    23180982.3854   23180988.0354
        41.8004         39.2004
 -18530229.51446 -13900121.30547  21159764.142    21159764.0214   21159765.0584
        48.4004         45.4004
 16  6 13  1 26 30.0000000  0  7G 6G19G 7G 2G 9G 3G23
 -12230136.11546  -9513140.65247  20649962.106    20649962.4674   20649968.1064
        49.5004         46.6004
  -1962058.61243  -1512341.11645  24532163.358    24532162.8324   24532163.9194
        37.6004         35.3004
  -5805852.71544  -4513195.47246  23082367.201    23082367.2554   23082371.7834
        42.3004         39.9004
  -5821506.39345  -4520916.52146  22873986.592    22873986.2514   22873987.1084
        43.6004         40.9004
 -20415430.57047 -15869640.77448  20144420.297    20144420.0954   20144424.5794
        51.0004         48.2004
  -6796029.88144  -5009391.85446  23197858.914    23197859.3104   23197864.9484
        41.8004         39.2004
 -18481729.68846 -13862329.22447  21168993.097    21168992.8944   21168993.6914
        48.2004         45.4004
 16  6 13  1 27  0.0000000  0  7G 6G19G 7G 2G 9G 3G23
 -12220790.13046  -9505858.06547  20651741.015    20651741.0364   20651746.7444
        49.5004         46.6004
  -1864581.92042  -1436385.29845  24550710.852    24550710.4614   24550713.7824
        37.5004         35.3004
  -5905406.69644  -4590769.96846  23063424.507    23063422.8314   23063426.9094
        42.5004         39.9004
  -5898735.66445  -4581095.16746  22859291.037    22859289.6084   22859290.1694
        43.7004         40.9004
 -20414743.35747 -15869105.26548  20144551.003    20144551.0284   20144555.4014
        51.0004         48.2004
  -6707166.15444  -4940147.37646  23214768.563    23214769.1664   23214774.5664
        41.8004         39.2004
 -18432895.30946 -13824276.45347  21178286.745    21178286.2504   21178286.5694
        48.2004         45.4004
 16  6 13  1 27 30.0000000  0  7G 6G19G 7G 2G 9G 3G23
 -12210843.86946  -9498107.73147  20653633.303    20653633.8424   20653639.3964
        49.5004         46.8004
  -1766965.37443  -1360320.53145  24569288.867    24569287.6804   24569289.7154
        37.8004         35.7004
  -6004752.09844  -4668181.95146  23044519.316    23044518.5384   23044520.9644
        42.5004         39.9004
  -5975621.72245  -4641006.35846  22844659.835    22844659.3844   22844659.3324
        43.9004         41.2004
 -20413597.85447 -15868212.64748  20144769.062    20144768.8724   20144773.5204
        51.0004         48.2004
  -6618128.19544  -4870767.17046  23231712.374    23231712.8854   23231718.8004
        41.6004         39.0004
 -18383727.89746 -13785964.18247  21187642.721    21187642.5324   21187642.8304
        48.2004         45.2004
 16  6 13  1 28  0.0000000  0  7G 6G19G 7G 2G 9G 3G23
 -12200297.34646  -9489889.66547  20655640.375    20655640.6974   20655646.2674
        49.5004         46.8004
  -1669211.98943  -1284149.09845  24587889.356    24587888.0374   24587891.4974
        37.6004         35.5004
  -6103886.08244  -4745429.16946  23025654.168    23025653.4204   23025656.5574
        42.5004         39.7004
  -6052162.51845  -4700648.51846  22830094.620    22830094.0104   22830094.6614
        43.9004         41.4004
 -20411994.75347 -15866963.46548  20145073.770    20145073.6974   20145078.6344
        51.0004         48.2004
  -6528916.90044  -4801251.87246  23248688.478    23248689.0744   23248693.8674
        41.5004         38.8004
 -18334228.68346 -13747393.35747  21197062.149    21197061.9044   21197062.6284
        48.2004         45.4004
 16  6 13  1 28 30.0000000  0  7G 6G19G 7G 2G 9G 3G23
 -12189150.56147  -9481203.85447  20657761.131    20657761.9124   20657767.7944
        49.6004         47.0004
  -1571325.21443  -1207873.73145  24606517.550    24606516.2894   24606518.0604
        37.8004         35.7004
  -6202806.11344  -4822509.66246  23006830.338    23006829.3924   23006832.8524
        42.3004         39.7004
  -6128355.38945  -4760019.57846  22815595.659    22815594.5334   22815596.0814
        43.7004         40.9004
 -20409934.76747 -15865358.26748  20145465.788    20145465.8264   20145470.5134
        51.0004         48.2004
  -6439532.98544  -4731602.09046  23265697.812    23265697.2504   23265703.3504
        41.3004         38.5004
 -18284399.27746 -13708565.24947  21206544.362    21206544.4164   21206544.7614
        48.2004         45.2004
 16  6 13  1 29  0.0000000  0  7G 6G19G 7G 2G 9G 3G23
 -12177403.53247  -9472050.32047  20659997.482    20659997.5264   20660003.1804
        49.6004         47.0004
  -1473307.69443  -1131496.47745  24625169.416    24625168.6694   24625170.5624
        37.8004         35.5004
  -6301510.02844  -4899421.77946  22988046.937    22988046.9464   22988050.3784
        42.3004         39.7004
  -6204198.20745  -4819117.86046  22801161.965    22801162.1424   22801163.5244
        43.6004         40.9004
 -20407418.62947 -15863397.62548  20145944.546    20145944.6734   20145949.2844
        51.0004         48.2004
  -6349977.31644  -4661818.46046  23282737.751    23282738.9864   23282745.0574
        41.1004         38.8004
 -18234241.26046 -13669481.06547  21216089.626    21216089.3964   21216089.1104
        48.1004         45.2004
 16  6 13  1 29 30.0000000  0  7G 6G19G 7G 2G 9G 3G23
 -12165056.36247  -9462429.14847  20662346.643    20662347.1474   20662352.5914
        49.8004         47.0004
  -1375162.72343  -1055019.92345  24643844.174    24643843.9054   24643847.1044
        37.6004         35.7004
  -6399994.75244  -4976163.09946  22969305.982    22969306.5614   22969308.4354
        42.3004         39.7004
  -6279688.56545  -4877941.48546  22786797.799    22786796.8714   22786798.0034
        43.7004         41.1004
 -20404447.04047 -15861082.08048  20146510.229    20146510.2444   20146514.4474
        51.0004         48.2004
  -6260250.65644  -4591901.59546  23299814.102    23299814.5224   23299820.8124
        41.5004         39.0004
 -18183755.75446 -13630141.71047  21225695.953    21225695.7944   21225696.4084
        48.1004         45.1004
 16  6 13  1 30  0.0000000  0  7G 6G19G 7G 2G 9G 3G23
 -12152109.07847  -9452340.34947  20664810.437    20664811.0354   20664816.2794
        49.8004         47.0004
  -1276893.71943   -978446.76545  24662547.327    24662544.8214   24662546.9954
        37.8004         35.7004
  -6498257.78144  -5052731.67046  22950607.034    22950607.0704   22950610.2224
        42.5004         39.9004
  -6354823.92345  -4936488.50546  22772499.983    22772499.3824   22772500.3984
        43.9004         41.2004
 -20401020.77647 -15858412.24948  20147162.121    20147161.9134   20147166.7874
        51.0004         48.2004
  -6170353.88344  -4521852.15446  23316920.434    23316920.5214   23316927.2264
        41.6004         39.2004
 -18132944.24246 -13590548.32347  21235364.277    21235364.3934   21235365.6814
        47.9004         45.1004
 16  6 13  1 30 30.0000000  0  7G 6G19G 7G 2G 9G 3G23
 -12138561.82547  -9441784.04447  20667388.439    20667388.9934   20667393.8554
        49.8004         47.0004
  -1178503.39943   -901779.00645  24681268.727    24681268.5304   24681271.0334
        38.0004         35.7004
  -6596296.45544  -5129125.42046  22931951.245    22931951.1124   22931954.2664
        42.7004         40.0004
  -6429602.22745  -4994757.29946  22758270.669    22758269.4164   22758270.5364
        44.1004         41.2004
 -20397140.53347 -15855388.67648  20147900.306    20147900.4214   20147905.1434
        51.0004         48.2004
  -6080287.72844  -4451670.73746  23334059.582    23334060.2654   23334065.7594
        41.6004         39.2004
 -18081808.36946 -13550702.17547  21245095.941    21245095.2854   21245096.0484
        47.9004         44.9004
 16  6 13  1 31  0.0000000  0  7G 6G19G 7G 2G 9G 3G23
 -12124414.71447  -9430760.32447  20670080.801    20670081.1684   20670086.3284
        49.8004         47.0004
  -1079994.88743   -825019.15846  24700013.973    24700013.3894   24700018.2934
        38.0004         36.0004
  -6694107.98744  -5205342.17446  22913338.473    22913338.4054   22913341.1544
        42.9004         40.2004
  -6504021.31545  -5052746.17246  22744107.516    22744106.9734   22744109.1064
        43.7004         40.9004
 -20392807.12547 -15852011.98548  20148725.020    20148725.1184   20148729.9104
        51.0004         48.4004
  -5990053.04144  -4381357.99146  23351231.243    23351231.1914   23351235.6194
        41.5004         38.6004
 -18030349.32846 -13510604.22747  21254888.156    21254887.6704   21254888.3664
        47.7004         44.9004
 16  6 13  1 31 30.0000000  0  7G 6G19G 7G 2G 9G 3G23
 -12109667.90647  -9419269.30347  20672886.877    20672887.2194   20672892.6854
        49.8004         47.0004
   -981371.46643   -748169.77845  24718782.999    24718781.4454   24718785.1304
        38.2004         35.9004
  -6791690.07044  -5281380.13046  22894768.366    22894768.0744   22894771.3764
        43.0004         40.4004
  -6578078.60045  -5110453.14146  22730015.230    22730014.7374   22730017.0624
        43.7004         41.1004
 -20388021.30447 -15848282.76048  20149636.247    20149636.1054   20149640.6544
        51.2004         48.4004
  -5899650.58444  -4310914.52946  23368433.714    23368434.7244   23368439.6724
        41.5004         39.0004
 -17978568.54146 -13470255.56447  21264741.459    21264741.0984   21264741.4114
        47.7004         44.9004
 16  6 13  1 32  0.0000000  0  7G 6G19G 7G 2G 9G 3G23
 -12094321.57647  -9407311.12147  20675806.864    20675807.5694   20675813.0754
        49.6004         47.0004
   -882636.46743   -671233.44246  24737571.581    24737569.7114   24737573.8274
        38.3004         36.2004
  -6889040.55444  -5357237.63046  22876242.836    22876242.4954   22876246.4874
        43.0004         40.4004
  -6651772.18145  -5167876.70446  22715992.691    22715991.7244   22715993.1004
        43.7004         40.9004
 -20382783.83347 -15844201.59948  20150632.699    20150632.5524   20150637.2924
        51.2004         48.4004
  -5809081.22444  -4240340.99046  23385668.943    23385670.2944   23385674.7064
        41.6004         39.0004
 -17926467.47246 -13429657.31847  21274656.818    21274656.2054   21274656.2324
        47.7004         45.1004
 16  6 13  1 32 30.0000000  0  8G 6G19G26G 7G 2G 9G 3G23
 -12078375.93947  -9394885.95147  20678841.903    20678842.2704   20678847.3534
        49.8004         47.0004
   -783792.97943   -594212.55846  24756379.848    24756379.0924   24756381.7714
        38.3004         36.0004
                    -54935.76855  25080286.024                    25080290.2204
                        34.0004
  -6986155.74544  -5432911.77446  22857762.674    22857763.2964   22857765.9094
        43.2004         40.6004
  -6725099.17045  -5225014.61746  22702038.771    22702037.8474   22702038.6474
        43.7004         40.9004
 -20377095.50947 -15839769.12948  20151715.210    20151715.1384   20151719.4944
        51.2004         48.4004
  -5718345.73444  -4169638.03346  23402936.598    23402936.3664   23402940.4264
        41.6004         39.0004
 -17874047.65546 -13388810.71647  21284631.733    21284631.4284   21284631.5824
        47.9004         44.9004
 16  6 13  1 33  0.0000000  0  8G 6G19G26G 7G 2G 9G 3G23
 -12061831.19446  -9381993.94847  20681989.452    20681990.1344   20681995.5004
        49.5004         46.5004
   -684844.09443   -517109.54345  24775209.612    24775208.7974   24775211.1534
        38.2004         35.9004
   -100103.58542    -74741.14045  25075450.419    25075449.3734   25075454.9594
        35.7004         34.8004
  -7083033.56744  -5508400.95746  22839328.278    22839328.1714   22839330.9234
        43.4004         40.6004
  -6798057.49445  -5281865.25846  22688155.301    22688154.4304   22688154.8804
        43.7004         41.2004
 -20370957.15847 -15834985.98948  20152882.747    20152883.1404   20152887.7454
        51.2004         48.4004
  -5627445.02944  -4098806.31546  23420232.754    23420233.4414   23420239.6294
        41.5004         38.8004
 -17821310.46646 -13347716.80647  21294667.041    21294667.1504   21294667.1014
        47.9004         45.1004
 16  6 13  1 33 30.0000000  0  8G 6G19G26G 7G 2G 9G 3G23
 -12044687.59346  -9368635.31147  20685251.992    20685252.4584   20685257.7644
        49.3004         46.5004
   -585792.78043   -439926.71745  24794059.110    24794057.0704   24794059.4224
        37.8004         35.5004
   -125010.53942    -94149.11445  25070708.072    25070706.5314   25070715.0214
        36.4004         34.8004
  -7179671.52544  -5583703.23746  22820939.039    22820939.0894   22820940.9694
        43.4004         40.7004
  -6870645.06845  -5338427.00446  22674341.884    22674341.4584   22674342.3884
        43.9004         41.2004
 -20364369.54947 -15829852.77948  20154136.167    20154136.3694   20154141.1984
        51.0004         48.2004
  -5536379.80844  -4027846.41346  23437564.123    23437562.6644   23437567.9644
        41.3004         38.6004
 -17768257.40346 -13306376.75447  21304763.229    21304762.6744   21304763.2294
        47.9004         45.1004
 16  6 13  1 34  0.0000000  0  8G 6G19G26G 7G 2G 9G 3G23
 -12026945.42846  -9354810.25347  20688628.259    20688628.5684   20688633.9514
        49.3004         46.5004
   -486642.32342   -362666.65745  24812924.766    24812923.9274   24812927.7254
        37.3004         35.2004
   -149406.16152   -113158.69955  25066064.847    25066064.7744   25066072.7674
        36.1004         34.3004
  -7276067.08345  -5658816.63946  22802594.831    22802595.0704   22802597.1334
        43.6004         40.9004
  -6942859.43045  -5394697.93546  22660600.122    22660599.5024   22660600.5674
        44.1004         41.4004
 -20357333.51747 -15824370.14748  20155475.249    20155475.2974   20155479.9674
        51.0004         48.2004
  -5445150.93244  -3956759.00446  23454922.465    23454923.1684   23454927.0644
        41.1004         38.5004
 -17714889.54646 -13264791.41047  21314918.328    21314917.5594   21314919.0194
        47.9004         45.1004
 16  6 13  1 34 30.0000000  0  8G 6G19G26G 7G 2G 9G 3G23
 -12008604.99146  -9340519.00547  20692118.093    20692118.5464   20692124.0864
        49.3004         46.5004
   -387395.89642   -285331.77845  24831813.271    24831812.0514   24831814.1434
        37.3004         35.3004
   -173289.12942   -131768.83545  25061522.425    25061521.2784   25061529.1304
        36.6004         35.0004
  -7372217.72645  -5733739.19146  22784297.128    22784297.5374   22784300.8104
        43.7004         41.1004
  -7014698.31545  -5450676.28646  22646930.117    22646929.5364   22646930.1704
        44.1004         41.2004
 -20349849.88147 -15818538.73048  20156899.674    20156899.7444   20156904.1324
        51.2004         48.4004
  -5353759.21044  -3885544.70946  23472313.340    23472314.2184   23472318.2154
        40.8004         38.1004
 -17661208.56246 -13222962.07247  21325133.327    21325133.2174   21325134.0224
        47.9004         45.1004
 16  6 13  1 35  0.0000000  0  8G 6G19G26G 7G 2G 9G 3G23
 -11989666.59946  -9325761.82047  20695722.189    20695722.2894   20695727.8814
        49.3004         46.5004
   -288056.34042   -207924.34645  24850713.798    24850714.1134   24850717.9714
        37.5004         35.5004
   -196657.95342   -149978.27545  25057074.176    25057074.7334   25057079.9614
        36.8004         35.0004
  -7468120.89445  -5808468.91246  22766048.201    22766048.2664   22766051.3124
        43.7004         40.9004
  -7086159.39745  -5506360.23946  22633330.634    22633330.3334   22633331.3094
        43.9004         41.1004
 -20341919.49147 -15812359.19248  20158409.159    20158408.9694   20158413.5024
        51.2004         48.4004
  -5262205.52444  -3814204.14846  23489735.963    23489736.4164   23489741.1174
        40.6004         37.9004
 -17607215.72646 -13180889.73347  21335407.915    21335407.3194   21335408.6044
        47.7004         44.7004
 16  6 13  1 35 30.0000000  0  8G 6G19G26G 7G 2G 9G 3G23
 -11970130.59146  -9310538.97147  20699440.004    20699440.2724   20699444.9974
        49.3004         46.5004
   -188626.91843   -130446.91945  24869637.869    24869636.4414   24869638.1854
        37.6004         35.5004
   -219511.39442   -167786.12045  25052724.017    25052726.7834   25052734.7884
        36.8004         34.6004
  -7563773.53045  -5883003.39346  22747845.336    22747845.5634   22747849.8904
        43.7004         40.9004
  -7157240.47845  -5561748.10746  22619805.189    22619804.0754   22619804.7694
        43.9004         41.2004
 -20333543.17947 -15805832.18948  20160002.576    20160002.6124   20160007.4634
        51.2004         48.5004
  -5170490.64644  -3742738.03846  23507188.286    23507188.3954   23507194.2504
        40.6004         37.9004
 -17552912.75746 -13138575.72947  21345740.970    21345741.1104   21345741.6784
        47.7004         44.9004
 16  6 13  1 36  0.0000000  0  8G 6G19G26G 7G 2G 9G 3G23
 -11949997.35246  -9294850.73247  20703271.225    20703271.5344   20703276.7604
        49.3004         46.6004
    -89110.84643    -52901.97445  24888574.482    24888573.1354   24888575.8594
        37.8004         35.7004
   -241848.24142   -185191.44345  25048475.076    25048474.4504   25048482.6184
        36.3004         34.5004
  -7659173.34045  -5957340.87146  22729691.697    22729691.6714   22729695.2524
        43.6004         40.7004
  -7227939.21945  -5616838.01946  22606350.891    22606350.3094   22606351.2564
        44.1004         41.2004
 -20324721.78947 -15798958.36848  20161681.120    20161681.2674   20161685.9864
        51.2004         48.4004
  -5078615.40743  -3671146.93046  23524670.769    23524671.4184   23524677.7474
        40.4004         37.9004
 -17498300.92046 -13096021.05547  21356133.474    21356133.1754   21356134.3154
        47.5004         44.7004
 16  6 13  1 36 30.0000000  0  8G 6G19G26G 7G 2G 9G 3G23
 -11929267.23746  -9278697.39647  20707215.785    20707216.3754   20707221.7074
        49.5004         46.6004
     10489.07843     24708.34645  24907526.292    24907526.3014   24907529.6654
        37.6004         35.3004
   -263666.99742   -202193.08545  25044324.853    25044323.0874   25044329.2954
        36.3004         34.5004
  -7754317.81245  -6031479.38346  22711586.156    22711585.3294   22711589.9644
        43.6004         40.7004
  -7298253.56145  -5671628.42346  22592971.361    22592970.5204   22592971.4964
        44.4004         41.9004
 -20315456.21047 -15791738.43148  20163444.531    20163444.4984   20163449.0424
        51.2004         48.4004
  -4986580.65943  -3599431.55146  23542184.797    23542184.8834   23542192.1204
        40.4004         37.9004
 -17443381.49746 -13053226.70147  21366584.529    21366584.1734   21366584.9264
        47.5004         44.7004
 16  6 13  1 37  0.0000000  0  8G 6G19G26G 7G 2G 9G 3G23
 -11907940.69546  -9262079.32147  20711273.858    20711274.3824   20711280.0414
        49.5004         46.6004
    110169.36342    102381.24645  24926496.559    24926495.3904   24926498.2304
        37.1004         35.0004
   -284966.63042   -218790.11645  25040264.848    25040265.4384   25040276.1984
        35.9004         34.0004
  -7849204.73345  -6105417.22146  22693529.578    22693530.0154   22693532.9984
        43.6004         40.9004
  -7368181.22445  -5726117.50746  22579664.301    22579663.6264   22579664.6174
        44.8004         41.9004
 -20305747.28247 -15784173.02548  20165291.991    20165292.0604   20165296.5864
        51.2004         48.4004
  -4894387.16743  -3527592.46546  23559727.178    23559728.4244   23559736.2624
        40.3004         37.8004
 -17388156.14146 -13010193.95847  21377093.745    21377093.1764   21377093.8314
        47.5004         44.7004
 16  6 13  1 37 30.0000000  0  8G 6G19G26G 7G 2G 9G 3G23
 -11886018.13646  -9244996.81947  20715445.732    20715446.2724   20715451.9104
        49.5004         46.8004
    209927.27042    180114.63645  24945478.229    24945479.1794   24945480.6714
        36.8004         34.6004
   -305745.56042   -234981.50545  25036314.540    25036313.5584   25036323.1974
        35.7004         34.0004
  -7943831.07045  -6179152.00546  22675523.964    22675523.7664   22675525.8214
        43.9004         41.2004
  -7437719.88245  -5780303.46247  22566431.365    22566431.3774   22566431.9954
        44.8004         42.1004
 -20295595.90647 -15776262.85048  20167223.605    20167223.5514   20167228.1754
        51.0004         48.4004
  -4802035.80043  -3455630.38046  23577303.813    23577303.5834   23577310.1654
        40.4004         37.9004
 -17332626.15646 -12966923.84447  21387660.408    21387660.1054   21387660.7934
        47.5004         44.5004
 16  6 13  1 38  0.0000000  0  8G 6G19G26G 7G 2G 9G 3G23
 -11863500.03746  -9227450.25247  20719731.352    20719731.6194   20719736.6284
        49.5004         46.6004
    309759.57742    257906.01945  24964477.095    24964475.8514   24964477.4664
        36.4004         34.3004
   -326002.76242   -250766.31145  25032460.463    25032459.1014   25032467.5514
        35.2004         33.6004
  -8038194.04645  -6252681.57846  22657567.029    22657567.2034   22657569.2344
        44.1004         41.6004
  -7506867.13945  -5834184.43946  22553272.619    22553272.2364   22553273.3034
        44.9004         41.9004
 -20285002.96947 -15768008.60248  20169239.218    20169239.2104   20169243.9714
        51.0004         48.4004
  -4709527.46044  -3383545.97146  23594907.343    23594907.8544   23594914.3334
        40.6004         38.1004
 -17276792.95546 -12923417.45447  21398284.796    21398284.6824   21398285.5114
        47.4004         44.4004
 16  6 13  1 38 30.0000000  0  8G 6G19G26G 7G 2G 9G 3G23
 -11840386.87846  -9209440.01147  20724129.589    20724129.8274   20724134.5454
        49.5004         46.6004
    409663.18442    335752.91145  24983488.669    24983486.2924   24983488.5964
        36.1004         34.3004
   -345737.07242   -266143.68445  25028701.367    25028703.2934   25028713.4514
        35.2004         33.8004
  -8132291.37945  -6326004.15846  22639660.409    22639661.4214   22639663.1104
        44.2004         41.6004
  -7575620.76245  -5887758.68847  22540189.968    22540189.6454   22540189.9224
        44.9004         42.1004
 -20273969.36647 -15759410.98348  20171338.584    20171338.6974   20171343.7954
        51.0004         48.2004
  -4616862.93444  -3311339.84646  23612540.610    23612541.8344   23612547.3974
        40.6004         38.1004
 -17220657.90146 -12879675.85247  21408966.906    21408966.8114   21408967.4884
        47.4004         44.4004
 16  6 13  1 39  0.0000000  0  8G 6G19G26G 7G 2G 9G 3G23
 -11816679.15246  -9190966.47147  20728640.411    20728640.8414   20728646.2794
        49.5004         46.5004
    509634.86542    413652.91445  25002510.418    25002512.7074   25002512.7444
        35.6004         33.6004
   -364947.27342   -281112.66445  25025046.823    25025047.0104   25025055.7694
        35.6004         34.0004
  -8226120.77745  -6399117.94746  22621804.615    22621805.2004   22621808.2864
        44.2004         41.6004
  -7643978.76245  -5941024.66547  22527181.711    22527181.2714   22527181.6874
        44.9004         42.1004
 -20262495.96047 -15750470.66748  20173522.452    20173522.4684   20173527.1274
        51.0004         48.2004
  -4524043.05744  -3239012.70446  23630206.427    23630204.6814   23630210.8734
        40.8004         38.3004
 -17164222.69346 -12835700.37447  21419706.256    21419706.2794   21419706.6034
        47.2004         44.4004
 16  6 13  1 39 30.0000000  0  8G 6G19G26G 7G 2G 9G 3G23
 -11792377.38946  -9172030.04647  20733264.347    20733265.2494   20733271.0104
        49.3004         46.5004
    609672.07342    491603.96345  25021547.669    25021546.6814   25021548.0404
        35.2004         33.6004
   -383632.12142   -295672.29845  25021494.706    25021493.1544   25021498.9174
        35.9004         34.5004
  -8319679.62745  -6472020.92746  22604000.774    22604001.4114   22604004.8084
        44.2004         41.4004
  -7711938.98745  -5993980.68646  22514249.629    22514248.7794   22514249.3994
        44.9004         41.9004
 -20250583.72247 -15741188.40248  20175789.551    20175789.3944   20175793.8814
        51.0004         48.2004
  -4431068.67944  -3166565.11046  23647893.549    23647896.7844   23647902.7264
        40.6004         37.9004
 -17107488.72946 -12791492.09747  21430503.196    21430502.6884   21430503.3894
        47.4004         44.5004
 16  6 13  1 40  0.0000000  0  8G 6G19G26G 7G 2G 9G 3G23
 -11767482.17946  -9152631.19447  20738002.790    20738003.1904   20738008.0934
        49.3004         46.5004
    709771.26942    569603.27845  25040595.854    25040597.2794   25040597.8514
        34.7004         33.1004
   -401790.49742   -309821.70145  25018033.994    25018035.9984   25018042.4554
        36.1004         34.1004
  -8412965.44145  -6544711.12546  22586249.168    22586250.1554   22586252.8414
        44.2004         41.2004
  -7779498.95145  -6046624.80646  22501393.391    22501392.2774   22501393.5624
        44.6004         41.8004
 -20238233.55647 -15731564.89248  20178139.516    20178139.3434   20178144.0714
        51.0004         48.2004
  -4337940.60943  -3093997.82446  23665616.910    23665617.7674   23665624.0264
        40.3004         37.8004
 -17050457.22546 -12747051.96447  21441354.831    21441354.9864   21441356.1914
        47.4004         44.5004
 16  6 13  1 40 30.0000000  0  8G 6G19G26G 7G 2G 9G 3G23
 -11741994.08046  -9132770.35247  20742852.665    20742853.1704   20742858.2264
        49.3004         46.3004
    809929.34542    647648.52945  25059655.551    25059653.2384   25059659.7624
        35.0004         33.6004
   -419421.35142   -323560.03445  25014684.636    25014684.2844   25014689.2834
        36.1004         34.3004
  -8505975.82545  -6617186.72446  22568549.495    22568549.8954   22568553.5054
        44.1004         41.2004
  -7846656.20945  -6098955.13447  22488613.643    22488612.7504   22488613.9324
        44.8004         42.1004
 -20225446.40147 -15721600.86848  20180572.428    20180572.1854   20180577.1374
        50.8004         48.2004
  -4244659.71043  -3021311.41246  23683367.435    23683367.8554   23683374.4174
        39.9004         37.4004
 -16993129.83446 -12702381.27847  21452264.892    21452264.7244   21452265.2714
        47.5004         44.7004
 16  6 13  1 41  0.0000000  0  8G 6G19G26G 7G 2G 9G 3G23
 -11715913.69646  -9112447.98647  20747815.558    20747816.1494   20747821.4084
        49.3004         46.5004
    910143.51242    725737.52745  25078724.367    25078723.4614   25078729.6954
        35.2004         33.8004
   -436523.52442   -336886.39245  25011429.234    25011429.1464   25011434.7164
        36.1004         34.3004
  -8598707.59545  -6689445.20046  22550902.401    22550903.4384   22550907.2134
        43.9004         41.2004
  -7913409.06245  -6150970.34646  22475910.991    22475910.6394   22475911.1984
        44.8004         41.9004
 -20212223.16247 -15711297.03448  20183088.475    20183088.7704   20183093.5034
        50.8004         48.2004
  -4151226.82943  -2948506.56446  23701144.158    23701147.2154   23701153.4184
        39.9004         37.4004
 -16935507.67046 -12657480.88947  21463230.075    21463229.7454   21463229.7784
        47.5004         44.5004
 16  6 13  1 41 30.0000000  0  8G 6G19G26G 7G 2G 9G 3G23
 -11689241.65546  -9091664.59547  20752891.698    20752892.0914   20752897.0844
        49.3004         46.5004
   1010410.71942    803867.78645  25097803.288    25097803.4024   25097808.5744
        35.4004         34.1004
   -453095.91742   -349799.94445  25008273.448    25008274.3414   25008281.1474
        35.7004         34.0004
  -8691158.17645  -6761484.59346  22533310.907    22533311.7534   22533314.7654
        43.9004         41.2004
  -7979755.19045  -6202668.63146  22463285.940    22463285.1734   22463285.5624
        44.8004         41.9004
 -20198564.80147 -15700654.14848  20185687.714    20185688.0124   20185692.5834
        51.0004         48.2004
  -4057642.86243  -2875583.97546  23718957.648    23718956.2324   23718962.9634
        39.7004         37.3004
 -16877592.16946 -12612351.93047  21474251.237    21474250.6894   21474251.6364
        47.5004         44.5004
 16  6 13  1 42  0.0000000  0  8G 6G19G26G 7G 2G 9G 3G23
 -11661978.60746  -9070420.67747  20758079.683    20758079.8184   20758085.0264
        49.3004         46.5004
   1110727.81242    882036.90445  25116895.513    25116894.4784   25116896.2744
        35.4004         33.8004
   -469137.50442   -362299.96345  25005223.118    25005222.1164   25005227.5064
        35.7004         34.3004
  -8783325.74145  -6833303.44346  22515771.976    22515771.9954   22515775.8434
        44.1004         41.2004
  -8045692.33545  -6254048.23246  22450739.080    22450738.2954   22450738.2964
        44.8004         41.9004
 -20184472.29047 -15689672.96748  20188369.597    20188369.6264   20188374.5264
        51.0004         48.4004
  -3963908.58843  -2802544.31446  23736794.832    23736793.6054   23736799.8884
        39.7004         37.3004
 -16819384.81146 -12566995.55247  21485327.145    21485326.7194   21485327.4794
        47.4004         44.5004
 16  6 13  1 42 30.0000000  0  8G 6G19G26G 7G 2G 9G 3G23
 -11634125.21246  -9048716.74647  20763379.741    20763380.3314   20763385.2004
        49.3004         46.5004
   1211091.71042    960242.46745  25135993.854    25135992.4094   25135996.7084
        35.4004         34.0004
   -484647.30542   -374385.52745  25002273.197    25002273.0064   25002277.8974
        36.3004         34.6004
  -8875207.50845  -6904899.59446  22498287.145    22498287.6894   22498291.3884
        44.2004         41.4004
  -8111218.28645  -6305107.42646  22438269.451    22438269.0514   22438269.2144
        44.6004         41.8004
 -20169946.56547 -15678354.21748  20191134.658    20191134.1224   20191138.8374
        51.0004         48.4004
  -3870024.89043  -2729388.17346  23754658.063    23754659.1194   23754665.5744
        39.6004         37.1004
 -16760887.22146 -12521413.01747  21496459.756    21496459.4554   21496459.6674
        47.4004         44.7004
 16  6 13  1 43  0.0000000  0  8G 6G19G26G 7G 2G 9G 3G23
 -11605682.16146  -9026553.34947  20768792.464    20768792.9594   20768797.9554
        49.3004         46.6004
   1311499.44542   1038482.22145  25155100.958    25155098.7754   25155102.4804
        35.7004         34.1004
   -499624.22442   -386055.84245  24999420.620    24999423.3364   24999429.0894
        36.6004         34.8004
  -8966800.88145  -6976271.03846  22480858.069    22480858.0314   22480862.4084
        44.4004         41.8004
  -8176331.02645  -6355844.62746  22425877.985    22425877.5214   22425879.1484
        44.4004         41.8004
 -20154988.61047 -15666698.66248  20193980.434    20193980.2044   20193985.1684
        51.0004         48.4004
  -3775992.64143  -2656116.30146  23772551.003    23772552.0004   23772558.6824
        39.4004         36.9004
 -16702100.63446 -12475605.29447  21507645.985    21507645.3634   21507646.1344
        47.4004         44.4004
 16  6 13  1 43 30.0000000  0  8G 6G19G26G 7G 2G 9G 3G23
 -11576650.21546  -9003931.06847  20774316.738    20774317.1904   20774322.8424
        49.5004         46.6004
   1411948.07442   1116753.85945  25174216.196    25174215.5334   25174217.0234
        36.4004         34.8004
   -514067.32542   -397310.19945  24996672.709    24996673.4124   24996679.1344
        36.4004         34.5004
  -9058103.26045  -7047415.72646  22463482.584    22463484.1164   22463487.6894
        44.4004         41.6004
  -8241027.95045  -6406257.81746  22413567.614    22413565.7424   22413567.5144
        44.4004         41.6004
 -20139599.39947 -15654707.06048  20196908.674    20196908.6034   20196913.5274
        51.0004         48.4004
  -3681812.64343  -2582729.31046  23790476.456    23790475.7594   23790479.8484
        39.2004         36.9004
 -16643026.67546 -12429573.64447  21518886.881    21518886.8354   21518887.4404
        47.4004         44.4004
 16  6 13  1 44  0.0000000  0  8G 6G19G26G 7G 2G 9G 3G23
 -11547030.08846  -8980850.46247  20779953.700    20779954.1194   20779959.4284
        49.5004         46.6004
   1512434.40242   1195054.85945  25193339.446    25193338.2164   25193339.6194
        36.6004         34.8004
   -527975.68542   -408147.88345  24994024.274    24994025.6044   24994033.1174
        35.9004         34.0004
  -9149112.73645  -7118332.17646  22446164.061    22446164.7054   22446168.7314
        44.2004         41.4004
  -8305307.30045  -6456345.61546  22401334.762    22401333.5684   22401334.6224
        44.4004         41.6004
 -20123779.90247 -15642380.17148  20199918.902    20199918.9334   20199923.7834
        51.0004         48.4004
  -3587485.81943  -2509227.87546  23808421.732    23808423.9154   23808429.7864
        39.0004         36.6004
 -16583666.53046 -12383318.99047  21530182.993    21530182.8434   21530182.7784
        47.4004         44.5004
 16  6 13  1 44 30.0000000  0  8G 6G19G26G 7G 2G 9G 3G23
 -11516822.53046  -8957312.12747  20785701.978    20785702.1064   20785707.7234
        49.5004         46.5004
   1612955.76342   1273383.14845  25212467.269    25212466.0914   25212469.2894
        37.1004         35.2004
   -541348.28242   -418568.07745  24991479.510    24991477.8524   24991487.1664
        35.7004         34.0004
  -9239826.23045  -7189017.99346  22428902.490    22428902.5974   22428906.2044
        44.2004         41.4004
  -8369167.05845  -6506106.48046  22389182.351    22389182.6884   22389182.7064
        44.4004         41.8004
 -20107531.13647 -15629718.79948  20203011.129    20203011.0124   20203015.7784
        51.2004         48.4004
  -3493012.95043  -2435612.66846  23826403.276    23826402.4524   23826409.2164
        39.2004         36.9004
 -16524021.78246 -12336842.56947  21541532.966    21541532.8744   21541532.9254
        47.2004         44.4004
 16  6 13  1 45  0.0000000  0  8G 6G19G26G 7G 2G 9G 3G23
 -11486028.32646  -8933316.64447  20791561.244    20791561.8384   20791567.2894
        49.3004         46.3004
   1713508.64142   1351736.02745  25231602.371    25231600.6584   25231604.0844
        37.5004         35.3004
   -554184.15242   -428570.07145  24989037.608    24989036.7394   24989045.3274
        35.2004         33.6004
  -9330241.34945  -7259471.30646  22411698.151    22411698.2504   22411701.4584
        44.2004         41.4004
  -8432604.71345  -6555538.41947  22377111.166    22377110.8954   22377111.3804
        44.6004         42.1004
 -20090854.09047 -15616723.69148  20206184.700    20206184.5704   20206189.4264
        51.2004         48.4004
  -3398395.01143  -2361884.41946  23844407.449    23844407.6044   23844412.7294
        39.0004         36.7004
 -16464093.69846 -12290145.37747  21552937.146    21552936.8314   21552936.9354
        47.2004         44.4004
 16  6 13  1 45 30.0000000  0  8G 6G19G26G 7G 2G 9G 3G23
 -11454648.32846  -8908864.70547  20797533.260    20797533.9444   20797538.6574
        49.3004         46.5004
   1814090.09143   1430111.12545  25250741.765    25250740.5234   25250743.6364
        37.8004         35.9004
   -566482.52442   -438153.21645  24986699.050    24986697.4784   24986705.0354
        35.2004         33.6004
  -9420355.56945  -7329690.15946  22394550.214    22394550.5404   22394552.7404
        44.1004         41.4004
  -8495618.25745  -6604639.88647  22365120.007    22365119.7804   22365120.0834
        44.9004         42.3004
 -20073749.76247 -15603395.64248  20209439.243    20209439.3184   20209444.4974
        51.2004         48.4004
  -3303632.73443  -2288043.71046  23862439.672    23862439.5314   23862444.7654
        38.7004         36.4004
 -16403883.89546 -12243228.64447  21564395.339    21564394.6094   21564394.5474
        47.4004         44.5004
 16  6 13  1 46  0.0000000  0  8G 6G19G26G 7G 2G 9G 3G23
 -11422683.33046  -8883956.92347  20803615.975    20803616.4704   20803621.4954
        49.3004         46.5004
   1914697.35443   1508506.35346  25269886.398    25269885.8094   25269889.1974
        38.2004         36.0004
   -578242.40242   -447316.74945  24984457.765    24984459.9224   24984464.2234
        34.9004         33.4004
  -9510166.80745  -7399672.91346  22377459.487    22377459.5484   22377461.7734
        44.1004         41.4004
  -8558205.40645  -6653409.08647  22353210.300    22353209.0274   22353210.1634
        44.9004         42.3004
 -20056219.20447 -15589735.46548  20212774.873    20212775.0664   20212780.5754
        51.0004         48.4004
  -3208727.16043  -2214091.33246  23880497.281    23880499.5434   23880505.1734
        38.5004         36.4004
 -16343393.56046 -12196093.31947  21575906.322    21575905.5644   21575905.8474
        47.4004         44.5004
 16  6 13  1 46 30.0000000  0  8G 6G19G26G 7G 2G 9G 3G23
 -11390134.22646  -8858593.99147  20809809.410    20809810.0904   20809815.7614
        49.3004         46.5004
   2015327.62443   1586919.47546  25289036.041    25289035.6864   25289038.5364
        38.3004         36.2004
   -589463.03442   -456060.14145  24982326.833    24982324.4324   24982330.7354
        35.0004         33.4004
  -9599672.23445  -7469417.37046  22360426.046    22360426.6094   22360430.0674
        44.1004         41.2004
  -8620364.15345  -6701844.46847  22341381.855    22341381.1314   22341381.8294
        44.9004         42.1004
 -20038263.37047 -15575743.90848  20216192.323    20216192.3564   20216197.2604
        51.0004         48.4004
  -3113678.97143  -2140027.83546  23898586.594    23898587.1204   23898592.6374
        38.7004         36.4004
 -16282624.36646 -12148740.70447  21587469.269    21587468.9524   21587469.8124
        47.2004         44.4004
 16  6 13  1 47  0.0000000  0  8G 6G19G26G 7G 2G 9G 3G23
 -11357001.87946  -8832776.58847  20816114.459    20816114.9554   20816120.5574
        49.3004         46.5004
   2115977.60443   1665347.98546  25308188.603    25308187.7394   25308191.3264
        38.5004         36.4004
   -600143.47442   -464382.53045  24980292.410    24980294.0754   24980296.9914
        35.4004         33.8004
  -9688869.83445  -7538921.97046  22343452.684    22343453.2204   22343455.8414
        43.9004         41.1004
  -8682092.62845  -6749944.57647  22329634.658    22329634.1594   22329635.1124
        45.1004         42.5004
 -20019883.31647 -15561421.78548  20219690.305    20219689.9034   20219694.7604
        51.0004         48.4004
  -3018489.14243  -2065853.94946  23916703.382    23916702.1264   23916707.1494
        38.9004         36.6004
 -16221577.42346 -12101171.65947  21599086.049    21599085.6074   21599086.5894
        47.2004         44.4004
 16  6 13  1 47 30.0000000  0  8G 6G19G26G 7G 2G 9G 3G23
 -11323287.16046  -8806505.39447  20822530.680    20822531.2444   20822536.1194
        49.3004         46.6004
   2216644.33543   1743789.57246  25327343.999    25327343.4134   25327347.1364
        38.3004         36.0004
   -610282.78842   -472283.35345  24978362.315    24978364.3034   24978370.3674
        35.4004         33.6004
  -9777756.43445  -7608184.23646  22326539.318    22326538.5894   22326542.0014
        43.9004         41.1004
  -8743388.47545  -6797707.55747  22317970.734    22317970.6424   22317971.0584
        45.1004         42.3004
 -20001080.07647 -15546769.90948  20223268.166    20223268.1474   20223272.7264
        51.0004         48.2004
  -2923158.54843  -1991570.41446  23934842.744    23934842.0484   23934847.3464
        39.0004         36.7004
 -16160254.21446 -12053387.34847  21610755.711    21610755.2354   21610755.9474
        47.2004         44.4004
 16  6 13  1 48  0.0000000  0  8G 6G19G26G 7G 2G 9G 3G23
 -11288991.04946  -8779781.15947  20829056.596    20829057.0854   20829062.6674
        49.3004         46.5004
   2317324.84943   1822241.88645  25346502.807    25346502.6504   25346505.5194
        38.0004         35.9004
   -619880.65242   -479762.23645  24976538.110    24976537.6664   24976543.7344
        35.9004         34.3004
  -9866329.78245  -7677202.40046  22309683.240    22309682.6854   22309687.4114
        43.9004         41.2004
  -8804249.69345  -6845131.88747  22306389.648    22306389.0304   22306389.5184
        45.1004         42.5004
 -19981854.70247 -15531789.09648  20226926.573    20226926.5674   20226931.1884
        51.0004         48.2004
  -2827688.04143  -1917177.80646  23953008.098    23953009.9754   23953015.6034
        39.4004         37.1004
 -16098656.20146 -12005388.89847  21622476.885    21622476.6654   21622477.6734
        47.0004         44.2004
 16  6 13  1 48 30.0000000  0  8G 6G19G26G 7G 2G 9G 3G23
 -11254114.45746  -8752604.61247  20835693.951    20835694.3054   20835699.1704
        49.3004         46.5004
   2418016.41343   1900702.82645  25365666.436    25365664.3794   25365666.6334
        37.6004         35.3004
   -628936.00242   -486818.32545  24974811.421    24974813.4784   24974821.5264
        36.1004         34.3004
  -9954587.81645  -7745974.85846  22292888.415    22292888.7854   22292892.1564
        44.1004         41.4004
  -8864674.12345  -6892215.85147  22294891.349    22294890.9624   22294890.9324
        45.3004         42.5004
 -19962208.23047 -15516480.16248  20230665.539    20230665.4974   20230669.8624
        51.0004         48.2004
  -2732078.48343  -1842676.87246  23971206.299    23971203.7324   23971210.9514
        39.6004         37.3004
 -16036784.91446 -11957177.51147  21634250.813    21634250.1894   21634251.5274
        47.0004         44.0004
 16  6 13  1 49  0.0000000  0  8G 6G19G26G 7G 2G 9G 3G23
 -11218658.38146  -8724976.50847  20842440.819    20842441.1484   20842446.2474
        49.3004         46.5004
   2518715.90342   1979169.96245  25384827.908    25384826.6234   25384829.0084
        37.3004         35.2004
   -637448.09842   -493451.15945  24973194.653    24973194.1764   24973199.1594
        36.3004         34.5004
 -10042527.96745  -7814499.62146  22276154.863    22276153.9744   22276157.3384
        44.2004         41.6004
  -8924660.00545  -6938958.09647  22283475.688    22283475.0894   22283476.7674
        45.3004         42.5004
 -19942141.71847 -15500843.91048  20234483.641    20234483.9684   20234488.1544
        51.0004         48.2004
  -2636330.79843  -1768068.34446  23989424.484    23989424.2304   23989431.0704
        39.7004         37.3004
 -15974641.63746 -11908754.17747  21646076.062    21646076.3284   21646077.0134
        46.9004         44.0004
 16  6 13  1 49 30.0000000  0  8G 6G19G26G 7G 2G 9G 3G23
 -11182623.82046  -8696897.63747  20849297.505    20849298.2884   20849303.7714
        49.3004         46.5004
   2619420.25842   2057640.85445  25403991.293    25403989.3214   25403992.8174
        36.6004         34.5004
   -645416.28642   -499660.12545  24971676.734    24971675.2924   24971684.5524
        36.3004         34.3004
 -10130147.72845  -7882774.74046  22259480.026    22259480.4274   22259483.8374
        44.4004         41.8004
  -8984204.70745  -6985356.55747  22272145.111    22272144.2854   22272145.3184
        45.5004         42.6004
 -19921656.23947 -15484881.19148  20238382.082    20238381.9064   20238386.2114
        51.0004         48.2004
  -2540445.82743  -1693352.77746  24007665.279    24007668.7684   24007676.1614
        39.6004         36.9004
 -15912227.88646 -11860120.09047  21657953.907    21657953.4534   21657954.3884
        47.0004         44.2004
 16  6 13  1 50  0.0000000  0  8G 6G19G26G 7G 2G 9G 3G23
 -11146011.76846  -8668368.77647  20856264.768    20856265.2084   20856270.6124
        49.3004         46.5004
   2720126.67742   2136113.34745  25423155.681    25423154.7944   25423156.7164
        35.7004         34.0004
   -652839.82542   -505444.72445  24970264.161    24970263.9384   24970273.1034
        36.3004         34.5004
 -10217444.54445  -7950798.20746  22242869.718    22242868.7434   22242872.0134
        44.4004         41.8004
  -9043306.46445  -7031409.85747  22260897.990    22260897.6044   22260898.8474
        45.3004         42.5004
 -19900752.84247 -15468592.82848  20242359.567    20242359.6744   20242364.2404
        50.8004         48.2004
  -2444424.43643  -1618530.90846  24025941.727    24025942.5074   24025947.3314
        39.4004         36.9004
 -15849545.13446 -11811276.40347  21669882.118    21669881.4984   21669882.5694
        47.0004         44.0004
 16  6 13  1 50 30.0000000  0  8G 6G19G26G 7G 2G 9G 3G23
 -11108823.25646  -8639390.72547  20863341.343    20863341.8534   20863347.1624
        49.3004         46.5004
   2820832.00342   2214585.04445  25442318.923    25442314.9864   25442321.1044
        35.2004         33.4004
   -659718.12142   -510804.43645  24968954.373    24968954.6714   24968964.2444
        35.9004         34.3004
 -10304416.21445  -8018568.31146  22226318.495    22226318.4404   22226320.8734
        44.6004         41.8004
  -9101963.39045  -7077116.54347  22249736.083    22249735.2414   22249736.7034
        45.3004         42.5004
 -19879432.59847 -15451979.64648  20246416.523    20246416.7694   20246421.6494
        51.0004         48.2004
  -2348267.56043  -1543603.53046  24044243.744    24044241.3244   24044245.3464
        39.2004         36.7004
 -15786594.46346 -11762223.92847  21681860.546    21681860.3464   21681861.2504
        46.9004         44.0004
 16  6 13  1 51  0.0000000  0  8G 6G19G26G 7G 2G 9G 3G23
 -11071059.35846  -8609964.32447  20870527.769    20870528.1834   20870533.3794
        49.1004         46.3004
   2921533.58842   2293053.76845  25461481.212    25461479.4354   25461484.8784
        34.7004         32.9004
   -666050.41542   -515738.68445  24967751.046    24967751.2104   24967761.0594
        35.9004         34.3004
 -10391060.19745  -8086083.08246  22209829.015    22209830.2544   22209833.7744
        44.6004         41.9004
  -9160173.21945  -7122474.84147  22238659.501    22238659.1684   22238658.9384
        45.3004         42.6004
 -19857696.60347 -15435042.50548  20250552.811    20250552.9514   20250557.8164
        51.0004         48.2004
  -2251976.05143  -1468571.21746  24062564.161    24062564.2544   24062569.7614
        39.0004         36.7004
 -15723377.41946 -11712963.91247  21693891.157    21693890.0914   21693891.0094
        46.9004         44.0004
 16  6 13  1 51 30.0000000  0  9G 6G19G26G 7G 2G30G 9G 3G23
 -11032721.17346  -8580090.42847  20877823.203    20877823.7014   20877829.1444
        49.1004         46.1004
   3022228.21641   2371517.06845  25480642.670    25480643.5374   25480645.1484
        34.0004         32.6004
   -671836.09042   -520247.02645  24966648.299    24966650.8964   24966656.5994
        35.9004         34.1004
 -10477374.09345  -8153340.62946  22193406.580    22193405.5254   22193409.3964
        44.8004         41.9004
  -9217934.05645  -7167483.28347  22227668.223    22227667.5334   22227667.0514
        45.5004         42.5004
                    -59428.62353  24099422.004
                        23.4004
 -19835545.92647 -15417782.23648  20254768.425    20254768.2544   20254772.9754
        51.0004         48.2004
  -2155550.81843  -1393434.67746  24080911.100    24080914.2904   24080919.6514
        39.2004         36.9004
 -15659895.45546 -11663497.44947  21705971.040    21705970.3974   21705971.3384
        46.9004         43.9004
 16  6 13  1 52  0.0000000  0  9G 6G19G26G 7G 2G30G 9G 3G23
 -10993809.79046  -8549769.87747  20885227.475    20885228.3044   20885233.8024
        49.1004         46.3004
   3122912.94441   2449972.69345  25499801.838    25499802.7004   25499805.5774
        33.3004         32.0004
   -677074.61442   -524329.00645  24965654.406    24965651.5524   24965660.4454
        36.1004         34.3004
 -10563355.42645  -8220339.05446  22177043.149    22177044.0514   22177047.7844
        44.8004         41.8004
  -9275243.84545  -7212140.27047  22216762.545    22216762.0974   22216762.3374
        45.5004         42.5004
                   -147349.38745  24077952.275
                        35.2004
 -19812981.68547 -15400199.71348  20259062.297    20259062.2214   20259066.9664
        51.0004         48.4004
  -2058992.70843  -1318194.65146  24099290.637    24099288.4974   24099293.7574
        39.2004         36.7004
 -15596149.88746 -11613825.58047  21718101.782    21718100.7204   21718101.4524
        46.9004         43.9004
 16  6 13  1 52 30.0000000  0  9G 6G19G26G 7G 2G30G 9G 3G23
 -10954326.32346  -8519003.55247  20892742.198    20892742.3214   20892747.6054
        49.1004         46.3004
   3223585.22851   2528418.57255  25518960.137    25518957.2644
        32.1004         31.5004
   -681765.40542   -527984.14645  24964760.282    24964760.2644   24964769.7894
        36.3004         34.5004
 -10649002.34545  -8287076.89246  22160744.870    22160745.7784   22160748.2244
        44.8004         41.9004
  -9332100.66145  -7256444.27447  22205942.383    22205942.2804   22205943.0884
        45.6004         42.8004
                   -235207.15945  24056499.681                    24056500.9894
                        35.7004
 -19790004.94047 -15382295.75248  20263434.771    20263434.3394   20263439.2074
        51.0004         48.4004
  -1962302.68643  -1242851.85146  24117689.735    24117688.7124   24117693.9584
        39.2004         36.9004
 -15532142.17646 -11563949.45147  21730281.019    21730281.0154   21730282.1684
        46.7004         43.9004
 16  6 13  1 53  0.0000000  0  9G 6G19G26G 7G 2G30G 9G 3G23
 -10914271.94246  -8487792.35547  20900363.547    20900364.0744   20900369.3654
        49.1004         46.1004
   3324240.8615    2606851.31055  25538111.804    25538116.3574
        30.5004         30.5004
   -685907.89742   -531212.06545  24963973.411    24963972.5114   24963980.1294
        36.3004         34.5004
 -10734311.86945  -8353551.81946  22144511.184    22144511.9264   22144514.6544
        44.8004         41.9004
  -9388502.53845  -7300393.77847  22195209.786    22195209.1454   22195210.2384
        45.6004         42.8004
   -432171.26942   -322999.84846  24035058.184    24035057.8474   24035059.9484
        37.5004         36.0004
 -19766616.83947 -15364071.25948  20267884.614    20267884.7394   20267889.6154
        51.0004         48.2004
  -1865481.63543  -1167406.89446  24136110.834    24136112.3484   24136117.9304
        39.6004         37.1004
 -15467873.62346 -11513870.06847  21742511.642    21742510.9744   21742511.7304
        46.7004         43.7004
 16  6 13  1 53 30.0000000  0  9G 6G19G26G 7G 2G30G 9G 3G23
 -10873647.82646  -8456137.21247  20908093.488    20908094.0254   20908099.7544
        48.8004         45.9004
                   2685270.35255  25557265.452
                        31.0004
   -689501.54542   -534012.32745  24963289.022    24963288.4944   24963295.5374
        36.8004         35.0004
 -10819281.93945  -8419762.24846  22128341.999    22128342.5334   22128344.5254
        44.6004         41.8004
  -9444447.38345  -7343987.16747  22184564.111    22184563.2624   22184564.2604
        46.0004         43.2004
   -544752.34543   -410725.34246  24013632.719    24013633.0624   24013636.8684
        38.3004         36.4004
 -19742818.44547 -15345527.05348  20272413.616    20272413.5114   20272418.3654
        51.0004         48.2004
  -1768530.39543  -1091860.53046  24154563.591    24154561.7214   24154567.2214
        39.4004         36.9004
 -15403345.90746 -11463588.74147  21754790.325    21754790.2644   21754790.9314
        46.5004         43.5004
 16  6 13  1 54  0.0000000  0 10G 6G19G26G 7G 2G30G 9G 3G23G16
 -10832455.13746  -8424039.01847  20915932.632    20915933.1734   20915938.3574
        48.8004         45.9004
                     32014.75153  25576412.823
                        23.4004
   -692545.87742   -536384.54545  24962710.393    24962710.8544   24962717.9674
        37.1004         35.3004
 -10903910.18745  -8485706.28146  22112237.719    22112238.3684   22112240.9724
        44.6004         41.9004
  -9499933.11145  -7387222.79047  22174005.112    22174004.4904   22174005.2514
        45.8004         43.0004
   -657244.65153   -498381.62756  23992223.920    23992224.3054   23992229.3594
        38.3004         36.0004
 -19718610.90047 -15326664.03448  20277020.830    20277020.2504   20277024.9284
        51.0004         48.2004
  -1671449.90443  -1016213.43246  24173035.653    24173035.2084   24173041.0814
        39.2004         36.9004
 -15338560.10546 -11413106.29747  21767118.636    21767118.1534   21767119.1904
        46.5004         43.5004
                   -145675.20455  24575541.413                    24575542.4764
                        34.1004
 16  6 13  1 54 30.0000000  0 10G 6G19G26G 7G 2G30G 9G 3G23G16
 -10790695.12246  -8391498.75747  20923879.276    20923880.0524   20923884.9664
        48.8004         45.8004
                    110427.90554  25595553.936
                        28.6004
   -695040.38842   -538328.28645  24962233.271    24962232.3874   24962241.9814
        37.0004         34.8004
 -10988194.21245  -8551382.13046  22096198.117    22096199.2854   22096202.0264
        44.8004         41.9004
  -9554957.97245  -7430099.30347  22163534.685    22163533.9984   22163534.0264
        45.8004         43.0004
   -769645.57943   -585966.70945  23970836.588    23970835.0344   23970840.7504
        38.2004         35.9004
 -19693995.33147 -15307483.07448  20281704.545    20281704.6044   20281708.9654
        51.0004         48.2004
  -1574240.99143   -940466.24246  24191535.015    24191534.2064   24191539.4764
        39.2004         36.7004
 -15273517.68645 -11362423.90247  21779495.691    21779495.6654   21779496.1544
        46.3004         43.3004
   -251929.14842   -186785.58645  24565497.825    24565498.0494   24565503.5194
        35.2004         33.6004
 16  6 13  1 55  0.0000000  0 10G 6G19G26G 7G 2G30G 9G 3G23G16
 -10748369.00146  -8358517.37747  20931933.310    20931934.0074   20931939.4164
        48.6004         45.8004
                    188842.54554  25614691.215
                        29.4004
   -696984.60942   -539843.27045  24961863.937    24961864.7974   24961870.6004
        36.4004         34.6004
 -11072131.43745  -8616787.73447  22080225.212    22080226.6934   22080228.9784
        44.9004         42.3004
  -9609519.93245  -7472615.11847  22153151.697    22153151.2864   22153151.6894
        45.8004         43.0004
   -881952.55343   -673478.60746  23949463.796    23949464.5534   23949469.3464
        38.3004         36.2004
 -19668972.82747 -15287985.01748  20286465.971    20286466.1964   20286470.4484
        51.0004         48.2004
  -1476904.61643   -864619.73546  24210056.116    24210054.6514   24210059.9064
        39.0004         36.6004
 -15208219.94945 -11311542.55747  21791921.718    21791920.8554   21791922.1444
        46.3004         43.5004
   -304221.63152   -227532.96655  24555543.367    24555549.9264   24555552.6164
        35.0004         33.6004
 16  6 13  1 55 30.0000000  0 10G 6G19G26G 7G 2G30G 9G 3G23G16
 -10705478.04046  -8325095.86047  20940094.989    20940095.6204   20940101.3964
        48.6004         45.8004
                     25459.81753  25633824.010
                        23.4004
   -698378.10742   -540929.13745  24961598.626    24961597.9164   24961606.1064
        36.4004         34.5004
 -11155719.53145  -8681921.29747  22064320.126    22064320.0304   22064323.5554
        45.1004         42.5004
  -9663617.01445  -7514768.69047  22142857.090    22142856.8814   22142857.0724
        46.0004         43.0004
   -994162.97943   -760915.27546  23928111.329    23928111.9544   23928116.1684
        38.3004         36.0004
 -19643544.56047 -15268170.78348  20291304.668    20291304.7494   20291309.3054
        51.0004         48.2004
  -1379441.73643   -788674.66946  24228600.060    24228601.8894   24228607.3664
        38.5004         36.0004
 -15142668.33245 -11260463.37447  21804395.680    21804395.1604   21804396.1814
        46.3004         43.3004
   -356045.92842   -267915.56145  24545687.659    24545686.3774   24545691.1204
        34.9004         33.3004
 16  6 13  1 56  0.0000000  0  9G 6G26G 7G 2G30G 9G 3G23G16
 -10662023.50646  -8291235.19547  20948364.796    20948365.0474   20948370.5784
        48.6004         45.8004
   -699220.44742   -541585.52245  24961438.678    24961439.5574   24961446.3294
        36.8004         35.0004
 -11238956.29645  -8746781.08047  22048480.560    22048480.5974   22048484.6084
        45.3004         42.5004
  -9717247.39445  -7556558.59847  22132652.083    22132651.4994   22132652.1064
        46.0004         43.2004
  -1106274.30643   -848274.72146  23906777.649    23906777.3654   23906783.2004
        38.2004         36.2004
 -19617711.66347 -15248041.25448  20296220.892    20296220.6614   20296225.2314
        51.0004         48.2004
  -1281853.20243   -712631.63446  24247169.577    24247171.1534   24247179.3604
        38.5004         36.2004
 -15076864.47345 -11209187.64747  21816917.980    21816917.2944   21816917.8504
        46.3004         43.3004
   -407399.39242   -307931.18545  24535912.825    24535913.0704   24535922.6574
        34.9004         33.4004
 16  6 13  1 56 30.0000000  0  9G 6G26G 7G 2G30G 9G 3G23G16
 -10618006.71146  -8256936.40647  20956740.514    20956741.1364   20956746.6874
        48.6004         45.9004
   -699511.28442   -541812.15245  24961383.289    24961384.9424   24961390.9224
        37.1004         35.2004
 -11321839.80545  -8811365.59347  22032708.762    22032708.0924   22032711.7304
        45.3004         42.6004
  -9770409.13245  -7597983.32847  22122535.250    22122534.4804   22122535.5224
        45.8004         43.2004
  -1218283.88743   -935554.86646  23885463.437    23885462.1484   23885468.5104
        38.3004         36.4004
 -19591475.26147 -15227597.29548  20301213.670    20301213.2334   20301218.0044
        51.0004         48.2004
  -1184139.88543   -636491.40746  24265772.828    24265766.5554   24265773.2924
        38.3004         36.0004
 -15010809.47645 -11157716.22047  21829487.930    21829487.2274   21829488.3814
        46.2004         43.3004
   -458279.17442   -347577.77945  24526237.683    24526235.1484   24526237.3834
        34.9004         33.6004
 16  6 13  1 57  0.0000000  0  9G 6G26G 7G 2G30G 9G 3G23G16
 -10573428.97046  -8222200.51447  20965223.855    20965224.0864   20965229.7494
        48.8004         45.9004
   -699250.23742   -541608.73545  24961433.039    24961433.4824   24961441.7884
        37.1004         35.0004
 -11404367.21745  -8875672.63947  22017003.347    22017004.0724   22017006.9784
        45.3004         42.6004
  -9823100.27745  -7639041.36647  22112508.546    22112508.4974   22112508.6194
        46.0004         43.2004
  -1330189.14343  -1022753.73546  23864166.619    23864167.0954   23864172.8974
        38.3004         36.2004
 -19564836.49747 -15206839.82048  20306282.535    20306282.5844   20306287.3234
        51.0004         48.2004
  -1086302.81243   -560254.79546  24284388.247    24284386.3944   24284389.6094
        38.3004         36.0004
 -14944504.90245 -11106050.33247  21842105.317    21842104.7594   21842105.5934
        46.2004         43.3004
   -508683.19142   -386853.59645  24516640.594    24516640.6704   24516646.4224
        35.4004         33.8004
 16  6 13  1 57 30.0000000  0  9G 6G26G 7G 2G30G 9G 3G23G16
 -10528291.63846  -8187028.57447  20973812.895    20973813.5254   20973819.4534
        48.8004         46.1004
   -698436.91642   -540975.01245  24961588.395    24961588.8324   24961594.4344
        36.4004         34.3004
 -11486536.20445  -8939700.38447  22001367.292    22001368.0014   22001370.7004
        45.5004         42.8004
  -9875318.78545  -7679731.11047  22102571.638    22102570.9594   22102571.4664
        46.0004         43.2004
  -1441987.57643  -1109869.34846  23842893.173    23842893.3574   23842898.6384
        38.5004         36.4004
 -19537796.52647 -15185769.70948  20311427.638    20311427.8264   20311432.6594
        51.0004         48.2004
   -988342.87843   -483922.35946  24303020.073    24303023.9224   24303030.9074
        38.2004         36.0004
 -14877952.00045 -11054190.93847  21854770.072    21854769.2324   21854770.2514
        46.2004         43.2004
   -558608.82242   -425756.65945  24507141.645    24507141.6434   24507143.1214
        35.4004         33.8004
 16  6 13  1 58  0.0000000  0  9G 6G26G 7G 2G30G 9G 3G23G16
 -10482596.06146  -8151421.64747  20982508.932    20982509.3524   20982514.5144
        48.9004         46.1004
   -697071.10542   -539910.78245  24961848.191    24961848.1544   24961852.7554
        35.6004         33.8004
 -11568344.68845  -9003447.26047  21985800.191    21985800.6034   21985803.3864
        45.6004         42.8004
  -9927063.13445  -7720051.38747  22092724.739    22092724.2954   22092725.0394
        45.8004         43.0004
  -1553676.45243  -1196899.61046  23821640.449    23821638.9294   23821645.5124
        38.9004         36.6004
 -19510356.52847 -15164387.88948  20316649.580    20316649.5944   20316654.7914
        51.0004         48.4004
   -890260.94443   -407494.87745  24321688.316    24321688.7534   24321697.8124
        38.0004         35.9004
 -14811152.01845 -11002139.00847  21867481.307    21867480.9474   21867481.7324
        46.2004         43.3004
   -608053.57742   -464284.99545  24497734.516    24497734.3284   24497733.2764
        35.6004         34.0004
 16  6 13  1 58 30.0000000  0  9G 6G26G 7G 2G30G 9G 3G23G16
 -10436343.66246  -8115380.83247  20991310.067    20991310.6684   20991315.8764
        48.9004         46.1004
   -695152.40842   -538415.64745  24962212.192    24962212.6124   24962217.9864
        35.7004         34.3004
 -11649790.30645  -9066911.34347  21970301.885    21970301.7294   21970304.6144
        45.8004         43.2004
  -9978331.29445  -7760000.60847  22082968.936    22082968.2494   22082969.1384
        45.8004         43.0004
  -1665253.24543  -1283842.52946  23800404.453    23800405.9504   23800413.3064
        38.9004         36.6004
 -19482517.64947 -15142695.25548  20321947.265    20321947.3174   20321952.1354
        51.0004         48.4004
   -792057.94143   -330973.07545  24340379.639    24340376.5094   24340383.3914
        38.0004         35.9004
 -14744106.39345 -10949895.67447  21880239.878    21880239.0124   21880240.1204
        46.2004         43.2004
   -657014.96942   -502436.68145  24488416.551    24488415.9384   24488419.6374
        35.9004         34.1004
 16  6 13  1 59  0.0000000  0  9G 6G26G 7G 2G30G 9G 3G23G16
 -10389535.81346  -8078907.19347  21000217.484    21000218.2194   21000223.9974
        48.9004         46.1004
   -692680.59942   -536489.57445  24962683.432    24962684.1894   24962691.0164
        36.1004         34.5004
 -11730871.07845  -9130091.14147  21954871.911    21954872.4344   21954875.6324
        46.0004         43.2004
 -10029121.42245  -7799577.33247  22073304.388    22073303.0624   22073304.0774
        45.8004         42.8004
  -1776715.38343  -1370696.10846  23779195.760    23779196.6234   23779202.8954
        39.0004         36.9004
 -19454281.04647 -15120692.70948  20327320.521    20327320.4564   20327325.3654
        51.0004         48.2004
   -693734.78043   -254357.67645  24359091.715    24359087.5094   24359093.7004
        37.6004         35.5004
 -14676816.59645 -10897462.07347  21893044.669    21893044.1824   21893044.8514
        46.2004         43.2004
   -705490.69142   -540209.96545  24479191.987    24479188.7074   24479193.2474
        36.1004         34.3004
 16  6 13  1 59 30.0000000  0  9G 6G26G 7G 2G30G 9G 3G23G16
 -10342173.94646  -8042001.84947  21009229.573    21009230.0304   21009236.2304
        48.8004         45.9004
   -689655.45642   -534132.40045  24963259.552    24963259.8924   24963263.1724
        35.2004         33.4004
 -11811584.62845  -9192984.79347  21939514.159    21939513.7054   21939516.3184
        46.2004         43.5004
 -10079431.50245  -7838779.99047  22063730.337    22063730.0764   22063730.5214
        45.6004         43.0004
  -1888060.24943  -1457458.28646  23758007.538    23758007.9324   23758015.1274
        39.2004         37.1004
 -19425647.91547 -15098381.17748  20332769.269    20332769.2764   20332773.9624
        51.0004         48.2004
   -595292.48342   -177649.42045  24377814.848    24377819.6584   24377826.0414
        37.5004         35.3004
 -14609283.78845 -10844839.12347  21905896.056    21905896.4264   21905895.7724
        46.2004         43.3004
   -753478.17242   -577602.82545  24470058.513    24470057.4064   24470061.6074
        36.3004         34.3004
 16  6 13  2  0  0.0000000  0  9G 6G26G 7G 2G30G 9G 3G23G16
 -10294259.51546  -8004665.93647  21018347.538    21018348.1124   21018353.5234
        48.6004         45.6004
   -686076.72042   -531343.73345  24963939.741    24963937.3844   24963944.2194
        34.7004         33.3004
 -11891928.41945  -9255590.30047  21924225.071    21924224.7454   21924227.5434
        46.2004         43.5004
 -10129259.93745  -7877607.35147  22054248.641    22054247.6014   22054248.1544
        45.6004         42.8004
  -1999285.23943  -1544127.04446  23736842.983    23736843.2264   23736849.5634
        39.4004         37.1004
 -19396619.40547 -15075761.55748  20338292.996    20338293.0644   20338297.9314
        51.0004         48.2004
   -496731.92442   -100849.01745  24396570.805    24396572.6494   24396583.6734
        37.5004         35.5004
 -14541509.61045 -10792028.07547  21918793.531    21918792.6844   21918792.8864
        46.2004         43.3004
   -800974.95742   -614613.27745  24461023.483    24461021.9464   24461022.8704
        36.6004         34.8004
 16  6 13  2  0 30.0000000  0  9G 6G26G 7G 2G30G 9G 3G23G16
 -10245793.98846  -7966900.60947  21027570.242    21027570.6974   21027576.4634
        48.6004         45.6004
   -681944.11642   -528123.48845  24964726.912    24964725.7124   24964733.9004
        34.7004         33.6004
 -11971900.42445  -9317906.13147  21909005.263    21909006.0754   21909008.9684
        46.3004         43.5004
 -10178604.72845  -7916057.83147  22044858.606    22044857.9874   22044858.4284
        45.5004         42.8004
  -2110387.76943  -1630700.40046  23715700.029    23715699.7664   23715707.0594
        39.4004         37.1004
 -19367196.71547 -15052834.78748  20343891.977    20343892.0414   20343896.8294
        51.0004         48.2004
   -398053.99143    -23957.17845  24415349.694    24415351.6624   24415360.7414
        37.8004         35.9004
 -14473495.32745 -10739029.94147  21931735.364    21931734.6604   21931735.4284
        46.0004         43.2004
   -847978.89142   -651239.67245  24452074.481    24452075.7204   24452081.1894
        36.8004         35.0004
 16  6 13  2  1  0.0000000  0  9G 6G26G 7G 2G30G 9G 3G23G16
 -10196778.86346  -7928707.01247  21036897.698    21036898.2024   21036904.2984
        48.6004         45.8004
   -677257.64841   -524471.75945  24965616.245    24965616.5874   24965623.0404
        34.2004         32.7004
 -12051498.15045  -9379930.30147  21893859.263    21893859.4404   21893862.0464
        46.2004         43.3004
 -10227464.17745  -7954130.12347  22035561.276    22035559.9184   22035559.9924
        45.5004         42.6004
  -2221365.24943  -1717176.30846  23694582.929    23694582.8624   23694589.4124
        39.6004         37.3004
 -19337381.03947 -15029601.79348  20349566.022    20349566.0264   20349570.4644
        51.0004         48.2004
   -299259.59943     53025.42345  24434155.573    24434152.6534   24434161.1844
        37.8004         35.5004
 -14405242.33845 -10685845.80747  21944723.278    21944722.8984   21944724.3314
        46.2004         43.3004
   -894487.59742   -687480.22845  24443228.723    24443226.0564   24443230.4764
        36.6004         34.8004
 16  6 13  2  1 30.0000000  0  9G 6G26G 7G 2G30G 9G 3G23G16
 -10147215.64146  -7890086.32447  21046329.205    21046329.6154   21046335.2244
        48.6004         45.6004
   -672017.06141   -520388.24745  24966614.123    24966617.4384   24966620.0894
        34.0004         32.9004
 -12130719.90845  -9441661.51247  21878783.848    21878783.8104   21878786.8384
        46.2004         43.3004
 -10275836.58545  -7991822.91147  22026355.745    22026355.5694   22026355.8654
        45.3004         42.5004
  -2332215.06343  -1803552.73346  23673487.251    23673487.5464   23673495.0444
        39.6004         37.1004
 -19307173.54147 -15006063.48448  20355313.741    20355313.9654   20355318.7314
        51.0004         48.2004
   -200349.78943    130097.91845  24452980.461    24452978.2394   24452984.3974
        38.0004         35.7004
 -14336751.91545 -10632476.67047  21957757.953    21957757.4484   21957757.3194
        46.2004         43.5004
   -940498.50642   -723332.82845  24434473.232    24434470.6904   24434472.6294
        36.3004         34.5004
 16  6 13  2  2  0.0000000  0  9G 6G26G 7G 2G30G 9G 3G23G16
 -10097105.84146  -7851039.73247  21055865.290    21055865.5324   21055870.3934
        48.4004         45.6004
   -666222.20341   -515872.80045  24967717.137    24967715.7714   24967722.6644
        34.3004         33.1004
 -12209562.89045  -9503097.56947  21863780.147    21863780.5554   21863783.1964
        46.0004         43.2004
 -10323720.04545  -8029134.68847  22017243.989    22017243.1134   22017243.6094
        45.1004         42.3004
  -2442934.59743  -1889827.65546  23652417.630    23652417.9444   23652425.3734
        39.6004         37.1004
 -19276575.43347 -14982220.80348  20361136.574    20361136.8414   20361141.4124
        50.8004         48.2004
   -101325.45443    207259.70245  24471816.526    24471818.3674   24471825.0974
        37.8004         35.5004
 -14268025.55145 -10578923.66047  21970835.356    21970834.7634   21970834.9454
        46.2004         43.2004
   -986009.51942   -758795.92545  24425806.890    24425809.1734   24425816.3784
        36.4004         34.5004
 16  6 13  2  2 30.0000000  0  9G 6G26G 7G 2G30G 9G 3G23G16
 -10046451.01746  -7811568.44947  21065504.497    21065504.8414   21065509.9474
        48.4004         45.6004
   -659872.95742   -510925.35245  24968925.574    24968925.8314   24968932.5184
        34.9004         33.4004
 -12288024.86545  -9564236.73447  21848850.190    21848849.7204   21848852.5164
        46.0004         43.3004
 -10371112.94045  -8066064.21847  22008225.674    22008224.2914   22008224.5064
        44.9004         42.1004
  -2553521.28843  -1975999.04746  23631373.759    23631375.0374   23631380.4104
        39.6004         37.3004
 -19245587.89047 -14958074.66548  20367033.547    20367033.6394   20367038.1034
        51.0004         48.2004
     -2187.46843    284510.07045  24490681.404    24490683.6584   24490690.8744
        37.6004         35.5004
 -14199064.08545 -10525187.46247  21983958.781    21983957.6534   21983958.4504
        46.0004         43.2004
  -1031018.43342   -793867.79245  24417245.492    24417244.1174   24417247.8284
        35.9004         34.1004
 16  6 13  2  3  0.0000000  0  9G 6G26G 7G 2G30G 9G 3G23G16
  -9995252.75346  -7771673.70147  21075246.325    21075246.8944   21075252.4514
        48.2004         45.2004
   -652969.30442   -505545.90845  24970239.589    24970242.0874   24970245.1304
        35.0004         33.6004
 -12366103.90145  -9625077.50647  21833992.117    21833991.9634   21833994.3934
        46.0004         43.3004
 -10418013.57745  -8102610.16547  21999299.876    21999299.9314   21999300.0584
        45.1004         42.6004
  -2663972.53043  -2062064.90046  23610358.634    23610356.8944   23610363.1624
        39.7004         37.4004
 -19214212.15747 -14933626.04148  20373004.328    20373004.2084   20373008.9684
        51.0004         48.2004
     97063.20343    361848.20045  24509568.459    24509570.3604   24509576.9164
        37.6004         35.3004
 -14129868.96845 -10471269.19147  21997124.378    21997124.6774   21997125.3414
        45.8004         42.8004
  -1075522.72342   -828546.46245  24408776.395    24408777.6864   24408776.5514
        35.6004         34.0004
 16  6 13  2  3 30.0000000  0  9G 6G26G 7G 2G30G 9G 3G23G16
  -9943512.63446  -7731356.74147  21085092.428    21085093.0714   21085098.7494
        48.2004         45.4004
   -645511.18442   -499734.44345  24971659.765    24971658.9614   24971666.4274
        34.9004         33.3004
 -12443797.56745  -9685618.00247  21819207.585    21819207.2164   21819209.6394
        46.0004         43.2004
 -10464420.09345  -8138771.07947  21990470.218    21990469.6094   21990469.9924
        45.5004         43.0004
  -2774285.71643  -2148023.17846  23589365.461    23589365.8544   23589371.1884
        39.9004         37.6004
 -19182449.38047 -14908875.82448  20379048.773    20379048.6544   20379053.0184
        51.0004         48.2004
    196425.61542    439273.37745  24528483.264    24528478.7424   24528486.9074
        37.5004         35.3004
 -14060442.43445 -10417170.61447  22010336.858    22010336.2104   22010337.5354
        45.8004         43.0004
  -1119520.15342   -862830.16345  24400404.181    24400404.0584   24400405.5924
        35.6004         34.1004
 16  6 13  2  4  0.0000000  0  9G 6G26G 7G 2G30G 9G 3G23G16
  -9891232.25746  -7690618.79247  21095041.862    21095042.0574   21095047.6194
        48.2004         45.6004
   -637498.48242   -493490.78445  24973181.172    24973180.2004   24973193.5074
        34.9004         33.4004
 -12521104.16445  -9745856.88547  21804495.129    21804495.8984   21804499.1064
        46.0004         43.2004
 -10510330.54245  -8174545.45247  21981732.793    21981732.1154   21981732.8284
        45.6004         42.8004
  -2884458.23643  -2233871.84246  23568398.752    23568399.6374   23568406.3644
        39.9004         37.4004
 -19150300.79547 -14883824.98248  20385166.329    20385166.4354   20385170.7474
        51.0004         48.0004
    295898.90142    516784.96445  24547411.137    24547409.3694   24547415.3444
        37.5004         35.2004
 -13990785.24345 -10362892.28847  22023592.071    22023591.6884   22023592.4974
        45.8004         43.0004
  -1163008.36042   -896717.04945  24392130.943    24392127.7414   24392132.2744
        35.7004         34.1004
 16  6 13  2  4 30.0000000  0  9G 6G26G 7G 2G30G 9G 3G23G16
  -9838413.26046  -7649461.13347  21105092.266    21105092.8594   21105098.4594
        48.2004         45.4004
   -628931.17442   -486815.00445  24974813.878    24974814.7754   24974822.7264
        35.2004         33.4004
 -12598021.27945  -9805792.28647  21789858.114    21789859.0124   21789862.0034
        45.8004         43.0004
 -10555743.56145  -8209932.21547  21973091.509    21973090.6264   21973091.7464
        45.6004         42.8004
  -2994487.47243  -2319608.85646  23547463.920    23547462.9764   23547467.9154
        40.1004         37.8004
 -19117767.63647 -14858474.46648  20391356.629    20391356.8054   20391361.6224
        50.8004         48.0004
    395481.84542    594382.07045  24566348.753    24566356.9764   24566366.5144
        37.5004         35.2004
 -13920898.55345 -10308435.13447  22036890.945    22036890.8754   22036891.9654
        45.8004         43.0004
  -1205985.24042   -930205.50545  24383954.860    24383951.2134   24383952.7904
        35.7004         34.1004
 16  6 13  2  5  0.0000000  0  9G 6G26G 7G 2G30G 9G 3G23G16
  -9785057.30746  -7607885.06747  21115246.082    21115246.0664   21115251.8414
        48.2004         45.4004
   -619809.41042   -479707.14145  24976547.481    24976550.7294   24976555.7104
        34.7004         33.1004
 -12674546.75145  -9865422.50547  21775295.912    21775296.8114   21775300.0514
        46.0004         43.2004
 -10600657.32945  -8244929.94447  21964544.362    21964543.6874   21964544.0504
        45.6004         42.8004
  -3104370.86143  -2405232.22746  23526554.145    23526552.5474   23526556.8554
        40.3004         37.6004
 -19084851.10547 -14832825.22348  20397620.494    20397620.6884   20397625.3064
        50.8004         48.0004
    495173.80742    672064.08845  24585326.869    24585328.5724   24585337.9134
        37.5004         35.2004
 -13850783.74345 -10253800.23547  22050234.022    22050233.7864   22050234.2624
        45.8004         43.0004
  -1248448.65742   -963293.82445  24375870.597    24375869.9774   24375869.6304
        35.4004         33.8004
 16  6 13  2  5 30.0000000  0  9G 6G26G 7G 2G30G 9G 3G23G16
  -9731166.05346  -7565891.88947  21125501.001    21125501.5334   21125506.8654
        48.1004         45.2004
   -610133.16042   -472167.19745  24978392.860    24978390.5324   24978398.9114
        35.4004         34.0004
 -12750678.74345  -9924746.10147  21760809.673    21760809.3904   21760812.3454
        46.0004         43.3004
 -10645070.26245  -8279537.42447  21956093.115    21956092.0194   21956093.1924
        45.6004         42.8004
  -3214105.77243  -2490739.88846  23505671.701    23505670.6334   23505675.3564
        40.3004         37.8004
 -19051552.40647 -14806878.18947  20403957.245    20403957.2014   20403961.4494
        50.7004         47.8004
    594973.76742    749830.21745  24604317.871    24604320.1484   24604326.3464
        37.3004         35.2004
 -13780442.15945 -10198988.61847  22063618.888    22063618.8634   22063619.5194
        45.6004         42.8004
  -1290396.13342   -995980.16145  24367884.454    24367888.3374   24367893.8344
        35.6004         34.0004
 16  6 13  2  6  0.0000000  0  9G 6G26G 7G 2G30G 9G 3G23G16
  -9676741.18546  -7523482.91547  21135857.591    21135858.6364   21135863.3584
        48.1004         45.1004
   -599902.43542   -464195.20545  24980336.481    24980337.2484   24980345.7064
        35.9004         34.3004
 -12826414.36945  -9983760.84347  21746398.011    21746398.0064   21746401.1524
        46.2004         43.5004
 -10688980.59445  -8313753.26947  21947736.486    21947736.0604   21947737.3014
        45.6004         42.8004
  -3323689.61043  -2576129.83746  23484817.529    23484816.1804   23484821.9704
        40.3004         37.6004
 -19017872.79447 -14780634.33747  20410366.213    20410366.0514   20410370.8424
        50.7004         47.8004
    694880.63342    827679.66345  24623333.568    24623333.2124   24623338.1994
        37.3004         35.3004
 -13709875.13945 -10144001.33647  22077048.460    22077047.6314   22077048.3234
        45.6004         42.6004
  -1331825.96342  -1028263.12445  24359999.547    24360000.1764   24360005.8264
        35.7004         34.1004
 16  6 13  2  6 30.0000000  0  9G 6G26G 7G 2G30G 9G 3G23G16
  -9621784.36646  -7480659.42247  21146315.087    21146315.7034   21146321.4694
        48.1004         45.1004
   -589117.40342   -455791.31745  24982391.929    24982391.8164   24982398.1364
        36.3004         34.5004
 -12901751.68245 -10042465.22847  21732061.183    21732061.5004   21732064.4934
        46.3004         43.7004
 -10732386.74145  -8347576.24147  21939476.652    21939475.5204   21939477.5274
        45.5004         42.6004
  -3433119.76843  -2661400.03746  23463992.680    23463992.8784   23463998.0224
        40.1004         37.8004
 -18983813.45747 -14754094.59247  20416847.367    20416847.2604   20416852.0534
        50.7004         47.8004
    794893.60042    905611.76745  24642366.458    24642365.5494   24642370.0014
        37.3004         35.2004
 -13639084.12545 -10088839.51247  22090518.738    22090518.2004   22090518.9514
        45.6004         42.6004
  -1372735.76142  -1060140.86445  24352217.591    24352213.7394   24352217.4284
        35.2004         33.4004
 16  6 13  2  7  0.0000000  0  9G 6G26G 7G 2G30G 9G 3G23G16
  -9566297.38846  -7437422.81147  21156874.180    21156874.6164   21156880.4604
        47.9004         45.1004
   -577778.09042   -446955.57345  24984547.501    24984549.3114   24984556.3544
        36.8004         35.0004
 -12976689.11645 -10100858.01647  21717801.244    21717801.1484   21717803.5564
        46.3004         43.3004
 -10775286.82145  -8381004.87947  21931313.361    21931312.2394   21931314.2684
        45.6004         42.8004
  -3542393.67343  -2746548.48746  23443197.436    23443197.7644   23443203.6914
        40.1004         37.6004
 -18949375.65647 -14727259.94847  20423400.434    20423400.7384   20423405.2544
        50.7004         47.8004
    895011.57642    983625.73945  24661413.711    24661418.1414   24661421.5384
        37.3004         35.3004
 -13568070.41345 -10033504.15647  22104032.764    22104032.0204   22104031.5314
        45.5004         42.5004
  -1413123.43842  -1091611.72445  24344531.754    24344531.9004   24344536.1344
        35.2004         33.8004
 16  6 13  2  7 30.0000000  0  9G 6G26G 7G 2G30G 9G 3G23G16
  -9510281.97546  -7393774.45747  21167534.041    21167534.4124   21167539.9364
        48.1004         45.2004
   -565884.64242   -437687.92245  24986812.877    24986811.9944   24986818.7074
        36.6004         34.6004
 -13051224.17445 -10158937.25547  21703616.899    21703617.6704   21703619.6724
        46.3004         43.5004
 -10817679.65845  -8414038.25947  21923245.479    21923244.9664   21923246.6394
        45.6004         42.6004
  -3651508.67643  -2831573.10746  23422433.481    23422433.7794   23422439.4694
        40.3004         37.8004
 -18914560.63147 -14700131.35647  20430025.997    20430025.8314   20430030.6044
        50.7004         47.8004
    995233.66942   1061720.84245  24680488.752    24680487.5584   24680495.4804
        37.5004         35.5004
 -13496835.35045  -9977996.33047  22117587.428    22117587.1634   22117588.6344
        45.5004         42.6004
  -1452986.75442  -1122674.02045  24336948.875    24336945.4124   24336951.9764
        35.7004         34.1004
 16  6 13  2  8  0.0000000  0  9G 6G26G 7G 2G30G 9G 3G23G16
  -9453739.91946  -7349715.70747  21178292.939    21178293.5044   21178299.6044
        48.1004         45.2004
   -553437.17642   -427988.60545  24989180.041    24989182.0824   24989189.7394
        36.6004         35.0004
 -13125354.53945 -10216701.14647  21689510.258    21689510.4734   21689513.7474
        46.3004         43.7004
 -10859563.50745  -8446675.02047  21915274.940    21915274.3584   21915276.2214
        45.5004         42.6004
  -3760462.22343  -2916471.92646  23401701.253    23401700.6054   23401706.1984
        40.4004         37.9004
 -18879369.62447 -14672709.78848  20436722.557    20436722.5254   20436727.6474
        50.7004         48.0004
   1095558.92443   1139896.26845  24699581.508    24699580.9504   24699586.4634
        37.8004         35.7004
 -13425380.02145  -9922316.86047  22131185.408    22131184.7524   22131185.7904
        45.5004         42.8004
  -1492323.68042  -1153326.18545  24329461.112    24329462.9024   24329465.0004
        36.3004         34.5004
 16  6 13  2  8 30.0000000  0  9G 6G26G 7G 2G30G 9G 3G23G16
  -9396672.93246  -7305247.93747  21189153.358    21189153.6544   21189159.1334
        48.2004         45.4004
   -540436.00342   -417857.89045  24991656.375    24991655.0734   24991660.5334
        37.0004         35.2004
 -13199078.60445 -10274148.45647  21675480.224    21675481.3204   21675484.7294
        46.3004         43.5004
 -10900936.56045  -8478913.76347  21907402.612    21907401.4874   21907403.2974
        45.5004         42.6004
  -3869251.67443  -3001242.87746  23380999.188    23380998.6274   23381003.9254
        40.4004         37.9004
 -18843803.83747 -14644996.18647  20443490.340    20443490.2324   20443495.1654
        50.7004         47.8004
   1195986.37143   1218151.37845  24718691.954    24718690.8844   24718695.8974
        37.6004         35.3004
 -13353705.83145  -9866466.84647  22144823.800    22144824.2934   22144825.6394
        45.5004         42.6004
  -1531132.04042  -1183566.41345  24322077.995    24322079.4234   24322079.2974
        36.4004         34.6004
 16  6 13  2  9  0.0000000  0  9G 6G26G 7G 2G30G 9G 3G23G16
  -9339082.85146  -7260372.55847  21200112.522    21200112.7044   21200118.1074
        48.2004         45.2004
   -526881.27842   -407295.78845  24994234.211    24994234.8374   24994242.0384
        37.3004         35.3004
 -13272393.90745 -10331277.23947  21661529.830    21661529.4034   21661532.7864
        46.3004         43.7004
 -10941797.36145  -8510753.35947  21899627.534    21899626.9014   21899627.9074
        45.6004         43.0004
  -3977874.44343  -3085883.95446  23360329.226    23360328.0724   23360333.8694
        40.4004         37.9004
 -18807864.55447 -14616991.55547  20450329.752    20450329.6604   20450334.0804
        50.7004         47.8004
   1296515.08442   1296485.38145  24737824.087    24737822.0994   24737825.8644
        37.5004         35.5004
 -13281814.10545  -9810447.33147  22158505.022    22158504.4004   22158506.2794
        45.5004         42.5004
  -1569410.24942  -1213393.55345  24314796.128    24314790.9144   24314795.1734
        36.4004         34.5004
 16  6 13  2  9 30.0000000  0  9G 6G26G 7G 2G30G 9G 3G23G16
  -9280971.49646  -7215090.99647  21211170.356    21211171.2444   21211176.2554
        48.2004         45.2004
   -512773.20642   -396302.52645  24996920.392    24996918.3854   24996925.0254
        37.1004         35.2004
 -13345298.51845 -10388086.00547  21647656.274    21647656.8414   21647659.4544
        46.3004         43.7004
 -10982144.48145  -8542192.66447  21891948.690    21891948.6174   21891949.4644
        45.8004         43.2004
  -4086327.91644  -3170393.11846  23339690.299    23339690.6324   23339696.1614
        40.6004         38.3004
 -18771552.98747 -14588696.82348  20457239.567    20457239.5294   20457244.1384
        50.7004         48.0004
   1397144.08042   1374897.54545  24756970.160    24756969.3564   24756975.7644
        37.5004         35.2004
 -13209706.34045  -9754259.46347  22172225.320    22172225.9664   22172227.2814
        45.3004         42.5004
  -1607155.88142  -1242805.70845  24307610.870    24307609.2094   24307612.6584
        36.1004         34.3004
 16  6 13  2 10  0.0000000  0  9G 6G26G 7G 2G30G 9G 3G23G16
  -9222340.70446  -7169404.67347  21222326.435    21222327.3314   21222333.0624
        48.1004         45.2004
   -498111.98242   -384878.22745  24999707.701    24999710.0734   24999714.8034
        36.4004         34.5004
 -13417790.91545 -10444573.55247  21633862.138    21633861.5794   21633864.7744
        46.3004         43.7004
 -11021976.44845  -8573230.55147  21884370.260    21884369.0814   21884369.7624
        46.0004         43.2004
  -4194609.54344  -3254768.37446  23319085.859    23319085.3614   23319091.0184
        40.8004         38.3004
 -18734870.40347 -14560112.99448  20464220.579    20464220.2434   20464225.0024
        50.8004         48.0004
   1497872.36842   1453387.10745  24776134.735    24776135.8374   24776144.4184
        37.3004         35.3004
 -13137383.67545  -9697904.16347  22185988.785    22185988.1444   22185989.1544
        45.3004         42.3004
  -1644367.03042  -1271801.37945  24300529.984    24300530.0514   24300530.5644
        36.1004         34.6004
 16  6 13  2 10 30.0000000  0  9G 6G26G 7G 2G30G 9G 3G23G16
  -9163192.34146  -7123315.04747  21233582.623    21233583.3994   21233588.8314
        48.1004         45.2004
   -482897.90442   -373023.11845  25002605.677    25002604.3774   25002611.4014
        36.8004         35.2004
 -13489868.40345 -10500737.80147  21620146.293    21620145.9614   21620148.4114
        46.3004         43.7004
 -11061291.70045  -8603865.79747  21876888.845    21876887.9404   21876888.3384
        46.2004         43.3004
  -4302716.64644  -3339007.61946  23298511.571    23298512.3464   23298519.7164
        40.9004         38.6004
 -18697818.03247 -14531241.01448  20471271.052    20471270.7904   20471275.4914
        50.8004         48.0004
   1598698.95443   1531953.24245  24795321.002    24795325.2394   24795329.8544
        37.6004         35.9004
 -13064847.54545  -9641382.50047  22199791.742    22199791.6564   22199793.1374
        45.1004         42.5004
  -1681041.58242  -1300378.89245  24293545.797    24293548.2554   24293552.2574
        36.3004         34.6004
 16  6 13  2 11  0.0000000  0  9G 6G26G 7G 2G30G 9G 3G23G16
  -9103528.26046  -7076823.56847  21244936.326    21244937.1954   21244942.3084
        48.1004         45.2004
   -467131.29242   -360737.48945  25005604.187    25005605.4494   25005612.1354
        37.3004         35.3004
 -13561529.03445 -10556577.23347  21606509.048    21606509.4524   21606511.7824
        46.3004         43.5004
 -11100088.60045  -8634097.14947  21869506.115    21869504.8664   21869505.3744
        46.2004         43.3004
  -4410646.66344  -3423108.89246  23277973.397    23277974.2834   23277980.8994
        41.3004         38.8004
 -18660397.16347 -14502081.89848  20478391.962    20478392.0244   20478396.5224
        50.8004         48.0004
   1699622.91243   1610595.23245  24814528.583    24814528.8694   24814536.0914
        37.6004         35.3004
 -12992099.21445  -9584695.49347  22213635.947    22213635.0664   22213636.0054
        45.1004         42.3004
  -1717177.68742  -1328536.88345  24286674.252    24286672.0364   24286676.5344
        37.0004         35.2004
 16  6 13  2 11 30.0000000  0  9G 6G26G 7G 2G30G 9G 3G23G16
  -9043350.34646  -7029931.69147  21256388.020    21256388.6104   21256393.9104
        47.9004         45.1004
   -450812.40142   -348021.48845  25008711.129    25008711.1094   25008717.0124
        37.3004         35.3004
 -13632770.84546 -10612090.31347  21592952.855    21592952.9384   21592955.2444
        46.5004         43.9004
 -11138365.69245  -8663923.44947  21862222.085    21862221.4134   21862222.0464
        46.2004         43.3004
  -4518396.99744  -3507070.16246  23257473.073    23257471.2944   23257477.0664
        41.6004         39.3004
 -18622609.03647 -14472636.60348  20485582.831    20485582.7164   20485587.2554
        50.8004         48.0004
   1800643.21443   1689312.32545  24833757.652    24833753.3014   24833760.1824
        37.6004         35.3004
 -12919139.81745  -9527844.02447  22227519.849    22227519.2954   22227519.7444
        45.1004         42.3004
  -1752773.39242  -1356273.78445  24279901.311    24279899.7244   24279903.8214
        37.5004         35.5004
 16  6 13  2 12  0.0000000  0  9G 6G26G 7G 2G30G 9G 3G23G16
  -8982660.52946  -6982640.94147  21267937.132    21267937.4024   21267942.4924
        47.9004         44.9004
   -433941.65742   -334875.45745  25011920.960    25011920.7194   25011926.9694
        37.0004         34.8004
 -13703591.89746 -10667275.52547  21579475.472    21579475.7254   21579478.6654
        46.7004         44.0004
 -11176121.52945  -8693343.58447  21855037.761    21855036.9534   21855037.6254
        46.2004         43.3004
  -4625965.05244  -3590889.39446  23237004.031    23237001.9324   23237007.1194
        42.0004         39.5004
 -18584454.89147 -14442906.10047  20492842.913    20492842.9944   20492847.6464
        50.7004         47.8004
   1901758.88843   1768103.72745  24852997.166    24852997.1194   24853001.2904
        37.8004         35.5004
 -12845970.53945  -9470829.01346  22241443.792    22241443.0244   22241443.5774
        44.9004         41.9004
  -1787826.94142  -1383588.24645  24273228.677    24273229.3834   24273232.5854
        37.1004         35.0004
 16  6 13  2 12 30.0000000  0  9G 6G26G 7G 2G30G 9G 3G23G16
  -8921460.71346  -6934952.77847  21279581.851    21279583.1094   21279588.4494
        47.7004         44.7004
   -416519.40242   -321299.68045  25015237.000    25015235.0164   25015243.5104
        37.0004         35.0004
 -13773990.57646 -10722131.61847  21566079.469    21566079.4474   21566082.2624
        46.9004         44.2004
 -11213354.74845  -8722356.46847  21847952.426    21847951.6864   21847952.4764
        46.2004         43.3004
  -4733348.21544  -3674564.54746  23216567.807    23216566.9404   23216573.3684
        42.2004         39.7004
 -18545936.00347 -14412891.37747  20500172.929    20500172.6924   20500177.6014
        50.7004         47.8004
   2002968.93942   1846968.62445  24872254.380    24872253.5284   24872260.3324
        37.5004         35.3004
 -12772592.82045  -9413651.57847  22255406.904    22255406.5674   22255407.2034
        45.1004         42.3004
  -1822336.26742  -1410478.61845  24266662.754    24266663.1604   24266664.3274
        37.0004         35.2004
 16  6 13  2 13  0.0000000  0  9G 6G26G 7G 2G30G 9G 3G23G16
  -8859752.84346  -6886868.74447  21291325.861    21291326.1064   21291331.1984
        47.7004         44.9004
   -398545.93642   -307294.38045  25018656.605    25018656.9234   25018662.6814
        37.0004         35.2004
 -13843964.28146 -10776656.56147  21552764.251    21552763.8774   21552766.9654
        47.0004         44.2004
 -11250063.58245  -8750960.75347  21840966.507    21840965.6564   21840966.6444
        46.2004         43.2004
  -4840543.89944  -3758093.61546  23196168.773    23196168.7344   23196173.6794
        42.2004         39.7004
 -18507053.68247 -14382593.46347  20507571.823    20507571.5934   20507576.4794
        50.5004         47.7004
   2104272.43543   1925906.38645  24891533.586    24891532.4724   24891540.1144
        37.6004         35.5004
 -12699008.00345  -9356312.77947  22269409.455    22269408.8514   22269409.4164
        44.9004         42.1004
  -1856299.38142  -1436943.35045  24260199.531    24260199.0234   24260201.3084
        37.1004         35.2004
 16  6 13  2 13 30.0000000  0  9G 6G26G 7G 2G30G 9G 3G23G16
  -8797538.90646  -6838390.35247  21303163.908    21303164.4124   21303170.2634
        47.7004         44.9004
   -380021.78942   -292859.98745  25022181.324    25022180.5324   25022187.6834
        37.3004         35.2004
 -13913511.16046 -10830848.91047  21539529.575    21539529.4514   21539532.2304
        47.0004         44.2004
 -11286247.01045  -8779155.62547  21834080.506    21834079.8064   21834081.0304
        46.0004         43.2004
  -4947549.48044  -3841474.54646  23175806.677    23175806.4704   23175811.0874
        42.3004         39.7004
 -18467809.12847 -14352013.29147  20515039.259    20515039.3274   20515044.3824
        50.5004         47.5004
   2205668.31042   2004916.15445  24910822.919    24910826.1984   24910834.8194
        37.5004         35.2004
 -12625217.33345  -9298813.56447  22283451.501    22283450.5334   22283450.9314
        44.9004         42.1004
  -1889713.96143  -1462980.66845  24253842.431    24253841.4514   24253842.6474
        37.6004         35.7004
 16  6 13  2 14  0.0000000  0  9G 6G26G 7G 2G30G 9G 3G23G16
  -8734820.86646  -6789519.15447  21315098.876    21315099.4904   21315105.5504
        47.9004         45.1004
   -360947.30842   -277996.76945  25025811.698    25025811.8694   25025816.6654
        37.5004         35.5004
 -13982629.59046 -10884707.39747  21526376.409    21526376.3634   21526379.4524
        47.0004         44.2004
 -11321903.50245  -8806939.90447  21827296.249    21827295.3594   21827295.7774
        46.0004         43.2004
  -5054362.45944  -3924705.39846  23155481.173    23155480.4964   23155485.3754
        42.3004         39.7004
 -18428203.62647 -14321151.85147  20522576.227    20522576.1484   20522581.1644
        50.3004         47.5004
   2307155.69142   2083997.22345  24930132.841    24930136.8514   24930147.2624
        37.3004         35.2004
 -12551221.92845  -9241154.82446  22297532.340    22297532.3954   22297532.9734
        44.8004         41.9004
  -1922579.36642  -1488590.00545  24247586.531    24247586.6224   24247589.7734
        37.5004         35.2004
 16  6 13  2 14 30.0000000  0  9G 6G26G 7G 2G30G 9G 3G23G16
  -8671600.69246  -6740256.70147  21327130.431    21327130.0304   21327135.8394
        47.9004         45.1004
   -341323.06243   -262705.16245  25029546.863    25029546.7294   25029552.4904
        37.8004         35.7004
 -14051317.32446 -10938230.28247  21513305.421    21513305.8274   21513308.4644
        47.0004         44.2004
 -11357031.78545  -8834312.59147  21820610.940    21820610.4134   21820611.3844
        46.0004         43.3004
  -5160980.12244  -4007784.06446  23135190.918    23135191.1074   23135197.5514
        42.3004         39.7004
 -18388238.46147 -14290010.15647  20530181.596    20530181.6374   20530186.2314
        50.3004         47.7004
   2408733.62042   2163148.83645  24949468.757    24949469.0624   24949475.1404
        37.5004         35.5004
 -12477023.25745  -9183337.68346  22311651.764    22311651.1474   22311651.5934
        44.8004         41.9004
  -1954893.19242  -1513769.59045  24241435.310    24241435.2494   24241441.9824
        36.8004         34.6004
 16  6 13  2 15  0.0000000  0  9G 6G26G 7G 2G30G 9G 3G23G16
  -8607880.44146  -6690604.57447  21339255.052    21339255.5534   21339261.3864
        47.7004         44.9004
   -321149.44843   -246985.44145  25033383.744    25033384.3764   25033391.3234
        37.6004         35.5004
 -14119572.53646 -10991416.12847  21500317.168    21500317.0724   21500319.6594
        47.0004         44.0004
 -11391630.31545  -8861272.48547  21814027.466    21814027.3814   21814027.8834
        46.3004         43.5004
  -5267399.92844  -4090708.55946  23114938.631    23114940.0064   23114946.3454
        42.2004         39.7004
 -18347914.90747 -14258589.20147  20537854.988    20537855.1714   20537859.8714
        50.3004         47.7004
   2510400.99043   2242370.18245  24968819.365    24968814.0274   24968821.6904
        37.6004         35.5004
 -12402622.53045  -9125363.09246  22325809.833    22325809.2584   22325810.0064
        44.6004         41.8004
  -1986653.69042  -1538518.00745  24235392.325    24235392.8684   24235397.4294
        36.4004         34.5004
 16  6 13  2 15 30.0000000  0  9G 6G26G 7G 2G30G 9G 3G23G16
  -8543662.07846  -6640564.31547  21351475.929    21351476.4074   21351481.9044
        47.9004         45.1004
   -300426.96343   -230838.08045  25037329.630    25037328.8124   25037334.3404
        37.6004         35.5004
 -14187393.15746 -11044263.34047  21487411.706    21487411.2604   21487414.2784
        47.0004         44.2004
 -11425697.68645  -8887818.48747  21807544.860    21807544.1984   21807544.7964
        46.3004         43.5004
  -5373619.28144  -4173476.84146  23094727.876    23094728.0224   23094732.9884
        42.3004         39.9004
 -18307234.22447 -14226889.96847  20545596.416    20545596.4434   20545600.8464
        50.5004         47.7004
   2612156.80842   2321660.46445  24988180.337    24988179.5854   24988184.6304
        37.5004         35.3004
 -12328020.89445  -9067231.96246  22340005.197    22340005.5514   22340005.5844
        44.6004         41.8004
  -2017859.17042  -1562833.94245  24229454.941    24229453.9014   24229460.0554
        36.4004         34.6004
 16  6 13  2 16  0.0000000  0  9G 6G26G 7G 2G30G 9G 3G23G16
  -8478947.73446  -6590137.55547  21363789.497    21363790.4234   21363796.2074
        47.7004         44.7004
   -279156.10443   -214263.42345  25041375.738    25041377.4864   25041382.6894
        37.6004         35.5004
 -14254777.61046 -11096770.69047  21474588.961    21474588.3024   21474591.2334
        47.0004         44.2004
 -11459232.73145  -8913949.68647  21801163.434    21801162.5864   21801163.2924
        46.3004         43.7004
  -5479635.63144  -4256086.93246  23074553.368    23074553.2234   23074558.2614
        42.3004         39.9004
 -18266197.72147 -14194913.46847  20553405.754    20553405.5324   20553409.9864
        50.5004         47.7004
   2714000.07642   2401018.87845  25007554.439    25007558.9014   25007564.7164
        37.5004         35.3004
 -12253219.80245  -9008945.42446  22354239.959    22354239.9154   22354240.1904
        44.4004         41.4004
  -2048507.45242  -1586715.71345  24223622.223    24223621.5164   24223626.1664
        36.4004         34.6004
 16  6 13  2 16 30.0000000  0  9G 6G26G 7G 2G30G 9G 3G23G16
  -8413739.41346  -6539325.89647  21376198.701    21376199.3994   21376204.8004
        47.5004         44.7004
   -257337.49643   -197261.91345  25045527.315    25045527.9634   25045534.2624
        37.8004         35.5004
 -14321724.02546 -11148936.70847  21461847.919    21461848.6234   21461851.6364
        47.0004         44.2004
 -11492233.97546  -8939664.95947  21794883.787    21794882.9674   21794883.2634
        46.5004         43.7004
  -5585446.35644  -4338536.81346  23054417.581    23054417.8744   23054423.8624
        42.3004         39.9004
 -18224806.63647 -14162660.67347  20561281.733    20561281.6294   20561286.8434
        50.5004         47.7004
   2815929.86242   2480444.73645  25026950.480    25026953.4264   25026962.3654
        37.1004         34.8004
 -12178220.37745  -8950504.33546  22368511.855    22368511.6514   22368512.2514
        44.4004         41.6004
  -2078597.11342  -1610162.15245  24217897.812    24217897.5764   24217898.7984
        36.1004         34.1004
 16  6 13  2 17  0.0000000  0  9G 6G26G 7G 2G30G 9G 3G23G16
  -8348039.19046  -6488130.94147  21388701.322    21388701.9044   21388707.3854
        47.5004         44.7004
   -234971.69043   -179834.02545  25049785.010    25049784.6054   25049789.9814
        37.8004         35.7004
 -14388230.37946 -11200759.83047  21449192.593    21449192.8514   21449195.8964
        47.0004         44.2004
 -11524700.45845  -8964963.50447  21788704.953    21788704.4524   21788704.9894
        46.3004         43.5004
  -5691048.89144  -4420824.46146  23034322.542    23034322.2204   23034328.5794
        42.3004         39.7004
 -18183062.28747 -14130132.60347  20569225.300    20569225.3114   20569230.4324
        50.5004         47.7004
   2917945.19242   2559937.24345  25046367.815    25046367.9754   25046373.8644
        36.6004         34.5004
 -12103023.86445  -8891909.65846  22382820.855    22382821.3504   22382821.0784
        44.4004         41.6004
  -2108126.65242  -1633172.16945  24212277.783    24212279.2994   24212279.8904
        36.3004         34.5004
 16  6 13  2 17 30.0000000  0  9G 6G26G 7G 2G30G 9G 3G23G16
  -8281849.15146  -6436554.29847  21401297.030    21401297.5724   21401303.0104
        47.5004         44.5004
   -212059.28943   -161980.23245  25054144.434    25054143.7144   25054149.6934
        37.6004         35.5004
 -14454294.58346 -11252238.41147  21436621.401    21436621.6564   21436624.6804
        47.0004         44.2004
 -11556630.60145  -8989844.14547  21782629.086    21782628.4134   21782628.9074
        46.3004         43.5004
  -5796440.63544  -4502947.86446  23014268.164    23014267.0444   23014272.9374
        42.3004         39.5004
 -18140965.91747 -14097330.23147  20577235.890    20577235.8494   20577240.9444
        50.3004         47.5004
   3020044.95842   2639495.57745  25065795.057    25065793.7264   25065805.1764
        36.1004         34.1004
 -12027631.82245  -8833162.63846  22397169.407    22397168.5184   22397168.0564
        44.4004         41.8004
  -2137094.15342  -1655744.22845  24206767.964    24206766.2754   24206767.1334
        36.6004         34.8004
 16  6 13  2 18  0.0000000  0  9G 6G26G 7G 2G30G 9G 3G23G16
  -8215171.43446  -6384597.65847  21413985.786    21413986.0094   21413991.2924
        47.4004         44.5004
   -188600.88542   -143700.91445  25058606.334    25058607.1734   25058614.6994
        37.5004         35.3004
 -14519915.02846 -11303371.20547  21424134.240    21424134.7264   21424137.1394
        47.0004         44.4004
 -11588023.15845  -9014305.87647  21776654.897    21776654.6014   21776654.8394
        46.3004         43.3004
  -5901619.01744  -4584905.01546  22994251.596    22994252.2574   22994258.4974
        42.3004         39.7004
 -18098518.83747 -14064254.58147  20585313.233    20585313.2944   20585318.2514
        50.3004         47.5004
   3122228.16942   2719118.94345  25085241.824    25085240.4504   25085248.0164
        36.1004         34.5004
 -11952045.03945  -8774263.86346  22411552.310    22411551.9284   22411551.7864
        44.4004         41.6004
  -2165498.22342  -1677877.23545  24201361.176    24201358.0724   24201362.5244
        36.3004         34.3004
 16  6 13  2 18 30.0000000  0  9G 6G26G 7G 2G30G 9G 3G23G16
  -8148008.14146  -6332262.64047  21426765.662    21426766.2534   21426772.1804
        47.2004         44.4004
   -164597.13543   -124996.70445  25063176.649    25063177.2924   25063182.5964
        37.8004         35.7004
 -14585089.91546 -11354156.80947  21411731.581    21411731.8704   21411734.8824
        47.2004         44.2004
 -11618877.08745  -9038347.89147  21770783.738    21770783.2004   21770783.7414
        46.2004         43.3004
  -6006581.45944  -4666693.90646  22974277.828    22974278.4244   22974284.3744
        42.2004         39.5004
 -18055722.31347 -14030906.63447  20593456.755    20593457.0834   20593462.0044
        50.2004         47.3004
   3224493.80842   2798806.47845  25104704.297    25104703.4304   25104707.0384
        36.3004         34.3004
 -11876265.12445  -8715214.59546  22425972.803    22425972.1034   22425972.1484
        44.2004         41.4004
  -2193336.75442  -1699569.59845  24196061.990    24196061.8794   24196064.6464
        36.3004         34.3004
 16  6 13  2 19  0.0000000  0  9G 6G26G 7G 2G30G 9G 3G23G16
  -8080361.41846  -6279550.92147  21439638.527    21439639.0214   21439644.9094
        47.2004         44.4004
   -140048.71442   -105868.08745  25067847.170    25067845.9864   25067852.7704
        37.5004         35.3004
 -14649817.28746 -11404593.69747  21399414.708    21399414.9284   21399417.8404
        47.2004         44.4004
 -11649191.03445  -9061969.15147  21765014.544    21765014.1864   21765014.9644
        46.0004         43.0004
  -6111325.35744  -4748312.50846  22954345.554    22954345.2614   22954351.7784
        42.2004         39.7004
 -18012577.64147 -13997287.40547  20601667.054    20601667.1674   20601671.8534
        50.2004         47.3004
   3326840.92142   2878557.48345  25124174.953    25124178.6144   25124182.1094
        35.9004         34.0004
 -11800292.83645  -8656015.42846  22440430.059    22440429.1004   22440429.3764
        44.2004         41.2004
  -2220608.68242  -1720820.45345  24190872.197    24190873.0704   24190874.2554
        36.3004         34.6004
 16  6 13  2 19 30.0000000  0  9G 6G26G 7G 2G30G 9G 3G23G16
  -8012233.42346  -6226464.18847  21452603.565    21452603.3914   21452609.2654
        47.2004         44.4004
   -114956.28642    -86315.56145  25072622.719    25072622.6844   25072629.0264
        37.5004         35.5004
 -14714095.47346 -11454680.58247  21387182.543    21387183.2474   21387186.0814
        47.4004         44.5004
 -11678963.81845  -9085168.72747  21759349.925    21759349.5384   21759350.0224
        46.0004         43.2004
  -6215848.16644  -4829758.84046  22934456.853    22934456.1804   22934461.7584
        42.2004         39.7004
 -17969086.11747 -13963397.90547  20609943.178    20609943.7514   20609947.8314
        50.2004         47.3004
   3429268.53042   2958371.28345  25143666.293    25143669.6014   25143673.1794
        35.6004         33.8004
 -11724129.68145  -8596667.52746  22454923.047    22454922.3064   22454922.7554
        44.2004         41.4004
  -2247312.52342  -1741628.63645  24185789.748    24185791.8854   24185794.1614
        36.4004         34.5004
 16  6 13  2 20  0.0000000  0  9G 6G26G 7G 2G30G 9G 3G23G16
  -7943626.35746  -6173004.15247  21465658.978    21465659.2554   21465664.2874
        47.2004         44.5004
    -89320.56242    -66339.67645  25077499.816    25077500.1784   25077507.0074
        37.5004         35.3004
 -14777922.57546 -11504415.97647  21375037.410    21375037.6574   21375039.9224
        47.4004         44.5004
 -11708194.16545  -9107945.61047  21753786.740    21753786.4284   21753787.0384
        46.0004         43.2004
  -6320147.30744  -4911030.87246  22914609.540    22914608.6624   22914614.8414
        42.3004         39.9004
 -17925249.00947 -13929239.12147  20618285.979    20618285.6904   20618289.9044
        50.2004         47.3004
   3531775.54842   3038246.93945  25163175.725    25163174.5584   25163180.5724
        35.0004         33.4004
 -11647777.08145  -8537172.01246  22469451.620    22469451.0564   22469452.8004
        44.1004         41.2004
  -2273446.25642  -1761992.58745  24180820.825    24180818.7564   24180820.9444
        36.8004         35.0004
 16  6 13  2 20 30.0000000  0  9G 6G26G 7G 2G30G 9G 3G23G16
  -7874542.36446  -6119172.47547  21478804.142    21478804.7764   21478811.1634
        47.4004         44.5004
    -63142.27642    -45941.03345  25082481.741    25082480.4784   25082486.5864
        36.8004         34.6004
 -14841296.97246 -11553798.60847  21362978.073    21362978.0174   21362980.2864
        47.5004         44.5004
 -11736881.03145  -9130299.01247  21748327.571    21748326.5744   21748328.1894
        46.0004         43.2004
  -6424220.20944  -4992126.61346  22894803.321    22894803.8614   22894809.5224
        42.5004         39.7004
 -17881067.63147 -13894812.06347  20626693.051    20626693.0024   20626697.4714
        50.2004         47.5004
   3634360.95942   3118183.66145  25182701.604    25182699.2694   25182703.2654
        35.6004         33.8004
 -11571236.07845  -8477529.69646  22484017.289    22484016.8544   22484017.9154
        44.1004         41.4004
  -2299008.37242  -1781911.13445  24175953.696    24175955.6374   24175957.5194
        37.3004         35.2004
 16  6 13  2 21  0.0000000  0  9G 6G26G 7G 2G30G 9G 3G23G16
  -7804983.65646  -6064970.89147  21492041.603    21492041.7854   21492047.6024
        47.4004         44.5004
    -36422.13042    -25120.14645  25087567.334    25087566.3984   25087572.2014
        36.8004         34.8004
 -14904216.69546 -11602826.94447  21351004.183    21351004.2364   21351007.2834
        47.5004         44.7004
 -11765023.29745  -9152228.05047  21742972.314    21742972.1884   21742972.8544
        46.0004         43.2004
  -6528064.28544  -5073044.04846  22875043.136    22875043.2934   22875048.5914
        42.3004         39.9004
 -17836543.25247 -13860117.73947  20635165.747    20635165.6304   20635170.7034
        50.2004         47.3004
   3737023.76842   3198180.68545  25202238.560    25202233.5574   25202239.1004
        36.3004         34.5004
 -11494507.90045  -8417741.52746  22498617.798    22498618.2674   22498619.7934
        44.1004         41.4004
  -2323997.69643  -1801383.30246  24171201.525    24171200.2454   24171202.4984
        38.0004         36.0004
 16  6 13  2 21 30.0000000  0  9G 6G26G 7G 2G30G 9G 3G23G16
  -7734952.45946  -6010401.14047  21505368.176    21505368.7544   21505374.0894
        47.4004         44.5004
     -9160.91042     -3877.66745  25092753.027    25092755.4654   25092763.0904
        37.0004         35.0004
 -14966679.86846 -11651499.52847  21339117.112    21339118.0044   21339120.6084
        47.5004         44.7004
 -11792619.74645  -9173731.79647  21737721.346    21737720.2154   21737720.7824
        46.0004         43.0004
  -6631677.01044  -5153781.19946  22855325.749    22855325.5774   22855331.3634
        42.3004         39.7004
 -17791677.15447 -13825157.14547  20643703.228    20643703.2524   20643708.2084
        50.2004         47.3004
   3839762.89142   3278237.19045  25221785.488    25221784.9604   25221790.7714
        36.6004         34.6004
 -11417593.62645  -8357808.34946  22513254.264    22513254.1134   22513256.5854
        44.1004         41.2004
  -2348412.42443  -1820407.72346  24166554.518    24166555.2704   24166556.4004
        38.3004         36.2004
 16  6 13  2 22  0.0000000  0  9G 6G26G 7G 2G30G 9G 3G23G16
  -7664451.00246  -5955464.96447  21518784.601    21518785.1774   21518789.9334
        47.4004         44.4004
     18640.47942     17785.71745  25098045.387    25098043.8204   25098048.7264
        37.1004         35.2004
 -15028685.24846 -11699815.37547  21327318.039    21327318.4794   21327321.3084
        47.5004         44.7004
 -11819669.38545  -9194809.45247  21732572.792    21732572.7034   21732574.1644
        45.8004         43.0004
  -6735055.77344  -5234336.05146  22835652.477    22835652.7584   22835659.0364
        42.2004         39.5004
 -17746470.67947 -13789931.31247  20652305.596    20652305.7004   20652310.7484
        50.2004         47.3004
   3942577.34542   3358352.32045  25241350.146    25241350.3284   25241355.1124
        36.8004         35.0004
 -11340494.69145  -8297731.28846  22527926.323    22527925.5374   22527926.6594
        44.2004         41.6004
  -2372251.07543  -1838983.28445  24162018.026    24162016.6464   24162019.7994
        37.8004         35.5004
 16  6 13  2 22 30.0000000  0  8G 6G26G 7G 2G30G 9G23G16
  -7593481.55146  -5900164.10647  21532288.922    21532289.5104   21532294.8474
        47.2004         44.4004
     46981.36642     39869.46845  25103435.920    25103437.1564   25103444.3694
        37.1004         35.2004
 -15090230.88446 -11747772.98447  21315605.755    21315606.1204   21315609.9224
        47.5004         44.9004
 -11846171.03445  -9215460.08947  21727530.214    21727529.7944   21727531.3474
        46.0004         43.3004
  -6838198.06344  -5314706.63546  22816025.653    22816026.4884   22816031.8534
        42.2004         39.7004
 -17700925.06447 -13754441.22147  20660973.126    20660972.9184   20660977.6834
        50.2004         47.3004
 -11263212.39345  -8237511.34746  22542631.800    22542631.8284   22542633.6474
        44.2004         41.4004
  -2395512.64542  -1857109.17645  24157590.487    24157590.2254   24157592.5284
        37.3004         35.2004
 16  6 13  2 23  0.0000000  0  8G 6G26G 7G 2G30G 9G23G16
  -7522046.32146  -5844500.30947  21545882.894    21545883.6714   21545889.0634
        47.2004         44.4004
     75860.75742     62372.85345  25108934.188    25108933.4614   25108938.9054
        37.5004         35.5004
 -15151314.76446 -11795370.78647  21303982.599    21303982.6384   21303986.4214
        47.7004         45.1004
 -11872123.51045  -9235682.79347  21722592.918    21722591.7944   21722593.1214
        46.2004         43.5004
  -6941101.27744  -5394890.94746  22796444.857    22796445.1804   22796449.7684
        42.3004         39.9004
 -17655041.62947 -13718687.89847  20669703.664    20669704.1404   20669709.1754
        50.2004         47.2004
 -11185747.84045  -8177149.37446  22557374.037    22557373.8144   22557375.3454
        44.2004         41.4004
  -2418195.30942  -1874783.98445  24153272.540    24153273.1564   24153278.9514
        37.3004         35.3004
 16  6 13  2 23 30.0000000  0  8G 6G26G 7G 2G30G 9G23G16
  -7450147.58846  -5788475.33247  21559564.601    21559564.7964   21559570.0624
        47.0004         44.0004
    105277.68842     85295.09845  25114530.631    25114531.2844   25114536.9844
        37.3004         35.2004
 -15211935.76646 -11842607.90947  21292446.849    21292447.2354   21292450.1694
        47.9004         45.1004
 -11897525.95745  -9255476.90647  21717758.492    21717758.4424   21717758.6934
        46.3004         43.7004
  -7043762.90444  -5474887.00346  22776909.749    22776908.9694   22776915.3244
        42.5004         40.0004
 -17608821.69547 -13682672.35947  20678499.755    20678499.6804   20678504.3494
        50.2004         47.3004
 -11108101.92545  -8116646.08646  22572148.896    22572148.7314   22572150.3734
        44.2004         41.2004
  -2440297.41042  -1892006.37345  24149066.981    24149066.4484   24149071.3844
        37.1004         35.2004
 16  6 13  2 24  0.0000000  0  8G 6G26G 7G 2G30G 9G23G16
  -7377787.68746  -5732091.00947  21573334.611    21573334.8134   21573339.9264
        47.0004         44.0004
    135231.70642    108635.83445  25120231.558    25120231.5584   25120238.0504
        37.1004         35.2004
 -15272092.04846 -11889482.91147  21281000.145    21281000.0154   21281002.6614
        47.9004         45.1004
 -11922377.45046  -9274841.70747  21713029.858    21713029.0824   21713029.5644
        46.5004         43.5004
  -7146180.35944  -5554692.79446  22757419.371    22757418.8374   22757425.9094
        42.7004         40.0004
 -17562266.50747 -13646395.58547  20687358.668    20687358.8124   20687363.4744
        50.0004         47.2004
 -11030276.01845  -8056002.54746  22586958.892    22586958.2914   22586958.8444
        44.1004         40.9004
  -2461818.52742  -1908776.03445  24144971.687    24144970.9884   24144977.0954
        37.3004         35.2004
 16  6 13  2 24 30.0000000  0  8G 6G26G 7G 2G30G 9G23G16
  -7304968.89346  -5675349.10747  21587191.046    21587191.3114   21587197.0684
        46.9004         44.0004
    165721.67842    132394.24945  25126033.777    25126033.7864   25126037.4534
        37.1004         35.0004
 -15331781.49146 -11935994.14447  21269642.027    21269641.7534   21269643.6764
        47.9004         45.1004
 -11946676.67146  -9293776.17147  21708405.552    21708404.9894   21708405.4434
        46.5004         43.9004
  -7248351.10144  -5634306.33946  22737978.074    22737977.7114   22737982.9654
        42.9004         40.2004
 -17515377.38247 -13609858.60747  20696281.936    20696281.6804   20696286.3484
        50.0004         47.2004
 -10952271.25345  -7995219.62446  22601802.849    22601801.5414   22601803.3874
        43.9004         41.1004
  -2482756.97742  -1925091.71845  24140987.089    24140985.4334   24140990.1994
        36.6004         34.5004
 16  6 13  2 25  0.0000000  0  8G 6G26G 7G 2G30G 9G23G16
  -7231693.52746  -5618251.43647  21601135.163    21601135.3404   21601140.8364
        46.7004         43.9004
    196746.72142    156569.57845  25131937.235    25131938.0344   25131943.1764
        37.0004         35.0004
 -15391002.75446 -11982140.56347  21258371.864    21258372.1054   21258374.1174
        47.9004         45.2004
 -11970422.75146  -9312279.61447  21703887.322    21703886.0204   21703886.5834
        46.7004         43.9004
  -7350272.61744  -5713725.67746  22718583.682    22718582.5404   22718587.8244
        42.9004         40.2004
 -17468155.61647 -13573062.42447  20705267.251    20705267.3804   20705271.9824
        50.0004         47.2004
 -10874089.09845  -7934298.48946  22616680.135    22616680.0714   22616680.8414
        43.7004         40.7004
  -2503111.04042  -1940952.01745  24137113.292    24137112.7104   24137117.7964
        36.6004         34.6004
 16  6 13  2 25 30.0000000  0  8G 6G26G 7G 2G30G 9G23G16
  -7157963.90446  -5560799.79147  21615165.254    21615165.6314   21615171.6524
        46.7004         44.0004
    228305.76742    181160.99145  25137942.465    25137942.9534   25137950.7104
        36.6004         34.5004
 -15449754.28846 -12027920.96247  21247192.035    21247192.3574   21247194.1304
        48.1004         45.2004
 -11993614.92746  -9330351.43447  21699473.761    21699473.0444   21699472.9344
        46.7004         43.7004
  -7451942.35644  -5792948.82946  22699234.970    22699234.5204   22699240.7334
        42.9004         40.2004
 -17420602.52347 -13536008.06547  20714316.496    20714316.8464   20714321.4324
        50.0004         47.2004
 -10795730.58945  -7873239.92846  22631591.584    22631591.2204   22631591.2234
        43.7004         40.9004
  -2522879.74342  -1956356.20245  24133353.429    24133352.3864   24133355.1034
        37.0004         35.0004
