     2.10           OBSERVATION DATA    G (GPS)             RINEX VERSION / TYPE
teqc  2006Dec12     IGN-RGP             20160609 11:10:02UTCPGM / RUN BY / DATE
Linux 2.4.20-8|Pentium IV|gcc|Linux|486/DX+                 COMMENT
     2.11           OBSERVATION DATA    G (GPS)             COMMENT
teqc  2013Mar15     Observatoire de Pari20160609 00:52:18UTCCOMMENT
Linux 2.4.21-27.ELsmp|Opteron|gcc|Linux x86_64|=+           COMMENT
BIT 2 OF LLI FLAGS DATA COLLECTED UNDER A/S CONDITION       COMMENT
OPMT                                                        MARKER NAME
10001S006                                                   MARKER NUMBER
Automatic           BNM-SYRTE                               OBSERVER / AGENCY
02942               ASHTECH Z-XII3T     1L01-1D04           REC # / TYPE / VERS
00019               3S-02-TSADM     NONE                    ANT # / TYPE
  4202777.6220   171367.7610  4778659.9840                  APPROX POSITION XYZ
        0.0000        0.0000        0.0000                  ANTENNA: DELTA H/E/N
     1     1                                                WAVELENGTH FACT L1/2
     7    L1    L2    C1    P1    P2    S1    S2            # / TYPES OF OBSERV
 SNR is mapped to RINEX snr flag value [0-9]                COMMENT
  L1 & L2: min(max(int(snr_dBHz/6), 0), 9)                  COMMENT
pseudorange smoothing corrections not applied               COMMENT
  2016     6     8     0     0    0.0000000     GPS         TIME OF FIRST OBS
                                                            END OF HEADER
 16  6  8  0  0  0.0000000  0 10G19G17G31G 6G11G23G 3G 1G22G 9
 -15116446.87345 -11756831.82447  22120884.947    22120884.0984   22120886.1564
        46.0004         43.0004
 -10640187.87545  -8262711.35047  22061668.570    22061668.3474   22061671.3454
        45.6004         42.6004
  -7459758.65844  -5799903.49046  23592572.806    23592572.7234   23592573.9604
        40.6004         37.9004
  -2537416.39544  -1954146.01846  22552336.830    22552337.4884   22552343.6484
        43.4004         40.9004
                    217636.01255  24711847.198
                        30.1004
 -20294259.66346 -15798489.09647  20993141.678    20993141.3934   20993141.7334
        48.1004         45.2004
 -20062329.31847 -15613231.44147  20576048.733    20576048.7104   20576053.1684
        50.2004         47.5004
  -6951374.07744  -5393826.99846  22628589.544    22628590.1774   22628596.4964
        42.9004         40.2004
 -11998551.13845  -9070245.21247  21884908.014    21884907.1234   21884907.8594
        45.8004         43.0004
 -10337678.19245  -8032286.80046  22151490.744    22151490.5854   22151495.4464
        44.4004         41.8004
 16  6  8  0  0 30.0000000  0 10G19G17G31G 6G11G23G 3G 1G22G 9
 -15113653.55545 -11754655.21147  22121416.554    22121415.2504   22121417.6704
        45.8004         43.0004
 -10596529.82845  -8228692.08547  22069975.968    22069976.9384   22069979.6874
        45.5004         42.8004
  -7432334.62743  -5778534.13946  23597791.557    23597791.4164   23597792.6324
        40.3004         37.6004
  -2626244.67645  -2023362.81146  22535433.130    22535433.6574   22535440.1644
        43.7004         41.1004
                     24018.55853  24734570.319
                        23.4004
 -20338942.14446 -15833306.59247  20984638.483    20984638.1084   20984639.2354
        48.1004         45.4004
 -20027503.68147 -15586094.57547  20582674.954    20582675.5584   20582680.3184
        50.2004         47.3004
  -6856504.27344  -5319902.49846  22646642.718    22646643.2834   22646650.0534
        42.9004         40.0004
 -11930874.80145  -9017510.42647  21897787.441    21897786.4004   21897787.0144
        45.8004         43.0004
 -10430684.18345  -8104758.95346  22133791.851    22133791.7044   22133797.0964
        44.6004         41.9004
 16  6  8  0  1  0.0000000  0 10G19G17G31G 6G11G23G 3G 1G22G 9
 -15110223.67645 -11751982.56647  22122069.258    22122068.1634   22122070.5054
        45.8004         42.8004
 -10552338.82945  -8194257.54547  22078386.235    22078385.9954   22078388.3964
        45.6004         43.0004
  -7404332.19543  -5756714.06446  23603119.803    23603120.1954   23603120.7424
        39.9004         37.4004
  -2714831.13045  -2092391.18446  22518576.231    22518576.6234   22518582.3194
        43.9004         41.2004
                    117057.40144  24757297.777
                        29.1004
 -20383165.69346 -15867766.48947  20976222.968    20976222.4684   20976223.6614
        48.1004         45.4004
 -19992350.74447 -15558702.68247  20589365.376    20589365.4594   20589369.8314
        50.3004         47.5004
  -6761379.29444  -5245779.14446  22664744.352    22664745.2234   22664751.0504
        42.9004         40.2004
 -11862990.55145  -8964613.62347  21910704.649    21910703.7444   21910704.7894
        45.8004         42.8004
 -10523373.85745  -8176984.63647  22116153.272    22116153.0524   22116159.1844
        44.8004         42.1004
 16  6  8  0  1 30.0000000  0 10G19G17G31G 6G11G23G 3G 1G22G 9
 -15106157.62445 -11748814.20547  22122842.722    22122841.6304   22122844.0604
        45.6004         42.6004
 -10507617.01645  -8159409.37947  22086895.993    22086895.8264   22086897.6344
        45.5004         42.5004
  -7375751.93043  -5734443.71946  23608558.222    23608559.3464   23608559.6514
        39.9004         37.6004
  -2803173.56145  -2161229.39246  22501765.397    22501765.6764   22501771.1984
        44.1004         41.4004
                    210123.55344  24780022.686
                        29.1004
 -20426929.49846 -15901868.15247  20967894.426    20967894.0974   20967895.5494
        48.1004         45.2004
 -19956871.18047 -15531056.26747  20596115.919    20596116.6964   20596121.0984
        50.2004         47.3004
  -6666000.61244  -5171458.11346  22682895.478    22682895.7734   22682901.1014
        42.9004         40.4004
 -11794898.88445  -8911555.19847  21923662.447    21923660.8454   21923661.5804
        45.6004         42.6004
 -10615745.41545  -8248962.44347  22098575.437    22098575.9084   22098581.8504
        44.9004         42.5004
 16  6  8  0  2  0.0000000  0 10G19G17G31G 6G11G23G 3G 1G22G 9
 -15101455.60345 -11745150.28947  22123737.801    22123736.8164   22123738.4304
        45.5004         42.6004
 -10462366.20245  -8124149.00847  22095507.238    22095506.9474   22095509.5304
        45.5004         42.6004
  -7346595.08143  -5711724.11146  23614107.211    23614107.6924   23614108.1884
        40.3004         37.8004
  -2891269.72645  -2229875.70846  22485000.814    22485000.9944   22485007.2414
        44.2004         41.6004
                     16282.60953  24802743.767
                        23.4004
 -20470232.99846 -15935611.13147  20959654.077    20959653.9084   20959655.1104
        48.1004         45.2004
 -19921065.65647 -15503155.85447  20602929.881    20602930.2194   20602934.8444
        50.2004         47.2004
  -6570369.71944  -5096940.56046  22701092.688    22701092.9584   22701098.8044
        43.0004         40.4004
 -11726600.50145  -8858335.70147  21936658.085    21936657.8994   21936659.3054
        45.6004         42.8004
 -10707796.95745  -8320690.88747  22081058.722    22081059.1774   22081064.2564
        45.1004         42.5004
 16  6  8  0  2 30.0000000  0 10G19G17G31G 6G11G23G 3G 1G22G 9
 -15096118.00745 -11740991.11647  22124753.608    22124752.6894   22124754.2774
        45.5004         42.8004
 -10416587.31345  -8088477.16347  22104218.504    22104218.8664   22104220.9014
        45.6004         43.0004
  -7316862.52343  -5688555.90746  23619765.956    23619766.7494   23619766.2154
        40.4004         37.9004
  -2979117.38345  -2298328.38446  22468283.908    22468284.7774   22468290.3484
        44.4004         41.8004
                    109416.14254  24825495.073
                        28.7004
 -20513075.46846 -15968994.86047  20951501.589    20951501.4034   20951502.8194
        48.1004         45.2004
 -19884934.84547 -15475001.97847  20609804.844    20609805.7784   20609810.1084
        50.2004         47.3004
  -6474488.23244  -5022227.73346  22719338.208    22719338.8154   22719345.1424
        43.0004         40.2004
 -11658096.42545  -8804955.93547  21949695.538    21949693.4904   21949694.3354
        45.5004         42.6004
 -10799526.63945  -8392168.51747  22063603.490    22063603.6714   22063609.0954
        45.3004         42.5004
 16  6  8  0  3  0.0000000  0 10G19G17G31G 6G11G23G 3G 1G22G 9
 -15090145.25945 -11736337.02347  22125890.262    22125889.5374   22125891.0494
        45.6004         43.0004
 -10370283.16745  -8052396.01347  22113029.172    22113029.8414   22113032.8774
        45.6004         42.8004
  -7286555.13443  -5664939.77546  23625532.830    23625532.3234   23625533.5314
        40.3004         37.8004
  -3066714.31345  -2366585.69046  22451614.855    22451615.2214   22451621.0164
        44.4004         41.6004
                    202575.88654  24848258.352
                        29.6004
 -20555456.04646 -16002018.67847  20943436.944    20943436.9114   20943437.4594
        48.1004         45.4004
 -19848479.45447 -15446595.17247  20616742.708    20616742.8544   20616747.6354
        50.2004         47.3004
  -6378357.59544  -4947320.77746  22737629.652    22737631.3334   22737637.8894
        42.9004         40.2004
 -11589387.15345  -8751416.27947  21962769.063    21962768.4034   21962769.1714
        45.5004         42.6004
 -10890932.63645  -8463393.94047  22046209.129    22046209.7364   22046214.3484
        45.3004         42.6004
 16  6  8  0  3 30.0000000  0 10G19G17G31G 6G11G23G 3G 1G22G 9
 -15083537.58445 -11731188.18947  22127147.833    22127146.6774   22127148.4964
        45.8004         43.0004
 -10323455.61845  -8015907.02547  22121940.782    22121940.2114   22121943.3334
        45.5004         42.8004
  -7255674.19543  -5640876.72346  23631409.229    23631408.5874   23631410.5104
        40.3004         37.9004
  -3154058.26845  -2434645.88346  22434993.432    22434994.6054   22434999.5894
        44.2004         41.4004
                      8530.85453  24871018.414
                        23.4004
 -20597374.18446 -16034682.13647  20935461.185    20935460.3804   20935460.9834
        48.2004         45.6004
 -19811700.13147 -15417935.95847  20623741.508    20623741.6394   20623746.4684
        50.2004         47.2004
  -6281979.41344  -4872220.92746  22755972.499    22755971.7664   22755978.1354
        42.9004         40.0004
 -11520473.54645  -8697717.38347  21975884.016    21975881.9204   21975883.6674
        45.5004         42.6004
 -10982013.06545  -8534365.66047  22028877.786    22028876.9384   22028882.1014
        45.3004         42.5004
 16  6  8  0  4  0.0000000  0 10G19G17G31G 6G11G23G 3G 1G22G 9
 -15076295.26345 -11725544.81347  22128525.082    22128524.8164   22128526.7044
        46.0004         43.2004
 -10276106.05145  -7979011.26747  22130950.597    22130951.1314   22130954.2184
        45.5004         42.8004
  -7224219.91043  -5616366.89446  23637393.377    23637393.9364   23637396.4004
        40.4004         37.9004
  -3241146.98045  -2502507.17346  22418421.221    22418421.8544   22418427.0514
        44.2004         41.6004
                    101773.41054  24893767.470
                        28.0004
 -20638829.15446 -16066984.69447  20927571.925    20927571.6824   20927572.2094
        48.4004         45.6004
 -19774597.56547 -15389024.87347  20630801.467    20630802.1444   20630806.7894
        50.0004         47.3004
  -6185355.15544  -4796929.32646  22774358.782    22774358.5454   22774364.9384
        42.7004         39.9004
 -11451356.54945  -8643859.99547  21989035.349    21989034.8564   21989035.4864
        45.5004         42.8004
 -11072766.07645  -8605082.25447  22011606.750    22011607.0334   22011612.3574
        45.3004         42.5004
 16  6  8  0  4 30.0000000  0 10G19G17G31G 6G11G23G 3G 1G22G 9
 -15068419.02845 -11719407.48347  22130025.024    22130023.4194   22130025.5904
        46.0004         43.2004
 -10228235.93245  -7941709.87947  22140060.595    22140060.8154   22140063.8374
        45.6004         43.0004
  -7192193.52144  -5591411.30146  23643488.626    23643488.6244   23643489.9784
        40.6004         38.1004
  -3327978.21345  -2570167.83146  22401897.965    22401898.7234   22401903.8904
        44.2004         41.8004
                    195127.52455  24916535.522
                        30.0004
 -20679820.15446 -16098925.71947  20919771.516    20919771.1324   20919772.0114
        48.4004         45.6004
 -19737172.46247 -15359862.46047  20637923.249    20637923.7304   20637928.3184
        50.0004         47.2004
  -6088486.43744  -4721447.22746  22792791.239    22792791.5614   22792798.8884
        42.5004         39.7004
 -11382036.55045  -8589844.43247  22002226.973    22002226.3234   22002226.4724
        45.5004         42.6004
 -11163189.86645  -8675542.32047  21994400.667    21994400.2514   21994406.3774
        45.5004         43.0004
 16  6  8  0  5  0.0000000  0 10G19G17G31G 6G11G23G 3G 1G22G 9
 -15059909.39945 -11712776.60247  22131644.749    22131643.8394   22131644.9794
        46.0004         43.2004
 -10179847.84545  -7904004.88947  22149268.369    22149268.2494   22149271.4674
        45.6004         42.8004
  -7159595.99344  -5566010.64546  23649692.064    23649692.4134   23649693.8664
        40.8004         38.3004
  -3414549.72445  -2637626.11246  22385423.432    22385424.1354   22385429.3064
        44.4004         41.4004
                       764.74153  24939317.259
                        23.4004
 -20720346.73746 -16130504.86547  20912059.404    20912059.3904   20912059.9764
        48.4004         45.6004
 -19699425.49347 -15330449.24447  20645106.799    20645106.9634   20645111.3694
        50.0004         47.3004
  -5991374.75144  -4645775.81646  22811271.967    22811272.6264   22811279.2244
        42.3004         39.7004
 -11312514.75745  -8535671.60947  22015456.527    22015455.8274   22015456.5614
        45.6004         42.8004
 -11253282.63945  -8745744.45547  21977256.828    21977256.0764   21977261.5854
        45.6004         42.8004
 16  6  8  0  5 30.0000000  0 10G19G17G31G 6G11G23G 3G 1G22G 9
 -15050766.88345 -11705652.56347  22133384.392    22133383.3614   22133384.2394
        46.2004         43.2004
 -10130943.05145  -7865897.27747  22158574.209    22158574.6434   22158577.8114
        45.5004         42.5004
  -7126428.54544  -5540165.87446  23656002.696    23656003.3984   23656005.8244
        40.9004         38.5004
  -3500859.25945  -2704880.25346  22368998.979    22368999.7784   22369005.1184
        44.2004         41.6004
                     94021.60654  24962088.030
                        27.7004
 -20760408.17046 -16161721.55347  20904436.101    20904436.0444   20904436.6694
        48.4004         45.6004
 -19661357.31447 -15300785.72947  20652350.807    20652351.2454   20652355.7614
        50.2004         47.3004
  -5894021.68944  -4569916.30646  22829797.219    22829797.8774   22829803.6944
        42.2004         39.5004
 -11242791.63245  -8481341.92547  22028725.786    22028724.0934   22028724.4134
        45.6004         42.6004
 -11343042.56045  -8815687.22347  21960174.307    21960175.0494   21960181.6694
        45.6004         42.6004
 16  6  8  0  6  0.0000000  0 10G19G17G31G 6G11G23G 3G 1G22G 9
 -15040991.81645 -11698035.62747  22135243.840    22135242.9444   22135243.9234
        46.0004         42.8004
 -10081524.14645  -7827389.05547  22167978.449    22167978.6534   22167982.0064
        45.5004         42.8004
  -7092692.01844  -5513877.65946  23662423.880    23662423.7694   23662425.5814
        40.9004         38.5004
  -3586904.55345  -2771928.49447  22352626.235    22352626.3234   22352631.1874
        44.6004         42.1004
                    187201.56155  24984870.779
                        30.0004
 -20800003.76246 -16192575.24247  20896901.547    20896901.1164   20896901.5974
        48.4004         45.6004
 -19622968.61447 -15270872.46447  20659655.808    20659656.2354   20659660.6024
        50.2004         47.2004
  -5796428.79744  -4493869.91546  22848367.900    22848368.8444   22848375.3654
        41.8004         39.2004
 -11172868.03045  -8426856.00847  22042031.056    22042029.9834   22042030.4754
        45.5004         42.6004
 -11432467.79945  -8885369.19647  21943159.240    21943158.7644   21943163.6824
        45.8004         43.0004
 16  6  8  0  6 30.0000000  0 10G19G17G31G 6G11G23G 3G 1G22G 9
 -15030584.87945 -11689926.33547  22137224.563    22137223.8474   22137223.9144
        45.6004         42.5004
 -10031592.69045  -7788481.43547  22177480.714    22177481.1674   22177483.5824
        45.6004         42.8004
  -7058387.43744  -5487146.85546  23668951.502    23668951.5084   23668954.0684
        41.1004         38.6004
  -3672683.34545  -2838769.07247  22336302.757    22336302.9254   22336308.2304
        44.8004         42.1004
                                  25007665.326

 -20839133.26146 -16223065.74847  20889455.118    20889455.0084   20889455.5274
        48.6004         45.8004
 -19584260.05547 -15240709.94947  20667022.000    20667022.2824   20667026.9854
        50.2004         47.3004
  -5698597.61644  -4417637.86746  22866985.051    22866985.4294   22866991.8514
        41.8004         39.2004
 -11102744.66545  -8372214.44647  22055375.295    22055373.8994   22055374.9274
        45.6004         42.6004
 -11521556.61645  -8954789.01147  21926205.180    21926204.8404   21926211.6344
        45.8004         43.0004
 16  6  8  0  7  0.0000000  0 10G19G17G31G 6G11G23G 3G 1G22G 9
 -15019546.82445 -11681325.25647  22139324.862    22139323.9564   22139324.4074
        45.3004         42.3004
  -9981150.73345  -7749176.03547  22187079.362    22187079.7694   22187082.0774
        45.5004         42.5004
  -7023516.04444  -5459974.34946  23675587.492    23675587.8024   23675588.7154
        41.1004         38.6004
  -3758193.34545  -2905400.21247  22320030.503    22320031.2534   22320036.5494
        44.9004         42.5004
                     87867.20454  25030455.455
                        27.4004
 -20877795.90146 -16253192.46447  20882097.981    20882097.6784   20882098.3544
        48.6004         45.9004
 -19545232.37847 -15210298.77047  20674448.233    20674448.7654   20674453.4234
        50.2004         47.2004
  -5600529.77244  -4341221.38746  22885646.976    22885647.5374   22885653.4784
        41.8004         39.2004
 -11032422.18845  -8317417.74647  22068757.004    22068755.9624   22068756.8204
        45.5004         42.5004
 -11610307.17845  -9023945.26147  21909316.745    21909316.9484   21909322.5424
        45.8004         43.2004
 16  6  8  0  7 30.0000000  0 10G19G17G31G 6G11G23G 3G 1G22G 9
 -15007877.82545 -11672232.52247  22141545.402    22141544.4544   22141545.1624
        45.1004         42.3004
  -9930199.75945  -7709473.98547  22196775.022    22196775.2594   22196777.5134
        45.3004         42.5004
  -6988078.96844  -5432361.02446  23682331.930    23682332.2904   23682333.7154
        41.3004         39.0004
  -3843432.29245  -2971820.14147  22303810.167    22303810.8204   22303816.0124
        45.1004         42.5004
                    181196.00454  25053253.977
                        29.6004
 -20915991.05346 -16282954.91047  20874829.644    20874829.5254   20874829.9364
        48.8004         45.9004
 -19505886.24547 -15179639.45247  20681935.506    20681935.9644   20681940.5824
        50.0004         47.2004
  -5502226.81844  -4264621.70846  22904354.444    22904354.7634   22904360.3174
        41.8004         39.2004
 -10961901.39945  -8262466.48947  22082176.426    22082175.1254   22082176.5654
        45.3004         42.3004
 -11698717.71245  -9092836.55647  21892493.423    21892493.0844   21892497.8384
        46.0004         43.0004
 16  6  8  0  8  0.0000000  0 10G19G17G31G 6G11G23G 3G 1G22G 9
 -14995578.79645 -11662648.86647  22143885.770    22143884.7684   22143886.2114
        45.3004         42.5004
  -9878742.77445  -7669377.63647  22206567.277    22206567.1014   22206569.1334
        45.3004         42.5004
  -6952077.20044  -5404307.72946  23689181.263    23689182.2224   23689185.5994
        41.8004         39.3004
  -3928397.93545  -3038027.11247  22287641.678    22287642.5374   22287647.3554
        45.1004         42.1004
                    274535.99855  25076057.869
                        30.5004
 -20953718.07846 -16312352.58047  20867650.840    20867650.4134   20867650.5914
        48.8004         45.9004
 -19466222.34347 -15148732.52947  20689483.442    20689484.0764   20689488.6144
        50.0004         47.2004
  -5403690.27544  -4187840.02946  22923106.449    22923106.0254   22923111.3754
        42.0004         39.3004
 -10891183.21545  -8207361.43847  22095633.519    22095633.2774   22095633.4674
        45.1004         42.3004
 -11786786.46445  -9161461.52747  21875732.780    21875733.5454   21875739.5224
        45.8004         43.0004
 16  6  8  0  8 30.0000000  0 10G19G17G31G 6G11G23G 3G 1G22G 9
 -14982650.52745 -11652574.90047  22146345.762    22146344.7204   22146346.4574
        45.5004         42.8004
  -9826781.14345  -7628888.07747  22216454.488    22216454.6994   22216457.8334
        45.1004         42.1004
  -6915511.95044  -5375815.32346  23696139.733    23696139.8564   23696142.3294
        41.5004         38.6004
  -4013087.98445  -3104019.32547  22271525.215    22271525.9344   22271531.3304
        45.1004         42.3004
                     80087.27354  25098858.831
                        24.4004
 -20990976.60146 -16341385.19047  20860560.537    20860560.2214   20860560.9044
        48.8004         45.9004
 -19426241.34747 -15117578.51547  20697091.575    20697091.8704   20697096.5374
        50.0004         47.0004
  -5304921.84244  -4110877.62346  22941898.182    22941899.5454   22941906.3014
        42.0004         39.3004
 -10820268.17545  -8152102.97847  22109127.859    22109126.8274   22109127.9754
        45.1004         42.3004
 -11874511.65345  -9229818.78747  21859040.125    21859040.0274   21859045.1534
        45.8004         43.0004
 16  6  8  0  9  0.0000000  0 10G19G17G31G 6G11G23G 3G 1G22G 9
 -14969093.42045 -11642010.92247  22148925.759    22148924.8524   22148926.3524
        45.6004         43.0004
  -9774316.56845  -7588006.59147  22226437.930    22226438.2774   22226441.3664
        45.1004         42.3004
  -6878384.24744  -5346884.67246  23703204.498    23703205.0084   23703207.7074
        41.1004         38.3004
  -4097500.16545  -3169795.00947  22255462.647    22255463.5694   22255469.1734
        45.1004         42.5004
                    173352.71254  25121651.113
                        29.6004
 -21027765.97746 -16370052.22547  20853559.776    20853559.1224   20853559.8764
        48.8004         45.9004
 -19385943.93047 -15086177.94047  20704759.189    20704759.7564   20704764.9674
        49.8004         47.0004
  -5205923.01144  -4033735.70346  22960739.152    22960739.5584   22960745.5774
        42.2004         39.5004
 -10749157.02745  -8096691.69847  22122660.179    22122659.2824   22122661.1324
        45.1004         42.1004
 -11961891.54645  -9297906.98047  21842412.849    21842412.7244   21842417.4884
        45.8004         43.0004
 16  6  8  0  9 30.0000000  0  9G19G17G31G 6G23G 3G 1G22G 9
 -14954908.24445 -11630957.55447  22151624.681    22151623.6674   22151625.2674
        45.6004         42.6004
  -9721351.35545  -7546735.00947  22236518.183    22236518.4264   22236520.0674
        45.1004         42.3004
  -6840695.59344  -5317516.84746  23710376.351    23710375.6324   23710379.2834
        40.8004         38.1004
  -4181632.18645  -3235352.39747  22239452.723    22239452.7584   22239458.9614
        45.3004         42.6004
 -21064085.78846 -16398353.36747  20846648.319    20846648.0204   20846648.4004
        48.8004         45.9004
 -19345330.79647 -15054531.35347  20712488.787    20712488.8154   20712493.4384
        49.8004         47.2004
  -5106695.41244  -3956415.52346  22979622.233    22979622.2044   22979627.2974
        42.2004         39.5004
 -10677850.69745  -8041128.34846  22136229.230    22136228.6484   22136230.3734
        44.9004         41.9004
 -12048924.36345  -9365724.72947  21825850.584    21825850.8164   21825855.5474
        46.0004         43.3004
 16  6  8  0 10  0.0000000  0  9G19G17G31G 6G23G 3G 1G22G 9
 -14940095.88545 -11619415.46147  22154443.504    22154442.2414   22154443.5404
        45.3004         42.3004
  -9667887.92445  -7505075.19747  22246691.793    22246691.6804   22246693.1804
        44.9004         42.1004
  -6802447.00743  -5287712.80646  23717653.227    23717653.5194   23717657.7334
        40.3004         37.4004
  -4265481.78145  -3300689.71247  22223497.008    22223497.1534   22223502.7694
        45.5004         42.6004
 -21099935.20746 -16426287.97847  20839826.364    20839825.9354   20839826.4464
        48.8004         45.9004
 -19304402.62847 -15022639.27747  20720276.258    20720276.9884   20720281.6884
        49.8004         47.0004
  -5007240.63544  -3878918.30846  22998546.674    22998546.7984   22998553.3094
        42.0004         39.3004
 -10606349.58945  -7985413.20546  22149835.402    22149834.2744   22149835.3504
        44.9004         41.9004
 -12135608.39445  -9433270.70347  21809354.655    21809355.3134   21809359.9084
        46.2004         43.5004
 16  6  8  0 10 30.0000000  0  9G19G17G31G 6G23G 3G 1G22G 9
 -14924657.05145 -11607385.21747  22157381.748    22157380.8544   22157381.8804
        45.1004         42.3004
  -9613927.97745  -7463028.47947  22256960.028    22256960.0444   22256961.5594
        44.9004         42.1004
  -6763639.71543  -5257473.35946  23725038.771    23725039.3894   23725042.3524
        40.1004         37.6004
  -4349046.64545  -3365805.17247  22207594.317    22207595.0824   22207600.9314
        45.5004         42.5004
 -21135314.23046 -16453856.03947  20833093.914    20833093.9174   20833094.3044
        48.8004         46.1004
 -19263160.10047 -14990502.25747  20728125.304    20728125.4144   20728129.7174
        49.8004         47.0004
  -4907560.30144  -3801245.32146  23017514.188    23017514.9784   23017521.8204
        41.8004         39.2004
 -10534654.70645  -7929547.07846  22163477.902    22163477.3564   22163479.7324
        44.8004         41.9004
 -12221941.90845  -9500543.54547  21792926.950    21792926.3784   21792932.1704
        46.3004         43.7004
 16  6  8  0 11  0.0000000  0  9G19G17G31G 6G23G 3G 1G22G 9
 -14908592.79345 -11594867.62547  22160438.180    22160437.5344   22160439.4004
        45.1004         42.3004
  -9559473.58145  -7420596.48847  22267322.566    22267322.2264   22267325.1044
        44.9004         42.3004
  -6724275.11543  -5226799.64146  23732531.609    23732530.8354   23732532.7164
        40.3004         37.8004
  -4432324.51645  -3430696.99647  22191747.557    22191748.0544   22191752.7164
        45.3004         42.5004
 -21170222.06846 -16481056.94547  20826451.187    20826450.9564   20826451.3034
        48.8004         45.9004
 -19221603.94647 -14958120.84847  20736032.453    20736033.2494   20736037.8074
        49.8004         47.0004
  -4807655.97544  -3723397.80946  23036526.194    23036525.6524   23036532.3334
        41.5004         38.8004
 -10462766.70045  -7873530.46746  22177157.993    22177157.6324   22177158.3634
        44.8004         41.9004
 -12307923.18246  -9567541.91947  21776565.151    21776564.5514   21776569.9874
        46.5004         43.5004
 16  6  8  0 11 30.0000000  0  9G19G17G31G 6G23G 3G 1G22G 9
 -14891903.55345 -11581863.02347  22163614.989    22163613.7914   22163615.1344
        45.3004         42.6004
  -9504527.21345  -7377781.15547  22277778.088    22277778.3104   22277780.7324
        45.1004         42.3004
  -6684354.27043  -5195692.50246  23740127.357    23740128.1554   23740129.9644
        40.3004         37.9004
  -4515313.05545  -3495363.37547  22175954.986    22175955.9644   22175960.4764
        45.3004         42.6004
 -21204658.31746 -16507890.37147  20819898.357    20819897.9334   20819898.3724
        48.8004         45.9004
 -19179734.80447 -14925495.55347  20744000.555    20744000.8784   20744005.3714
        49.8004         47.0004
  -4707529.35144  -3645377.07346  23055579.901    23055580.1674   23055585.5784
        41.3004         38.5004
 -10390686.40245  -7817364.01646  22190875.504    22190874.0524   22190874.6514
        44.6004         41.8004
 -12393550.51145  -9634264.48547  21760270.669    21760270.7044   21760275.7114
        46.3004         43.5004
 16  6  8  0 12  0.0000000  0  9G19G17G31G 6G23G 3G 1G22G 9
 -14874590.15445 -11568372.07847  22166910.016    22166908.1674   22166910.0254
        45.6004         42.6004
  -9449090.94745  -7334584.07747  22288326.114    22288327.1884   22288330.4164
        44.9004         42.3004
  -6643878.41043  -5164152.86746  23747830.896    23747830.3234   23747832.6694
        40.4004         37.8004
  -4598010.02345  -3559802.54647  22160218.381    22160218.4854   22160223.6554
        45.3004         42.5004
 -21238622.57946 -16534356.01647  20813435.012    20813434.7094   20813435.1714
        48.8004         45.8004
 -19137553.37747 -14892626.91247  20752026.840    20752027.4944   20752032.0884
        49.8004         47.0004
  -4607181.95244  -3567184.30246  23074675.894    23074675.4534   23074682.0474
        41.3004         38.6004
 -10318414.37845  -7761048.14846  22204627.564    22204626.6804   22204628.9554
        44.8004         41.9004
 -12478822.18346  -9700709.92447  21744043.496    21744044.1914   21744049.1364
        46.5004         43.7004
 16  6  8  0 12 30.0000000  0  9G19G17G31G 6G23G 3G 1G22G 9
 -14856653.76245 -11554395.67147  22170322.703    22170322.0554   22170322.7944
        45.8004         43.0004
  -9393166.70745  -7291006.75947  22298969.118    22298969.1094   22298972.1804
        45.1004         42.3004
  -6602849.10943  -5132182.00346  23755636.994    23755636.6234   23755640.9274
        40.1004         37.3004
  -4680413.10245  -3624012.72247  22144538.118    22144538.1374   22144542.9674
        45.3004         42.5004
 -21272114.32646 -16560453.47147  20807061.755    20807061.3174   20807061.8964
        48.8004         45.9004
 -19095060.36347 -14859515.49247  20760113.398    20760113.7474   20760118.0834
        49.8004         47.0004
  -4506615.44944  -3488820.79846  23093812.714    23093812.5514   23093819.2344
        41.3004         38.6004
 -10245951.59445  -7704583.66846  22218417.002    22218416.1414   22218416.8134
        44.6004         41.8004
 -12563736.49145  -9766876.89047  21727884.706    21727885.1574   21727890.0904
        46.3004         43.5004
 16  6  8  0 13  0.0000000  0  9G19G17G31G 6G23G 3G 1G22G 9
 -14838095.09945 -11539934.37547  22173854.325    22173852.9304   22173854.8354
        45.8004         42.8004
  -9336756.69745  -7247050.93447  22309703.620    22309703.7974   22309706.4114
        45.1004         42.3004
  -6561267.79743  -5099780.98946  23763548.550    23763550.0054   23763551.4264
        39.7004         37.4004
  -4762519.99645  -3687992.10647  22128913.631    22128913.5024   22128919.3464
        45.1004         42.5004
 -21305133.38646 -16586182.59447  20800778.522    20800777.9194   20800778.6314
        48.8004         45.9004
 -19052256.46947 -14826161.82747  20768258.494    20768259.2204   20768263.4554
        49.8004         46.8004
  -4405831.46144  -3410287.83046  23112990.136    23112991.5544   23112997.6314
        41.1004         38.6004
 -10173298.57445  -7647970.95546  22232243.584    22232242.0334   22232243.2344
        44.6004         41.8004
 -12648291.76645  -9832764.09947  21711794.232    21711794.7624   21711799.7994
        46.3004         43.5004
 16  6  8  0 13 30.0000000  0  9G19G17G31G 6G23G 3G 1G22G 9
 -14818915.23045 -11524989.02747  22177503.690    22177502.5574   22177504.8134
        45.6004         42.8004
  -9279863.18945  -7202718.34147  22320530.205    22320530.4784   22320533.0614
        45.1004         42.6004
  -6519135.52843  -5066950.64746  23771567.528    23771568.2514   23771569.7984
        40.1004         37.8004
  -4844328.40845  -3751738.90347  22113345.654    22113346.1234   22113350.9874
        45.3004         42.3004
 -21337679.43446 -16611543.14247  20794585.413    20794584.8914   20794585.3484
        48.9004         46.1004
 -19009142.36147 -14792566.43947  20776463.418    20776463.3864   20776467.7434
        49.8004         46.8004
  -4304831.68544  -3331586.70346  23132210.556    23132210.8884   23132217.0944
        41.1004         38.5004
 -10100455.92245  -7591210.45146  22246103.301    22246103.1244   22246104.1574
        44.6004         41.8004
 -12732486.33045  -9898370.21847  21695773.041    21695773.5404   21695778.2864
        46.3004         43.7004
 16  6  8  0 14  0.0000000  0  9G19G17G31G 6G23G 3G 1G22G 9
 -14799115.05145 -11509560.33247  22181270.909    22181270.4204   22181272.2644
        45.5004         42.3004
  -9222487.91945  -7158010.34647  22331448.010    22331448.4914   22331451.4184
        45.5004         42.8004
  -6476453.84843  -5033692.18946  23779687.624    23779688.2514   23779691.6064
        40.1004         37.6004
  -4925836.02845  -3815251.30447  22097835.502    22097835.2514   22097841.1534
        45.5004         42.8004
 -21369751.79546 -16636534.58447  20788481.921    20788481.7244   20788482.1394
        48.9004         46.1004
 -18965718.70647 -14758729.82847  20784725.899    20784726.5344   20784730.9424
        49.6004         46.8004
  -4203617.64344  -3252718.63146  23151471.341    23151471.5224   23151478.1544
        41.1004         38.5004
 -10027424.65345  -7534302.99646  22260003.148    22260001.0254   22260001.1944
        44.4004         41.4004
 -12816318.52445  -9963693.98447  21679820.391    21679820.3784   21679825.6104
        46.3004         43.5004
 16  6  8  0 14 30.0000000  0  9G19G17G31G 6G23G 3G 1G22G 9
 -14778695.75345 -11493649.20247  22185157.251    22185156.0494   22185158.4714
        45.3004         42.5004
  -9164634.09245  -7112929.45247  22342457.911    22342458.0104   22342459.9354
        45.6004         42.8004
  -6433224.42843  -5000006.95546  23787914.721    23787914.9334   23787918.0794
        40.3004         37.9004
  -5007040.58445  -3878527.55647  22082382.508    22082382.4544   22082387.6954
        45.6004         43.0004
 -21401350.13446 -16661156.65347  20782469.414    20782468.8594   20782469.0594
        48.9004         46.3004
 -18921986.23947 -14724652.58947  20793048.441    20793048.7104   20793053.1054
        49.6004         46.8004
  -4102191.03644  -3173684.90346  23170771.730    23170771.8834   23170779.1814
        41.1004         38.5004
  -9954205.75445  -7477249.35846  22273934.185    22273933.6354   22273934.4014
        44.2004         41.4004
 -12899786.67945 -10028734.08747  21663937.055    21663936.9484   21663941.3904
        46.3004         43.5004
 16  6  8  0 15  0.0000000  0  9G19G17G31G 6G23G 3G 1G22G 9
 -14757657.49345 -11477255.76547  22189160.307    22189159.8084   22189161.4694
        45.3004         42.6004
  -9106302.98745  -7067476.66247  22353557.758    22353558.0484   22353560.2234
        45.3004         42.3004
  -6389448.26743  -4965895.69146  23796244.483    23796245.6564   23796247.3404
        40.4004         37.8004
  -5087939.73545  -3941565.84147  22066987.659    22066987.9584   22066992.8654
        45.8004         43.0004
 -21432473.97846 -16685408.98047  20776546.742    20776546.4354   20776546.4204
        49.1004         46.5004
 -18877945.60347 -14690335.21047  20801428.688    20801429.3754   20801433.8474
        49.6004         46.8004
  -4000553.48744  -3094486.84046  23190113.679    23190113.3224   23190120.0174
        40.9004         38.3004
  -9880799.01045  -7420049.31746  22287903.331    22287902.9174   22287902.2404
        44.1004         41.2004
 -12982889.15345 -10093489.24447  21648122.800    21648122.9664   21648127.0534
        46.3004         43.5004
 16  6  8  0 15 30.0000000  0  9G19G17G31G 6G23G 3G 1G22G 9
 -14736002.13045 -11460381.46047  22193281.118    22193280.0684   22193283.1304
        45.5004         42.8004
  -9047497.30445  -7021654.08347  22364748.575    22364748.5744   22364752.0164
        45.3004         42.5004
  -6345127.04944  -4931359.69446  23804680.597    23804681.4264   23804681.6314
        40.8004         38.1004
  -5168531.20945  -4004364.37847  22051652.193    22051652.2744   22051657.1034
        45.8004         43.0004
 -21463123.18046 -16709291.46247  20770714.105    20770713.6784   20770714.2414
        49.1004         46.5004
 -18833597.50947 -14655778.25347  20809867.840    20809868.3884   20809872.8434
        49.6004         46.8004
  -3898706.64244  -3015125.67646  23209494.026    23209493.7454   23209500.1154
        40.6004         38.1004
  -9807205.89845  -7362704.04646  22301906.807    22301906.9784   22301907.6074
        44.1004         41.4004
 -13065624.30645 -10157958.17247  21632378.768    21632378.4694   21632383.9054
        46.3004         43.5004
 16  6  8  0 16  0.0000000  0  9G19G17G31G 6G23G 3G 1G22G 9
 -14713730.64045 -11443027.04747  22197520.065    22197519.3584   22197521.0304
        45.8004         43.2004
  -8988218.88845  -6975463.12847  22376028.367    22376028.4294   22376031.3264
        45.1004         42.3004
  -6300262.13144  -4896400.01346  23813217.503    23813217.5754   23813219.6694
        40.8004         38.5004
  -5248812.66545  -4066921.34247  22036374.141    22036374.9524   22036380.6924
        46.0004         43.3004
 -21493297.47446 -16732803.88747  20764972.000    20764971.6134   20764972.1794
        49.1004         46.3004
 -18788942.70447 -14620982.29447  20818365.815    20818366.2554   20818370.5104
        49.6004         46.8004
  -3796652.19444  -2935602.74146  23228912.995    23228914.3974   23228920.9124
        40.6004         37.9004
  -9733426.87345  -7305213.92346  22315947.405    22315945.9524   22315948.7664
        44.1004         41.4004
 -13147990.52445 -10222139.62447  21616705.088    21616704.5514   21616709.9854
        46.3004         43.5004
 16  6  8  0 16 30.0000000  0  9G19G17G31G 6G23G 3G 1G22G 9
 -14690844.03745 -11425193.32947  22201874.855    22201873.6264   22201875.9894
        45.8004         43.0004
  -8928470.77245  -6928906.17446  22387397.797    22387398.1014   22387400.8844
        44.8004         41.9004
  -6254854.78244  -4861017.70546  23821857.542    23821858.2744   23821860.1374
        40.9004         38.3004
  -5328781.83645  -4129234.94547  22021156.963    22021157.2534   22021163.1794
        46.0004         43.2004
 -21522996.40346 -16755945.89947  20759320.396    20759319.8214   20759320.5774
        49.1004         46.3004
 -18743981.81147 -14585947.84647  20826921.357    20826921.8634   20826926.2844
        49.6004         46.8004
  -3694391.75443  -2855919.28146  23248372.498    23248372.8664   23248381.5954
        40.4004         37.8004
  -9659462.72245  -7247579.52646  22330022.270    22330021.1434   22330022.8304
        44.1004         41.4004
 -13229986.19445 -10286032.32947  21601101.539    21601101.5324   21601107.0094
        46.3004         43.5004
 16  6  8  0 17  0.0000000  0  9G19G17G31G 6G23G 3G 1G22G 9
 -14667343.40645 -11406881.15347  22206347.013    22206346.0664   22206347.7364
        45.8004         42.8004
  -8868254.93945  -6881984.78146  22398856.513    22398857.0534   22398859.3854
        44.8004         41.9004
  -6208906.93444  -4825214.19746  23830601.848    23830601.7074   23830604.1894
        40.8004         38.1004
  -5408436.38145  -4191303.39547  22005998.572    22005999.1154   22006005.4254
        45.8004         43.0004
 -21552219.83546 -16778717.39447  20753759.403    20753759.1114   20753759.7854
        49.1004         46.5004
 -18698715.58147 -14550675.46547  20835535.152    20835535.7814   20835539.9834
        49.6004         46.8004
  -3591926.98943  -2776076.61746  23267872.200    23267872.3584   23267878.6594
        40.3004         37.8004
  -9585314.16245  -7189801.44446  22344132.704    22344131.1994   22344133.0624
        44.2004         41.4004
 -13311609.67745 -10349635.02447  21585569.326    21585569.3774   21585574.1284
        46.3004         43.7004
 16  6  8  0 17 30.0000000  0  9G19G17G31G 6G23G 3G 1G22G 9
 -14643229.86245 -11388091.38647  22210934.621    22210934.3714   22210936.7854
        45.5004         42.5004
  -8807573.78345  -6834700.77646  22410403.898    22410403.6714   22410406.5704
        44.6004         41.9004
  -6162420.04543  -4788990.62646  23839447.275    23839447.3654   23839449.4444
        40.4004         37.8004
  -5487774.01745  -4253124.90747  21990901.342    21990902.0174   21990907.6054
        45.6004         43.0004
 -21580967.31546 -16801118.01647  20748289.098    20748288.6794   20748289.0484
        49.1004         46.5004
 -18653144.66147 -14515165.67547  20844206.760    20844207.6754   20844212.2244
        49.6004         46.8004
  -3489259.55743  -2696076.04346  23287407.177    23287408.7604   23287416.0614
        40.1004         37.8004
  -9510981.84945  -7131880.17446  22358277.592    22358276.4104   22358278.2794
        44.2004         41.6004
 -13392859.37846 -10412946.45947  21570108.101    21570107.6384   21570112.3744
        46.5004         43.7004
 16  6  8  0 18  0.0000000  0  9G19G17G31G 6G23G 3G 1G22G 9
 -14618504.56645 -11368824.94147  22215640.022    22215639.0304   22215641.4634
        45.3004         42.3004
  -8746429.30145  -6787055.74046  22422039.661    22422039.4524   22422041.2634
        44.4004         41.4004
  -6115395.37843  -4752348.04546  23848394.850    23848396.3604   23848398.8424
        40.3004         37.8004
  -5566792.40545  -4314697.66847  21975865.276    21975865.7704   21975871.0024
        45.8004         43.0004
 -21609238.62646 -16823147.60147  20742909.026    20742908.6844   20742909.0264
        49.1004         46.5004
 -18607269.75147 -14479418.99247  20852936.516    20852937.0074   20852941.7944
        49.6004         46.8004
  -3386391.13443  -2615918.84346  23306982.848    23306983.8864   23306991.3864
        40.1004         37.6004
  -9436466.65245  -7073816.38346  22372456.945    22372456.0674   22372457.4414
        44.1004         41.4004
 -13473733.73446 -10475965.41847  21554718.719    21554718.2204   21554722.7834
        46.7004         44.0004
 16  6  8  0 18 30.0000000  0  9G19G17G31G 6G23G 3G 1G22G 9
 -14593168.67445 -11349082.68747  22220462.018    22220461.0164   22220462.6484
        45.1004         42.5004
  -8684823.90145  -6739051.57046  22433761.916    22433761.6814   22433765.7854
        44.2004         41.4004
  -6067834.78343  -4715287.85146  23857447.621    23857446.9584   23857449.9024
        40.3004         37.8004
  -5645489.25145  -4376019.85547  21960888.904    21960889.9044   21960895.2224
        45.8004         43.0004
 -21637033.45546 -16844805.90147  20737619.804    20737619.3574   20737620.1964
        49.1004         46.5004
 -18561091.55647 -14443435.98347  20861724.631    20861724.4824   20861729.5434
        49.6004         46.8004
  -3283323.36443  -2535606.32546  23326598.129    23326596.6844   23326604.8124
        40.1004         37.6004
  -9361769.07245  -7015610.49946  22386672.387    22386671.1194   22386671.5804
        44.2004         41.4004
 -13554231.13246 -10538690.65447  21539400.531    21539400.6004   21539404.5484
        46.9004         44.0004
 16  6  8  0 19  0.0000000  0  9G19G17G31G 6G23G 3G 1G22G 9
 -14567223.45845 -11328865.63347  22225399.248    22225397.9924   22225399.9254
        45.5004         43.0004
  -8622760.07745  -6690690.18646  22445572.685    22445573.0524   22445576.3344
        44.4004         41.9004
  -6019739.56843  -4677811.05246  23866598.378    23866598.6174   23866601.9204
        40.4004         37.9004
  -5723862.21945  -4437089.68647  21945976.266    21945976.4274   21945981.4904
        45.8004         43.3004
 -21664351.75446 -16866092.87547  20732421.390    20732421.2294   20732421.3074
        49.1004         46.5004
 -18514610.78547 -14407217.20447  20870568.688    20870569.4564   20870574.4424
        49.6004         46.8004
  -3180057.97943  -2455139.79746  23346247.321    23346248.6354   23346254.9294
        39.9004         37.4004
  -9286889.98445  -6957263.15846  22400920.541    22400919.7634   22400921.5874
        44.2004         41.4004
 -13634350.00446 -10601120.91047  21524153.581    21524154.0244   21524158.2294
        46.9004         43.9004
 16  6  8  0 19 30.0000000  0  9G19G17G31G 6G23G 3G 1G22G 9
 -14540670.06145 -11308174.66547  22230452.090    22230451.1634   22230453.2604
        46.0004         43.2004
  -8560240.08445  -6641973.31746  22457469.399    22457470.1024   22457473.2054
        44.6004         41.8004
  -5971111.52843  -4639919.08346  23875851.744    23875852.0434   23875854.1974
        40.1004         37.6004
  -5801909.03845  -4497905.37647  21931124.198    21931124.3674   21931129.6244
        46.0004         43.3004
 -21691193.20846 -16887008.28847  20727314.051    20727313.5374   20727313.8954
        49.3004         46.5004
 -18467828.12447 -14370763.20347  20879472.321    20879472.0974   20879476.9134
        49.6004         46.8004
  -3076596.59743  -2374520.57346  23365936.492    23365937.0344   23365941.7864
        39.9004         37.4004
  -9211830.06245  -6898774.92546  22415204.981    22415202.7664   22415203.8494
        44.1004         41.2004
 -13714088.80446 -10663255.01947  21508980.180    21508980.2324   21508984.2144
        46.9004         44.0004
 16  6  8  0 20  0.0000000  0  9G19G17G31G 6G23G 3G 1G22G 9
 -14513509.92645 -11287010.92347  22235620.663    22235619.6414   22235620.8394
        46.0004         43.0004
  -8497266.46145  -6592902.99346  22469453.286    22469453.2534   22469455.4694
        44.4004         41.4004
  -5921952.26143  -4601613.14346  23885208.652    23885208.1594   23885209.3444
        40.1004         37.9004
  -5879627.36545  -4558465.09047  21916334.818    21916334.8854   21916340.2584
        46.2004         43.5004
 -21717557.62046 -16907551.98047  20722296.890    20722296.0404   20722296.6934
        49.3004         46.5004
 -18420744.22447 -14334074.45647  20888431.174    20888431.6334   20888436.6064
        49.6004         46.8004
  -2972940.94843  -2293749.96246  23385659.408    23385661.5424   23385668.0804
        39.7004         37.3004
  -9136590.07745  -6840146.37046  22429521.376    22429520.5904   22429521.8044
        43.9004         41.1004
 -13793446.03346 -10725091.80747  21493878.838    21493878.6474   21493884.3194
        47.0004         44.2004
 16  6  8  0 20 30.0000000  0  9G19G17G31G 6G23G 3G 1G22G 9
 -14485744.03145 -11265375.16347  22240905.175    22240903.6584   22240904.5594
        45.8004         42.8004
  -8433841.62245  -6543481.09446  22481522.629    22481523.2414   22481525.9034
        44.4004         41.8004
  -5872263.30743  -4562894.51146  23894664.162    23894663.8144   23894665.7614
        40.3004         37.8004
  -5957014.91245  -4618767.05747  21901608.369    21901609.1204   21901613.9604
        46.2004         43.5004
 -21743444.84646 -16927723.83547  20717370.374    20717370.0454   20717370.5074
        49.3004         46.5004
 -18373359.81846 -14297151.54447  20897447.778    20897448.2704   20897453.6644
        49.5004         46.6004
  -2869092.69743  -2212829.25146  23405423.769    23405421.8744   23405427.9074
        39.6004         37.1004
  -9061170.67645  -6781378.03546  22443873.956    22443872.4244   22443873.9104
        43.9004         41.1004
 -13872420.05746 -10786629.97947  21478850.489    21478850.5744   21478855.5414
        47.0004         44.2004
 16  6  8  0 21  0.0000000  0  9G19G17G31G 6G23G 3G 1G22G 9
 -14457374.17345 -11243268.76547  22246302.332    22246301.8674   22246303.3254
        45.6004         42.8004
  -8369967.67645  -6493709.20346  22493677.812    22493677.4534   22493681.1934
        44.6004         41.9004
  -5822046.64443  -4523764.66546  23904218.887    23904219.7594   23904221.9034
        40.3004         37.8004
  -6034069.33845  -4678809.45147  21886945.660    21886945.7874   21886951.0984
        46.2004         43.3004
 -21768854.68846 -16947523.69647  20712535.641    20712534.8534   20712534.9634
        49.3004         46.5004
 -18325675.60546 -14259995.02347  20906521.926    20906522.4484   20906527.6034
        49.5004         46.5004
  -2765053.48243  -2131759.77146  23425225.465    23425222.0514   23425226.9644
        39.4004         36.9004
  -8985572.51445  -6722470.39346  22458259.966    22458258.6004   22458259.4174
        43.9004         41.1004
 -13951009.35146 -10847868.36747  21463895.377    21463895.5104   21463900.1094
        47.0004         44.0004
 16  6  8  0 21 30.0000000  0  9G19G17G31G 6G23G 3G 1G22G 9
 -14428401.36845 -11220692.55347  22251816.760    22251815.4024   22251816.7454
        45.6004         43.0004
  -8305647.67745  -6443589.74646  22505917.434    22505917.8134   22505921.2014
        44.8004         41.9004
  -5771303.50043  -4484224.54146  23913875.962    23913876.0294   23913877.0304
        40.3004         37.8004
  -6110788.36545  -4738590.50147  21872346.253    21872346.7604   21872351.6484
        46.0004         43.2004
 -21793787.00446 -16966951.47047  20707790.674    20707790.2694   20707790.8084
        49.3004         46.5004
 -18277692.24946 -14222605.39147  20915652.440    20915653.2234   20915658.5664
        49.3004         46.5004
  -2660825.09343  -2050542.85546  23445055.730    23445055.5734   23445061.1324
        39.0004         36.7004
  -8909796.23245  -6663423.96146  22472679.404    22472677.9254   22472679.4584
        43.7004         40.9004
 -14029212.44446 -10908805.82747  21449014.081    21449014.3614   21449018.0974
        47.0004         44.0004
 16  6  8  0 22  0.0000000  0  9G19G17G31G 6G23G 3G 1G22G 9
 -14398827.00645 -11197647.59347  22257443.926    22257442.4874   22257444.9864
        45.8004         43.0004
  -8240883.55045  -6393124.23946  22518242.185    22518241.3104   22518245.0694
        44.4004         41.6004
  -5720035.73043  -4444275.61946  23923632.480    23923632.2814   23923632.5444
        40.4004         38.1004
  -6187169.65945  -4798108.38047  21857811.050    21857812.0134   21857816.6004
        46.0004         43.3004
 -21818241.53946 -16986006.93747  20703137.490    20703136.6954   20703137.2684
        49.3004         46.5004
 -18229410.49146 -14184983.25147  20924840.818    20924841.0204   20924846.2994
        49.3004         46.5004
  -2556409.16043  -1969179.81846  23464923.669    23464924.5514   23464931.4084
        39.0004         36.7004
  -8833842.63645  -6604239.34046  22487131.292    22487130.8214   22487133.2364
        43.7004         40.9004
 -14107027.82046 -10969441.15647  21434207.321    21434206.7294   21434210.6714
        46.9004         44.0004
 16  6  8  0 22 30.0000000  0  9G19G17G31G 6G23G 3G 1G22G 9
 -14368652.14045 -11174134.72547  22263186.343    22263185.1464   22263186.9024
        45.8004         43.0004
  -8175677.99745  -6342314.73846  22530650.484    22530650.2544   22530653.2174
        44.4004         41.6004
  -5668245.14243  -4403919.29546  23933487.914    23933488.0584   23933488.9514
        40.4004         37.9004
  -6263210.92045  -4857361.30047  21843340.668    21843341.1754   21843346.7304
        46.2004         43.5004
 -21842218.20246 -17004690.03647  20698574.657    20698574.0034   20698574.5744
        49.3004         46.5004
 -18180830.98246 -14147129.08547  20934084.730    20934085.2654   20934090.4434
        49.1004         46.3004
  -2451807.41043  -1887671.97746  23484830.394    23484830.7734   23484835.8074
        39.0004         36.7004
  -8757712.50745  -6544917.17346  22501619.490    22501618.8664   22501620.6154
        43.7004         40.9004
 -14184453.97346 -11029773.20347  21419472.197    21419472.0624   21419476.7064
        46.9004         44.0004
 16  6  8  0 23  0.0000000  0  9G19G17G31G 6G23G 3G 1G22G 9
 -14337878.32245 -11150155.13047  22269041.689    22269041.1404   22269043.4374
        45.8004         43.0004
  -8110033.59145  -6291163.29846  22543142.007    22543141.7274   22543143.9674
        44.1004         41.1004
  -5615933.38243  -4363156.89446  23943442.256    23943442.3644   23943443.9474
        40.4004         37.9004
  -6338909.81445  -4916347.43247  21828935.635    21828936.0004   21828941.9464
        46.3004         43.9004
 -21865716.94246 -17023000.73247  20694102.826    20694102.2564   20694102.9364
        49.3004         46.6004
 -18131954.44346 -14109043.47247  20943386.454    20943386.4464   20943391.2634
        49.1004         46.3004
  -2347021.52343  -1806020.66446  23504769.777    23504770.9044   23504776.8104
        39.0004         36.7004
  -8681406.44445  -6485457.89746  22516140.190    22516138.2944   22516140.5704
        43.7004         40.9004
 -14261489.42346 -11089800.82047  21404812.973    21404812.8944   21404818.0754
        46.9004         44.0004
 16  6  8  0 23 30.0000000  0  9G19G17G31G 6G23G 3G 1G22G 9
 -14306507.65645 -11125710.45847  22275011.645    22275011.1714   22275012.6294
        45.6004         42.8004
  -8043952.59445  -6239671.63546  22555715.301    22555715.2014   22555719.0334
        43.6004         40.6004
  -5563102.43943  -4321989.95346  23953494.279    23953494.6114   23953496.7774
        40.4004         37.9004
  -6414264.02546  -4975064.97747  21814596.457    21814597.1624   21814602.6634
        46.7004         44.0004
 -21888737.52246 -17040938.83747  20689721.954    20689721.5024   20689722.2404
        49.3004         46.5004
 -18082781.57246 -14070726.94847  20952743.472    20952743.6834   20952748.8314
        49.1004         46.5004
  -2242053.26843  -1724227.23746  23524744.073    23524744.7924   23524751.5474
        39.0004         36.7004
  -8604925.03945  -6425861.99146  22530694.717    22530693.7984   22530693.8384
        43.6004         40.9004
 -14338132.69446 -11149522.83247  21390228.578    21390228.2384   21390233.0644
        47.0004         44.2004
 16  6  8  0 24  0.0000000  0  9G19G17G31G 6G23G 3G 1G22G 9
 -14274541.17445 -11100801.50947  22281094.552    22281093.7934   22281095.7004
        45.5004         42.6004
  -7977437.53744  -6187841.73746  22568372.765    22568372.5954   22568377.1174
        43.4004         40.7004
  -5509753.84243  -4280419.61746  23963646.427    23963647.3224   23963647.6564
        40.4004         37.9004
  -6489271.28246  -5033512.17547  21800322.496    21800323.2984   21800329.4744
        46.7004         44.0004
 -21911280.00946 -17058504.39647  20685432.307    20685432.1304   20685432.4334
        49.3004         46.5004
 -18033313.03146 -14032180.03147  20962157.224    20962157.6274   20962162.0084
        49.1004         46.3004
  -2136904.26643  -1642292.99346  23544755.261    23544755.0014   23544760.3904
        39.0004         36.7004
  -8528269.23745  -6366130.19946  22545279.776    22545280.1744   22545282.7864
        43.6004         41.1004
 -14414382.29746 -11208938.08947  21375718.323    21375718.6474   21375722.8184
        47.2004         44.4004
 16  6  8  0 24 30.0000000  0  9G19G17G31G 6G23G 3G 1G22G 9
 -14241980.26045 -11075429.37147  22287291.024    22287289.7984   22287291.8984
        45.5004         42.8004
  -7910490.99845  -6135675.62146  22581113.255    22581113.1024   22581116.1804
        43.6004         40.7004
  -5455889.53543  -4238447.44246  23973897.806    23973898.4584   23973898.3974
        40.4004         37.9004
  -6563929.27246  -5091687.20447  21786115.296    21786116.3494   21786122.4494
        46.5004         43.9004
 -21933344.06846 -17075697.15647  20681233.803    20681233.3324   20681233.5644
        49.3004         46.5004
 -17983549.54046 -13993403.27147  20971626.135    20971627.0884   20971631.8554
        49.1004         46.3004
  -2031576.26943  -1560219.26946  23564798.735    23564798.3874   23564804.3144
        39.0004         36.7004
  -8451439.62945  -6306262.98546  22559902.731    22559900.0454   22559902.3094
        43.7004         41.1004
 -14490236.77346 -11268045.46447  21361283.551    21361283.8164   21361288.6264
        47.2004         44.5004
 16  6  8  0 25  0.0000000  0  9G19G17G31G 6G23G 3G 1G22G 9
 -14208826.35745 -11049595.16147  22293599.609    22293598.3954   22293601.0984
        45.6004         42.8004
  -7843115.41745  -6083175.21246  22593934.959    22593934.1004   22593936.8264
        43.6004         40.7004
  -5401511.31343  -4196074.78746  23984246.042    23984245.3764   23984245.3444
        39.9004         37.3004
  -6638235.66746  -5149588.26947  21771975.550    21771976.1144   21771982.3514
        46.7004         43.9004
 -21954929.70246 -17092517.12047  20677126.029    20677125.7654   20677126.1454
        49.3004         46.6004
 -17933491.83546 -13954397.26747  20981152.778    20981152.8294   20981157.2884
        49.1004         46.3004
  -1926071.02343  -1478007.42446  23584873.022    23584874.6844   23584880.8214
        39.0004         36.7004
  -8374436.89845  -6246260.88046  22574554.838    22574554.7014   22574555.3444
        43.7004         41.1004
 -14565694.73146 -11326843.84847  21346924.883    21346924.7694   21346929.8004
        47.4004         44.7004
 16  6  8  0 25 30.0000000  0  9G19G17G31G 6G23G 3G 1G22G 9
 -14175081.18845 -11023300.22947  22300020.750    22300020.4574   22300022.5714
        45.6004         42.8004
  -7775313.11345  -6030342.27746  22606837.249    22606837.2124   22606839.9854
        43.7004         41.2004
  -5346620.91743  -4153303.03446  23994688.971    23994688.6604   23994690.0324
        39.6004         37.1004
  -6712188.15746  -5207213.56847  21757902.695    21757902.8764   21757909.2344
        46.5004         43.7004
 -21976037.31846 -17108964.60347  20673109.640    20673108.9164   20673109.8364
        49.5004         46.8004
 -17883140.56846 -13915162.51947  20990734.043    20990734.6684   20990738.8354
        49.1004         46.3004
  -1820390.20643  -1395658.77146  23604984.924    23604985.4204   23604991.7864
        38.9004         36.7004
  -8297261.71045  -6186124.41546  22589241.182    22589239.9814   22589241.7424
        43.7004         41.1004
 -14640754.67546 -11385332.10447  21332640.477    21332640.9134   21332645.9234
        47.5004         44.7004
 16  6  8  0 26  0.0000000  0  9G19G17G31G 6G23G 3G 1G22G 9
 -14140746.16345 -10996545.65947  22306555.089    22306554.1524   22306556.3714
        45.6004         42.8004
  -7707087.33645  -5977179.35346  22619819.458    22619819.4984   22619822.8864
        43.9004         41.2004
  -5291219.92143  -4110133.45046  24005231.410    24005231.8554   24005233.4724
        39.6004         36.9004
  -6785784.45645  -5264561.30447  21743897.839    21743898.6534   21743904.4324
        46.3004         43.7004
 -21996666.66146 -17125039.39847  20669183.559    20669183.2664   20669184.1214
        49.5004         46.8004
 -17832496.46046 -13875699.57347  21000371.147    21000371.8644   21000376.3664
        49.1004         46.3004
  -1714535.56443  -1313174.68646  23625129.539    23625128.0004   23625135.1494
        38.7004         36.4004
  -8219914.85345  -6125854.15546  22603958.576    22603958.1394   22603960.0974
        43.6004         40.7004
 -14715415.19946 -11443509.11947  21318433.449    21318433.8074   21318438.4194
        47.5004         44.7004
 16  6  8  0 26 30.0000000  0  9G19G17G31G 6G23G 3G 1G22G 9
 -14105822.67345 -10969332.56547  22313200.653    22313199.8634   22313202.4054
        45.5004         42.5004
  -7638440.35345  -5923688.22346  22632882.429    22632883.1764   22632885.5174
        43.9004         41.2004
  -5235310.43443  -4066567.61646  24015871.789    24015871.4654   24015872.9684
        39.6004         37.1004
  -6859022.22545  -5321629.69547  21729961.390    21729961.6404   21729967.3764
        46.3004         43.5004
 -22016817.42646 -17140741.29147  20665348.872    20665348.7504   20665349.3904
        49.5004         46.8004
 -17781560.18946 -13836008.98347  21010064.537    21010064.7814   21010069.0334
        49.1004         46.3004
  -1608508.80443  -1230556.49046  23645305.025    23645305.6824   23645310.9724
        38.5004         36.0004
  -8142396.79844  -6065450.49546  22618710.970    22618709.9214   22618711.4554
        43.4004         40.7004
 -14789674.92446 -11501373.81847  21304302.609    21304302.5454   21304307.7194
        47.5004         44.9004
 16  6  8  0 27  0.0000000  0  9G19G17G31G 6G23G 3G 1G22G 9
 -14070312.93045 -10941662.63447  22319957.815    22319956.5264   22319959.1374
        45.3004         42.3004
  -7569374.62745  -5869870.80846  22646026.341    22646026.5804   22646028.6384
        44.2004         41.6004
  -5178894.42143  -4022607.07946  24026607.616    24026607.3444   24026607.8204
        39.7004         37.4004
  -6931899.21145  -5378416.94247  21716092.687    21716092.8734   21716099.1904
        46.3004         43.3004
 -22036489.86346 -17156070.45047  20661605.497    20661605.0614   20661605.7064
        49.5004         46.8004
 -17730332.48646 -13796091.29947  21019811.887    21019812.5974   21019817.2544
        48.9004         46.1004
  -1502311.67743  -1147805.53146  23665512.451    23665513.9814   23665520.7314
        38.3004         36.2004
  -8064708.35345  -6004914.05946  22633494.256    22633492.8734   22633494.6104
        43.6004         40.9004
 -14863532.39746 -11558925.08647  21290248.150    21290248.1664   21290253.3704
        47.7004         44.9004
 16  6  8  0 27 30.0000000  0  9G19G17G31G 6G23G 3G 1G22G 9
 -14034218.16645 -10913536.84947  22326825.828    22326825.2724   22326828.5204
        45.3004         42.6004
  -7499892.94945  -5815729.26346  22659247.753    22659247.5294   22659251.2384
        44.2004         41.2004
  -5121973.79643  -3978253.34846  24037438.787    24037437.7554   24037441.5074
        39.7004         37.4004
  -7004413.07845  -5434921.23047  21702294.106    21702294.9254   21702300.1644
        46.3004         43.7004
 -22055683.89846 -17171026.82947  20657953.109    20657952.9224   20657953.4074
        49.5004         46.8004
 -17678813.98346 -13755947.00447  21029616.369    21029616.5504   21029621.0524
        48.9004         46.1004
  -1395945.91943  -1064923.17645  23685754.564    23685753.7154   23685760.5564
        38.2004         35.9004
  -7986850.30744  -5944245.45846  22648309.187    22648308.7454   22648310.2954
        43.4004         40.6004
 -14936986.25846 -11616161.84247  21276270.147    21276270.0674   21276274.7614
        47.7004         44.9004
 16  6  8  0 28  0.0000000  0  9G19G17G31G 6G23G 3G 1G22G 9
 -13997540.14045 -10884956.58347  22333807.365    22333805.4964   22333807.9144
        45.6004         43.0004
  -7429997.36245  -5761265.17946  22672548.585    22672548.6114   22672550.9054
        44.1004         41.1004
  -5064550.33043  -3933507.80046  24048365.509    24048365.9034   24048368.0604
        39.9004         37.4004
  -7076561.51845  -5491140.77547  21688564.670    21688565.4764   21688570.9034
        46.3004         43.7004
 -22074399.55846 -17185610.44947  20654391.690    20654391.1414   20654391.9254
        49.5004         46.8004
 -17627005.39846 -13715576.68247  21039474.697    21039475.4274   21039479.8334
        48.9004         46.1004
  -1289413.23643   -981910.75546  23706027.891    23706027.9934   23706032.7714
        38.3004         36.0004
  -7908823.34845  -5883445.25246  22663158.319    22663156.9634   22663158.4784
        43.6004         40.9004
 -15010035.12746 -11673083.03347  21262369.041    21262369.3544   21262374.0964
        47.7004         44.7004
 16  6  8  0 28 30.0000000  0  9G19G17G31G 6G23G 3G 1G22G 9
 -13960280.58645 -10855923.16947  22340896.910    22340895.8064   22340897.6554
        45.8004         43.0004
  -7359690.92845  -5706480.98046  22685927.126    22685926.5974   22685930.7814
        43.7004         40.4004
  -5006626.10343  -3888372.00946  24059387.346    24059387.5294   24059390.7554
        39.7004         37.3004
  -7148342.26346  -5547073.80347  21674905.954    21674906.6244   21674911.8634
        46.5004         44.0004
 -22092636.89047 -17199821.35247  20650921.379    20650920.7474   20650921.6824
        49.6004         46.8004
 -17574907.48046 -13674980.91047  21049389.367    21049389.6134   21049393.9674
        49.1004         46.3004
  -1182715.41443   -898769.66146  23726329.331    23726331.3204   23726336.3154
        38.3004         36.0004
  -7830628.12945  -5822513.94146  22678039.196    22678037.0754   22678039.6524
        43.6004         40.6004
 -15082677.61546 -11729687.54847  21248546.105    21248546.0684   21248550.4614
        47.7004         44.9004
 16  6  8  0 29  0.0000000  0  9G19G17G31G 6G23G 3G 1G22G 9
 -13922440.79045 -10826437.59247  22348096.900    22348096.1204   22348098.3244
        45.6004         42.5004
  -7288976.58944  -5651378.91746  22699382.893    22699383.5904   22699387.2304
        43.4004         40.7004
  -4948202.70543  -3842847.30346  24070505.736    24070505.0814   24070508.7424
        39.9004         37.4004
  -7219752.99746  -5602718.50347  21661317.407    21661317.4114   21661322.8904
        46.9004         44.4004
 -22110396.00847 -17213659.62147  20647541.045    20647541.3064   20647541.7384
        49.6004         46.8004
 -17522520.86446 -13634160.17647  21059358.004    21059358.4524   21059362.7174
        49.1004         46.3004
  -1075854.14243   -815501.16446  23746663.800    23746666.3354   23746671.9874
        38.5004         36.2004
  -7752265.31045  -5761452.02046  22692950.211    22692949.5154   22692950.3924
        43.6004         40.7004
 -15154912.39746 -11785974.37447  21234800.115    21234799.9324   21234804.5184
        47.7004         44.7004
 16  6  8  0 29 30.0000000  0  9G19G17G31G 6G23G 3G 1G22G 9
 -13884022.70545 -10796501.40847  22355407.710    22355407.1054   22355409.1414
        45.3004         42.5004
  -7217856.60445  -5595960.76746  22712917.657    22712917.3974   22712920.3864
        43.6004         40.9004
  -4889282.13143  -3796935.14846  24081718.666    24081717.9614   24081720.3314
        39.6004         37.3004
  -7290791.44346  -5658073.11047  21647798.458    21647799.1854   21647804.3414
        47.0004         44.0004
 -22127676.96047 -17227125.28147  20644253.184    20644252.9584   20644253.5134
        49.6004         46.8004
 -17469846.29146 -13593115.05247  21069381.185    21069381.7854   21069386.6234
        49.1004         46.1004
   -968831.18043   -732106.70446  23767031.793    23767031.2714   23767037.5644
        38.3004         36.0004
  -7673735.49144  -5700259.96746  22707894.175    22707893.1004   22707894.2184
        43.4004         40.6004
 -15226738.10746 -11841942.44847  21221131.625    21221132.0754   21221137.0364
        47.5004         44.7004
 16  6  8  0 30  0.0000000  0  9G19G17G31G 6G23G 3G 1G22G 9
 -13845028.00345 -10766115.94547  22362829.019    22362826.8564   22362828.8464
        45.3004         42.5004
  -7146333.35944  -5540228.39946  22726526.860    22726527.7154   22726531.1264
        43.4004         40.4004
  -4829866.49543  -3750637.26346  24093023.869    24093022.6924   24093026.9184
        38.9004         36.4004
  -7361455.30946  -5713135.84447  21634351.834    21634352.3994   21634357.6234
        47.0004         44.2004
 -22144479.68147 -17240218.30147  20641055.542    20641055.1674   20641055.8924
        49.6004         46.8004
 -17416884.45246 -13551846.09347  21079459.647    21079459.6044   21079465.0074
        49.1004         46.1004
   -861648.29143   -648587.61745  23787427.459    23787428.1334   23787434.1584
        38.2004         35.9004
  -7595039.21045  -5638938.19146  22722869.205    22722867.7984   22722870.0444
        43.6004         40.7004
 -15298153.42346 -11897590.72947  21207541.583    21207541.9034   21207547.2654
        47.7004         44.9004
 16  6  8  0 30 30.0000000  0  9G19G17G31G 6G23G 3G 1G22G 9
 -13805458.59145 -10735282.65047  22370358.342    22370357.5104   22370358.4194
        45.1004         42.1004
  -7074410.23844  -5484184.42846  22740213.661    22740213.6874   22740217.5454
        43.2004         40.6004
  -4769958.11043  -3703955.37746  24104424.575    24104425.3664   24104427.5844
        39.2004         36.9004
  -7431742.29246  -5767904.91247  21620976.541    21620977.0954   21620982.4084
        47.0004         44.0004
 -22160804.49446 -17252938.92647  20637949.282    20637948.8434   20637949.1754
        49.5004         46.8004
 -17363636.01046 -13510353.80347  21089592.256    21089592.7014   21089597.5844
        48.9004         46.1004
   -754307.21443   -564945.26745  23807853.570    23807853.1494   23807861.5534
        37.8004         35.7004
  -7516177.52444  -5577487.54446  22737876.052    22737874.8604   22737876.3284
        43.4004         40.7004
 -15369156.98446 -11952918.16647  21194030.755    21194030.7984   21194035.3004
        47.7004         44.9004
 16  6  8  0 31  0.0000000  0  9G19G17G31G 6G23G 3G 1G22G 9
 -13765316.28345 -10704002.92346  22377996.239    22377995.4064   22377996.9524
        44.8004         41.9004
  -7002089.47445  -5427830.62846  22753976.728    22753976.9704   22753980.2344
        43.6004         41.1004
  -4709558.44843  -3656890.75046  24115915.728    24115916.7834   24115921.1524
        39.0004         36.6004
  -7501650.10746  -5822378.51647  21607673.384    21607673.7394   21607679.7424
        47.0004         44.2004
 -22176651.52646 -17265287.25147  20634933.392    20634933.0084   20634933.5964
        49.5004         46.6004
 -17310101.70046 -13468638.76447  21099779.618    21099780.2004   21099784.9034
        48.9004         46.1004
   -646809.66942   -481181.02845  23828312.315    23828310.5894   23828316.5074
        37.5004         35.3004
  -7437151.07144  -5515908.51046  22752914.556    22752913.1194   22752915.1944
        43.4004         40.7004
 -15439747.52446 -12007923.76747  21180597.858    21180597.6304   21180602.6364
        47.9004         45.1004
 16  6  8  0 31 30.0000000  0  9G19G17G31G 6G23G 3G 1G22G 9
 -13724602.71745 -10672278.05847  22385745.155    22385743.3104   22385745.3614
        44.8004         42.1004
  -6929373.79745  -5371169.09846  22767813.790    22767813.3094   22767817.4244
        43.7004         40.9004
  -4648669.70543  -3609445.01146  24127503.477    24127504.5934   24127506.2904
        38.9004         36.2004
  -7571176.47746  -5876554.90047  21594443.323    21594443.6914   21594448.8524
        47.0004         44.2004
 -22192020.69946 -17277263.22847  20632008.901    20632008.4524   20632009.1064
        49.5004         46.8004
 -17256282.20446 -13426701.49347  21110021.668    21110021.6594   21110026.2574
        48.9004         46.1004
   -539157.45142   -397296.23145  23848795.070    23848794.8544   23848803.1654
        37.5004         35.3004
  -7357960.42444  -5454201.52146  22767984.610    22767983.5014   22767984.3784
        43.4004         40.6004
 -15509923.72646 -12062606.50947  21167243.373    21167243.3514   21167247.8994
        47.9004         45.1004
 16  6  8  0 32  0.0000000  0  9G19G17G31G 6G23G 3G 1G22G 9
 -13683319.76945 -10640109.55147  22393600.832    22393599.8664   22393601.8844
        44.9004         42.1004
  -6856265.80945  -5314201.86646  22781726.824    22781725.9414   22781728.9974
        43.7004         41.1004
  -4587294.07043  -3561619.84846  24139183.924    24139184.7134   24139185.7024
        38.5004         36.0004
  -7640319.13346  -5930432.27347  21581284.971    21581285.6934   21581291.4664
        47.0004         44.2004
 -22206912.23247 -17288867.01647  20629175.357    20629174.9934   20629175.3124
        49.6004         47.0004
 -17202178.19246 -13384542.52147  21120316.546    21120317.0054   21120322.0284
        48.9004         46.1004
   -431352.31842   -313292.28345  23869309.262    23869309.0064   23869317.2374
        37.3004         35.3004
  -7278606.33644  -5392367.17146  22783083.087    22783082.7934   22783085.6854
        43.4004         40.6004
 -15579684.29846 -12116965.37847  21153968.512    21153968.3694   21153973.1984
        47.9004         45.1004
 16  6  8  0 32 30.0000000  0  9G19G17G31G 6G23G 3G 1G22G 9
 -13641469.37345 -10607498.86446  22401564.338    22401562.9384   22401565.0564
        44.8004         41.8004
  -6782768.50245  -5256931.26446  22795712.582    22795712.2644   22795716.0544
        44.1004         41.4004
  -4525433.47143  -3513416.78346  24150955.787    24150956.4164   24150955.9554
        38.3004         36.0004
  -7709075.79046  -5984008.87047  21568201.117    21568201.5694   21568207.4414
        47.0004         44.2004
 -22221326.50047 -17300098.90947  20626432.207    20626431.9424   20626432.4434
        49.6004         47.0004
 -17147790.42146 -13342162.44647  21130666.493    21130666.6904   21130671.8544
        48.8004         45.9004
   -323396.04442   -229170.55145  23889849.854    23889852.9094   23889861.1384
        37.3004         35.3004
  -7199089.27144  -5330405.83446  22798215.969    22798214.6804   22798216.5934
        43.2004         40.4004
 -15649027.98946 -12170999.40847  21140772.825    21140772.9174   21140777.9024
        48.1004         45.4004
 16  6  8  0 33  0.0000000  0  9G19G17G31G 6G23G 3G 1G22G 9
 -13599053.51945 -10574447.54746  22409635.687    22409634.5344   22409636.0014
        44.2004         41.2004
  -6708884.46645  -5199359.30746  22809771.845    22809771.3144   22809775.0594
        44.1004         41.2004
  -4463090.04443  -3464837.49445  24162819.829    24162819.5324   24162819.7574
        38.3004         35.9004
  -7777444.16246  -6037282.92047  21555191.506    21555191.9504   21555197.6754
        47.0004         44.2004
 -22235263.39647 -17310958.82147  20623779.933    20623779.6614   20623780.3444
        49.6004         47.0004
 -17093119.56046 -13299561.78847  21141070.277    21141070.6094   21141075.5004
        48.8004         45.9004
   -215290.38542   -144932.41545  23910422.789    23910424.3204   23910432.9154
        37.1004         35.0004
  -7119410.27244  -5268318.31346  22813377.358    22813377.0974   22813378.0454
        43.0004         40.2004
 -15717953.49946 -12224707.58447  21127657.016    21127656.9224   21127661.9034
        48.2004         45.4004
 16  6  8  0 33 30.0000000  0  9G19G17G31G 6G23G 3G 1G22G 9
 -13556073.50245 -10540956.63046  22417814.178    22417813.0474   22417815.2914
        44.2004         41.6004
  -6634616.21845  -5141487.96846  22823905.449    22823905.1034   22823907.1304
        43.9004         41.1004
  -4400265.69943  -3415883.48446  24174773.770    24174775.1294   24174775.7954
        38.3004         36.0004
  -7845422.01246  -6090252.65747  21542254.856    21542255.9404   21542261.6164
        46.9004         44.0004
 -22248723.19747 -17321446.97147  20621218.742    20621218.5154   20621218.8114
        49.6004         47.0004
 -17038166.31446 -13256741.08747  21151526.607    21151527.3404   21151532.5454
        48.6004         45.8004
   -107037.10742    -60579.26645  23931025.897    23931025.1284   23931033.8714
        37.0004         35.0004
  -7039569.71644  -5206104.92346  22828573.070    22828570.6494   22828571.1114
        42.9004         40.0004
 -15786459.58246 -12278088.93847  21114621.348    21114621.1474   21114625.6954
        48.4004         45.6004
 16  6  8  0 34  0.0000000  0  9G19G17G31G 6G23G 3G 1G22G 9
 -13512531.76845 -10507028.01847  22426100.083    22426099.0724   22426101.3004
        44.6004         42.1004
  -6559966.58745  -5083319.45946  22838110.211    22838109.9794   22838112.5524
        43.9004         40.9004
  -4336962.51443  -3366556.33946  24186821.032    24186821.5934   24186821.4544
        38.7004         36.4004
  -7913007.04646  -6142916.30847  21529394.880    21529395.5424   21529400.5264
        46.9004         44.0004
 -22261706.01447 -17331563.44747  20618748.283    20618748.1274   20618748.1854
        49.8004         47.0004
 -16982931.37846 -13213700.89247  21162038.302    21162038.4394   21162043.2434
        48.6004         45.8004
      1362.10642     23887.58145  23951651.808    23951651.6434   23951660.6364
        36.8004         34.6004
  -6959568.31544  -5143766.18546  22843794.761    22843794.8874   22843795.7524
        42.7004         40.0004
 -15854545.00646 -12331142.49347  21101664.234    21101664.6624   21101669.4564
        48.4004         45.4004
 16  6  8  0 34 30.0000000  0  9G19G17G31G 6G23G 3G 1G22G 9
 -13468430.04345 -10472663.06646  22434492.553    22434491.2074   22434493.3784
        44.6004         41.8004
  -6484938.61245  -5024856.12146  22852387.223    22852387.6184   22852391.3544
        43.7004         41.2004
  -4273182.71343  -3316857.81145  24198957.541    24198957.1624   24198957.7714
        38.3004         35.9004
  -7980197.01446  -6195272.11047  21516608.811    21516609.2274   21516614.7324
        46.9004         44.0004
 -22274212.11247 -17341308.44847  20616368.715    20616368.3954   20616368.5274
        49.8004         47.0004
 -16927415.43246 -13170441.71347  21172602.917    21172603.1664   21172607.8964
        48.8004         45.8004
    109905.31542    108466.64445  23972307.147    23972306.6674   23972318.5364
        36.4004         34.3004
  -6879406.81544  -5081302.70146  22859049.164    22859048.3584   22859050.5854
        42.7004         40.0004
 -15922208.55646 -12383867.32547  21088788.532    21088788.0224   21088792.9734
        48.4004         45.4004
 16  6  8  0 35  0.0000000  0  9G19G17G31G 6G23G 3G 1G22G 9
 -13423770.43545 -10437863.37446  22442990.451    22442989.5884   22442991.8864
        44.4004         41.4004
  -6409534.90345  -4966100.00846  22866736.470    22866736.6434   22866739.2384
        43.7004         40.9004
  -4208928.45543  -3266789.58145  24211184.496    24211183.7544   24211185.9344
        38.2004         35.9004
  -8046989.67146  -6247318.31447  21503899.056    21503899.1524   21503904.9054
        47.0004         44.4004
 -22286242.03047 -17350682.40447  20614079.517    20614078.7464   20614079.2754
        49.8004         47.0004
 -16871619.16046 -13126964.10447  21183220.137    21183220.7864   21183225.3904
        48.8004         45.8004
    218590.89342    193156.66845  23992990.477    23992988.0154   23992996.4354
        36.1004         34.1004
  -6799086.02144  -5018715.09146  22874335.486    22874333.6004   22874334.8584
        42.7004         40.0004
 -15989449.01546 -12436262.46447  21075992.836    21075993.0334   21075997.5004
        48.2004         45.4004
 16  6  8  0 35 30.0000000  0  9G19G17G31G 6G23G 3G 1G22G 9
 -13378554.90345 -10402630.50346  22451595.050    22451593.9794   22451595.8094
        44.4004         41.9004
  -6333758.30244  -4907053.34546  22881155.381    22881155.7224   22881158.9604
        43.2004         40.2004
  -4144201.70543  -3216353.20145  24223501.723    24223501.9444   24223502.7404
        37.8004         35.7004
  -8113382.71746  -6299053.13947  21491264.917    21491265.0394   21491270.4224
        47.2004         44.5004
 -22297795.62947 -17359685.20947  20611880.847    20611880.5314   20611880.4134
        49.8004         47.0004
 -16815543.32146 -13083268.65047  21193891.493    21193891.6674   21193896.5344
        48.6004         45.9004
    327417.00342    277956.18245  24013700.507    24013697.0624   24013704.9154
        35.9004         34.1004
  -6718606.22144  -4956003.57346  22889648.739    22889647.8774   22889649.5934
        42.7004         40.0004
 -16056265.18546 -12488326.98847  21063278.070    21063278.0304   21063282.6904
        48.2004         45.2004
 16  6  8  0 36  0.0000000  0  9G19G17G31G 6G23G 3G 1G22G 9
 -13332785.55545 -10366966.09547  22460304.766    22460303.6704   22460305.3884
        44.8004         42.1004
  -6257611.60244  -4847718.27346  22895646.840    22895647.7144   22895650.0914
        43.0004         40.4004
  -4079004.83143  -3165550.43945  24235910.412    24235910.3984   24235911.2424
        37.8004         35.9004
  -8179373.92646  -6350474.85047  21478706.287    21478707.1874   21478711.9184
        47.2004         44.4004
 -22308873.09247 -17368316.99347  20609773.118    20609772.8304   20609772.6864
        49.8004         47.2004
 -16759188.60846 -13039355.89247  21204614.760    21204615.0714   21204620.9174
        48.6004         45.8004
    436381.85742    362863.84445  24034435.524    24034436.3804   24034441.6084
        35.9004         34.1004
  -6637968.50244  -4893168.99846  22904994.114    22904993.4954   22904994.5724
        42.9004         40.2004
 -16122655.82846 -12540059.94747  21050644.558    21050644.5264   21050649.4344
        48.2004         45.4004
 16  6  8  0 36 30.0000000  0  9G19G17G31G 6G23G 3G 1G22G 9
 -13286464.14745 -10330871.51746  22469119.218    22469118.8564   22469120.5944
        44.8004         41.8004
  -6181097.51244  -4788096.92446  22910206.669    22910206.8754   22910208.0014
        43.0004         40.0004
  -4013339.72043  -3114382.83446  24248405.150    24248404.7104   24248407.0444
        38.3004         36.2004
  -8244961.07746  -6401581.69447  21466225.395    21466226.2814   21466231.6204
        47.2004         44.4004
 -22319474.83847 -17376578.08647  20607755.516    20607755.4374   20607755.4754
        49.8004         47.2004
 -16702555.68346 -12995226.35747  21215391.925    21215392.1494   21215397.3354
        48.4004         45.6004
    545483.70642    447878.25445  24055195.107    24055197.1284   24055201.9814
        36.1004         34.3004
  -6557173.26144  -4830211.71846  22920370.537    22920368.5894   22920369.5354
        42.9004         40.2004
 -16188619.80846 -12591460.42847  21038091.649    21038091.9534   21038097.0874
        48.2004         45.6004
 16  6  8  0 37  0.0000000  0  9G19G17G31G 6G23G 3G 1G22G 9
 -13239592.58845 -10294348.22946  22478038.528    22478037.8764   22478039.6474
        44.6004         41.6004
  -6104218.57344  -4728191.28846  22924836.919    22924837.2254   22924838.3984
        42.7004         40.0004
  -3947208.84743  -3062852.32045  24260990.234    24260990.2974   24260990.6194
        38.2004         35.9004
  -8310141.88546  -6452371.91847  21453822.463    21453823.1054   21453827.7014
        47.4004         44.5004
 -22329600.96647 -17384468.56847  20605828.768    20605828.1414   20605828.5724
        50.0004         47.2004
 -16645645.24746 -12950880.56947  21226220.983    21226221.7984   21226226.9594
        48.4004         45.4004
    654720.76242    532998.03145  24075983.742    24075984.3634   24075991.9714
        36.3004         34.3004
  -6476221.29944  -4767132.27646  22935773.281    22935772.7164   22935773.4174
        42.9004         39.9004
 -16254155.95046 -12642527.54147  21025620.995    21025620.8744   21025625.1854
        48.4004         45.6004
 16  6  8  0 37 30.0000000  0  9G19G17G31G 6G23G 3G 1G22G 9
 -13192173.19045 -10257398.06046  22487063.160    22487062.2604   22487063.3004
        44.6004         41.8004
  -6026978.14644  -4668003.96646  22939535.572    22939534.1964   22939536.2124
        42.5004         39.9004
  -3880614.28343  -3010960.45045  24273661.619    24273660.9614   24273663.1784
        37.8004         35.7004
  -8374914.13746  -6502843.79747  21441496.727    21441497.5554   21441502.3104
        47.4004         44.7004
 -22339252.12047 -17391988.94947  20603991.666    20603991.5674   20603991.7994
        50.0004         47.2004
 -16588458.01246 -12906319.11147  21237103.924    21237103.9844   21237109.1404
        48.2004         45.4004
    764091.28742    618221.78345  24096798.350    24096796.6424   24096805.2714
        35.9004         34.3004
  -6395113.42244  -4703931.34546  22951206.822    22951206.7884   22951208.1014
        42.5004         39.7004
 -16319263.09446 -12693260.37247  21013231.005    21013231.2984   21013236.2484
        48.4004         45.6004
 16  6  8  0 38  0.0000000  0  9G19G17G31G 6G23G 3G 1G22G 9
 -13144208.06345 -10220022.65946  22496190.866    22496188.6554   22496190.8634
        44.6004         41.9004
  -5949378.98444  -4607537.11346  22954301.363    22954301.9914   22954304.0534
        42.9004         40.4004
  -3813558.30843  -2958709.08545  24286422.631    24286420.9524   24286424.2184
        37.6004         35.5004
  -8439275.60946  -6552995.57947  21429249.183    21429249.9984   21429254.8804
        47.5004         44.7004
 -22348428.54147 -17399139.39547  20602245.474    20602245.2324   20602245.6624
        50.0004         47.2004
 -16530994.66846 -12861542.48747  21248038.766    21248039.1244   21248044.2724
        48.2004         45.4004
    873593.37142    703548.02945  24117636.354    24117636.0184   24117641.8844
        36.1004         34.3004
  -6313850.05044  -4640609.26946  22966671.947    22966669.7834   22966671.6004
        42.3004         39.5004
 -16383940.10046 -12743658.02447  21000923.687    21000923.5284   21000928.4884
        48.4004         45.6004
 16  6  8  0 38 30.0000000  0  9G19G17G31G 6G23G 3G 1G22G 9
 -13095699.37845 -10182223.70646  22505421.330    22505420.1854   22505421.5564
        44.8004         41.9004
  -5871423.47844  -4546792.59446  22969135.725    22969136.5364   22969138.9284
        43.0004         40.6004
  -3746042.79143  -2906099.62445  24299271.485    24299270.0664   24299272.3694
        37.8004         35.7004
  -8503224.04946  -6602825.51347  21417080.238    21417080.5064   21417086.2004
        47.5004         44.7004
 -22357130.52747 -17405920.15947  20600589.703    20600589.5844   20600589.4984
        50.0004         47.2004
 -16473255.90546 -12816551.25447  21259025.722    21259026.8484   21259031.2864
        48.2004         45.4004
    983225.25042    788975.45145  24138494.941    24138495.5834   24138503.0974
        35.9004         34.1004
  -6232431.88344  -4577166.54546  22982164.246    22982164.0224   22982165.4784
        42.2004         39.5004
 -16448185.82746 -12793719.61747  20988698.130    20988697.9444   20988702.5554
        48.4004         45.6004
 16  6  8  0 39  0.0000000  0  9G19G17G31G 6G23G 3G 1G22G 9
 -13046648.95645 -10144002.59646  22514755.089    22514753.6044   22514755.9534
        44.6004         41.9004
  -5793114.74044  -4485772.85046  22984037.319    22984036.4934   22984040.3414
        43.0004         40.2004
  -3678070.14943  -2853133.93645  24312204.882    24312204.9604   24312206.2834
        38.0004         35.9004
  -8566757.26146  -6652331.89247  21404990.135    21404990.4694   21404995.7464
        47.7004         44.9004
 -22365358.34747 -17412331.44247  20599024.381    20599023.4484   20599024.1364
        49.8004         47.2004
 -16415242.43746 -12771345.95347  21270066.848    21270066.6794   21270071.4744
        48.2004         45.6004
   1092985.13142    874502.58345  24159379.059    24159382.4754   24159390.3524
        35.7004         34.0004
  -6150859.49644  -4513603.66546  22997687.819    22997685.9304   22997688.7124
        42.2004         39.5004
 -16511999.15046 -12843444.26647  20976554.074    20976554.4614   20976559.6624
        48.6004         45.8004
 16  6  8  0 39 30.0000000  0  9G19G17G31G 6G23G 3G 1G22G 9
 -12997059.22445 -10105361.26047  22524190.837    22524190.0274   22524192.9424
        44.8004         42.1004
  -5714455.54644  -4424480.02646  22999006.341    22999005.5254   22999008.8624
        43.2004         40.6004
  -3609642.63143  -2799813.81045  24325225.519    24325225.5674   24325227.1574
        37.8004         35.7004
  -8629873.01146  -6701512.98847  21392979.955    21392980.2974   21392985.6104
        47.9004         45.2004
 -22373112.36947 -17418373.52447  20597548.352    20597548.0334   20597548.4004
        49.8004         47.2004
 -16356954.96646 -12725927.15447  21281157.770    21281158.1194   21281163.2764
        48.2004         45.4004
   1202871.29842    960128.15345  24180294.353    24180294.6444   24180300.0384
        35.9004         34.1004
  -6069133.89844  -4449921.40346  23013240.917    23013238.4514   23013239.1934
        42.2004         39.5004
 -16575378.98946 -12892831.14247  20964494.301    20964494.2274   20964498.8784
        48.6004         45.8004
 16  6  8  0 40  0.0000000  0  9G19G17G31G 6G23G 3G 1G22G 9
 -12946932.04845 -10066301.15947  22533730.502    22533729.7704   22533731.4094
        44.9004         42.3004
  -5635448.64744  -4362916.26946  23014040.200    23014040.4674   23014042.8324
        43.2004         40.6004
  -3540762.56643  -2746141.01546  24338332.552    24338332.0334   24338334.1274
        38.2004         36.2004
  -8692569.09346  -6750367.05747  21381048.615    21381049.2334   21381054.8874
        47.9004         45.1004
 -22380392.95447 -17424046.70347  20596162.657    20596162.5814   20596162.9574
        49.8004         47.2004
 -16298394.17246 -12680295.36947  21292301.920    21292302.0614   21292306.9024
        48.2004         45.4004
   1312881.89542   1045850.64745  24201232.530    24201229.1404   24201234.2624
        35.9004         34.3004
  -5987255.68644  -4386120.21446  23028818.911    23028818.0534   23028820.3374
        41.8004         39.0004
 -16638324.25946 -12941879.38947  20952516.029    20952515.9984   20952520.6224
        48.8004         45.9004
 16  6  8  0 40 30.0000000  0  9G19G17G31G 6G23G 3G 1G22G 9
 -12896269.70645 -10026824.03247  22543370.905    22543370.0514   22543372.2294
        45.1004         42.1004
  -5556097.01944  -4301083.88146  23029140.495    23029140.1234   23029143.2384
        43.2004         40.4004
  -3471432.19643  -2692117.36946  24351525.643    24351526.6754   24351528.6964
        38.3004         36.2004
  -8754843.30846  -6798892.41047  21369197.965    21369198.8664   21369204.3164
        47.9004         45.1004
 -22387200.17847 -17429351.03147  20594867.569    20594867.0314   20594867.7904
        49.8004         47.2004
 -16239560.79446 -12634451.18747  21303496.954    21303497.4384   21303502.4574
        48.2004         45.4004
   1423015.15042   1131668.68145  24222190.838    24222187.0224   24222190.5454
        35.9004         34.0004
  -5905225.45344  -4322200.58546  23044430.242    23044428.5154   23044430.1894
        41.8004         39.0004
 -16700833.82946 -12990588.13247  20940620.876    20940620.9214   20940625.9084
        48.8004         45.9004
 16  6  8  0 41  0.0000000  0  9G19G17G31G 6G23G 3G 1G22G 9
 -12845074.52645  -9986931.69347  22553113.540    22553112.4374   22553114.6604
        44.9004         42.1004
  -5476403.94244  -4238985.41946  23044305.027    23044305.7404   23044308.9814
        43.2004         40.6004
  -3401653.61943  -2637744.49546  24364804.737    24364804.9814   24364806.3764
        38.5004         36.4004
  -8816693.43246  -6847087.29947  21357428.766    21357429.4034   21357434.4434
        48.1004         45.4004
 -22393534.75247 -17434287.04947  20593662.230    20593661.7924   20593662.1884
        50.0004         47.2004
 -16180455.47946 -12588395.10647  21314744.530    21314745.1024   21314749.3964
        48.2004         45.4004
   1533269.19242   1217580.85945  24243169.942    24243166.6884   24243171.6164
        35.6004         34.0004
  -5823043.82244  -4258162.93346  23060066.747    23060067.5324   23060069.0634
        41.6004         39.0004
 -16762906.67746 -13038956.56447  20928809.033    20928808.5924   20928813.4054
        48.8004         45.8004
 16  6  8  0 41 30.0000000  0  9G19G17G31G 6G23G 3G 1G22G 9
 -12793348.61345  -9946625.79646  22562955.910    22562954.4584   22562957.5014
        44.9004         41.9004
  -5396371.76544  -4176622.73446  23059535.533    23059535.9494   23059537.8974
        43.0004         40.0004
  -3331429.28643  -2583024.24946  24378167.748    24378166.7984   24378170.8094
        38.7004         36.6004
  -8878117.28946  -6894950.03647  21345740.245    21345740.5984   21345745.8214
        48.2004         45.4004
 -22399397.22147 -17438855.20747  20592546.564    20592546.1344   20592546.6874
        49.8004         47.2004
 -16121078.97446 -12542127.69547  21326043.385    21326043.9744   21326049.0734
        48.2004         45.6004
   1643642.28442   1303585.83645  24264169.241    24264170.2764   24264178.3094
        35.0004         33.6004
  -5740711.36244  -4194007.81446  23075737.987    23075734.8084   23075736.1794
        41.8004         39.0004
 -16824541.71946 -13086983.86447  20917080.159    20917079.9594   20917084.1344
        48.8004         45.9004
 16  6  8  0 42  0.0000000  0  9G19G17G31G 6G23G 3G 1G22G 9
 -12741094.18045  -9905908.08246  22572900.338    22572899.2694   22572901.5644
        44.8004         41.9004
  -5316003.58844  -4113998.22846  23074828.798    23074828.0674   23074831.1274
        42.7004         39.7004
  -3260761.51443  -2527958.44546  24391616.393    24391615.6294   24391617.8074
        39.2004         36.9004
  -8939112.69446  -6942478.91747  21334133.261    21334133.6074   21334139.0224
        48.2004         45.6004
 -22404787.72847 -17443055.60347  20591520.241    20591520.2744   20591520.8714
        49.8004         47.0004
 -16061431.99346 -12495649.54847  21337394.525    21337394.4674   21337398.9204
        48.2004         45.4004
   1754132.63742   1389682.16745  24285192.125    24285194.5194   24285200.3794
        34.9004         33.3004
  -5658228.53344  -4129735.49446  23091430.439    23091430.3724   23091432.3934
        41.8004         39.2004
 -16885737.93546 -13134669.22147  20905434.106    20905434.5414   20905439.0424
        48.8004         45.9004
 16  6  8  0 42 30.0000000  0  9G19G17G31G 6G23G 3G 1G22G 9
 -12688313.67945  -9864780.43246  22582943.814    22582942.6884   22582945.1704
        44.6004         41.8004
  -5235302.26244  -4051114.12246  23090187.079    23090186.4144   23090188.4804
        42.3004         39.7004
  -3189652.35943  -2472548.74646  24405147.488    24405146.6744   24405149.1464
        39.2004         36.9004
  -8999677.46346  -6989672.22247  21322607.826    21322608.4984   21322614.0664
        48.2004         45.6004
 -22409707.04747 -17446888.83947  20590584.383    20590584.2234   20590584.9494
        49.8004         47.0004
 -16001515.17646 -12448961.13447  21348795.754    21348796.5274   21348800.9464
        48.2004         45.4004
   1864738.36741   1475868.43545  24306240.173    24306243.3534   24306249.7104
        34.3004         32.7004
  -5575596.64044  -4065347.01546  23107157.148    23107154.9274   23107158.2174
        42.0004         39.3004
 -16946494.28046 -13182011.81647  20893873.427    20893873.2154   20893877.7224
        48.8004         46.1004
 16  6  8  0 43  0.0000000  0  9G19G17G31G 6G23G 3G 1G22G 9
 -12635008.85145  -9823244.21446  22593086.995    22593086.0294   22593088.4264
        44.4004         41.6004
  -5154270.63344  -3987972.63546  23105605.486    23105605.8214   23105608.5794
        42.2004         39.3004
  -3118104.42443  -2416797.12246  24418763.026    24418763.3794   24418764.9984
        39.4004         37.1004
  -9059809.40046  -7036528.26647  21311165.318    21311166.0664   21311171.5624
        48.4004         45.6004
 -22414155.17647 -17450354.91147  20589737.902    20589737.5724   20589738.3974
        49.8004         47.0004
 -15941329.26146 -12402063.03347  21360248.425    21360249.3204   21360253.8814
        48.2004         45.4004
   1975457.79542   1562143.26945  24327307.849    24327315.1064   24327321.9024
        34.5004         33.3004
  -5492816.14244  -4000842.74646  23122908.437    23122907.6264   23122910.3134
        41.8004         38.8004
 -17006809.73746 -13229010.87047  20882395.507    20882395.9044   20882400.0254
        48.9004         46.1004
 16  6  8  0 43 30.0000000  0  9G19G17G31G 6G23G 3G 1G22G 9
 -12581182.56645  -9781301.67746  22603329.706    22603329.1094   22603331.6564
        44.2004         41.6004
  -5072911.64944  -3924576.04546  23121087.604    23121087.6404   23121091.1554
        42.2004         39.7004
  -3046119.94343  -2360705.39046  24432460.568    24432461.6944   24432463.2454
        39.4004         37.1004
  -9119506.37346  -7083045.36547  21299804.815    21299805.3144   21299811.2344
        48.4004         45.4004
 -22418132.63447 -17453454.22847  20588981.290    20588980.8664   20588981.5874
        49.8004         47.2004
 -15880874.91146 -12354955.76147  21371752.549    21371752.9194   21371758.0234
        48.2004         45.4004
   2086288.99842   1648505.20845  24348401.564    24348402.0834   24348408.2564
        34.5004         33.1004
  -5409887.41444  -3936222.97146  23138690.774    23138689.5474   23138690.5434
        41.8004         39.2004
 -17066683.31346 -13275665.59447  20871002.144    20871002.1494   20871006.2624
        48.9004         46.1004
 16  6  8  0 44  0.0000000  0  9G19G17G31G 6G23G 3G 1G22G 9
 -12526836.75845  -9738954.31946  22613671.526    22613670.3214   22613672.8464
        44.2004         41.6004
  -4991228.30444  -3860926.73846  23136632.345    23136633.4974   23136633.8764
        42.3004         39.5004
  -2973701.37543  -2304275.38546  24446240.650    24446241.8804   24446244.5414
        39.7004         37.4004
  -9178766.18746  -7129221.83447  21288528.068    21288528.7904   21288534.1304
        48.2004         45.4004
 -22421640.15647 -17456187.35547  20588313.705    20588313.6994   20588314.0464
        49.8004         47.2004
 -15820152.84846 -12307639.87447  21383307.401    21383307.8634   21383313.3764
        48.1004         45.4004
   2197230.20041   1734952.83045  24369513.754    24369515.7914   24369517.1484
        34.0004         32.9004
  -5326811.25144  -3871488.32746  23154498.483    23154498.3234   23154500.3064
        41.6004         39.0004
 -17126114.02546 -13321975.23647  20859692.691    20859692.6614   20859697.4074
        49.1004         46.1004
 16  6  8  0 44 30.0000000  0  9G19G17G31G 6G23G 3G 1G22G 9
 -12471973.89445  -9696204.05346  22624112.338    22624111.0644   22624112.9164
        44.2004         41.4004
  -4909223.67544  -3797027.07246  23152234.635    23152235.7414   23152238.8404
        41.8004         38.8004
  -2900850.96043  -2247508.83646  24460105.704    24460106.1134   24460108.3994
        39.9004         37.4004
  -9237586.70946  -7175056.00347  21277335.370    21277335.9054   21277341.1634
        48.2004         45.4004
 -22424678.00747 -17458554.49447  20587735.694    20587735.2154   20587736.0404
        49.8004         47.2004
 -15759163.77846 -12260115.94047  21394913.174    21394913.3234   21394918.8704
        48.1004         45.1004
   2308279.58141   1821484.76245  24390647.934    24390645.9204   24390654.0414
        34.0004         33.1004
  -5243588.52244  -3806639.45146  23170337.201    23170335.1334   23170336.1604
        41.6004         39.0004
 -17185100.86846 -13367938.99247  20848467.955    20848467.8714   20848472.7484
        49.1004         46.3004
 16  6  8  0 45  0.0000000  0  9G19G17G31G 6G23G 3G 1G22G 9
 -12416596.54645  -9653052.88046  22634650.772    22634649.2404   22634650.2754
        44.2004         41.6004
  -4826900.43944  -3732879.15346  23167901.670    23167902.4794   23167906.3464
        41.5004         38.8004
  -2827571.02543  -2190407.55846  24474050.794    24474049.9374   24474051.8344
        40.1004         37.6004
  -9295965.75446  -7220546.15847  21266226.290    21266226.6394   21266232.0894
        48.2004         45.4004
 -22427246.64247 -17460556.02247  20587247.216    20587246.5754   20587247.4524
        50.0004         47.2004
 -15697908.38046 -12212384.47647  21406570.148    21406570.4694   21406575.7424
        48.1004         45.2004
   2419435.26641   1908099.50545  24411797.083    24411798.9074   24411803.4044
        34.2004         33.3004
  -5160219.63544  -3741676.70946  23186200.182    23186200.3554   23186201.4154
        41.5004         39.0004
 -17243642.90446 -13413556.14747  20837327.341    20837327.5994   20837332.5144
        49.1004         46.3004
 16  6  8  0 45 30.0000000  0  9G19G17G31G 6G23G 3G 1G22G 9
 -12360706.66945  -9609502.34546  22645286.277    22645285.3784   22645287.2164
        44.6004         41.9004
  -4744261.70944  -3668485.36446  23183627.366    23183627.6414   23183631.4164
        41.3004         38.6004
  -2753864.02943  -2132973.55746  24488075.852    24488075.1304   24488078.6294
        40.1004         37.8004
  -9353901.23246  -7265690.67647  21255201.088    21255201.5504   21255207.2224
        48.1004         45.1004
 -22429346.70247 -17462192.42747  20586847.235    20586846.9464   20586847.4194
        50.0004         47.2004
 -15636387.38546 -12164446.04247  21418276.740    21418277.0534   21418282.5834
        48.1004         45.1004
   2530695.50941   1994795.75245  24432967.189    24432971.1294   24432977.4424
        33.8004         32.7004
  -5076705.42744  -3676600.73146  23202095.125    23202092.5074   23202092.5814
        41.3004         38.6004
 -17301739.14546 -13458825.93247  20826272.794    20826272.5314   20826277.2364
        49.3004         46.5004
 16  6  8  0 46  0.0000000  0  9G19G17G31G 6G23G 3G 1G22G 9
 -12304306.75145  -9565554.37246  22656018.034    22656017.7724   22656019.6524
        44.8004         41.8004
  -4661310.27944  -3603847.92946  23199412.025    23199413.0794   23199414.2504
        40.8004         37.9004
  -2679732.31043  -2075208.58246  24502182.317    24502183.0814   24502185.2174
        39.9004         37.4004
  -9411390.98746  -7310487.87747  21244261.340    21244261.8264   21244267.2284
        48.1004         45.2004
 -22430978.89847 -17463464.26647  20586536.115    20586536.0914   20586537.0604
        49.8004         47.2004
 -15574601.47846 -12116301.20247  21430033.945    21430034.8274   21430040.2194
        47.9004         45.1004
   2642058.55141   2081572.06545  24454162.445    24454163.0974   24454166.9714
        34.2004         32.9004
  -4993046.32044  -3611411.83246  23218011.871    23218010.6784   23218012.0894
        41.1004         38.6004
 -17359388.69946 -13503747.64647  20815301.661    20815301.9494   20815306.4364
        49.3004         46.5004
 16  6  8  0 46 30.0000000  0  9G19G17G31G 6G23G 3G 1G22G 9
 -12247399.63445  -9521211.15746  22666846.432    22666845.5684   22666848.1044
        44.4004         41.4004
  -4578049.20944  -3538969.19546  23215257.096    23215256.5714   23215260.2934
        40.6004         38.1004
  -2605178.29043  -2017114.52246  24516369.320    24516370.2454   24516372.2504
        39.9004         37.3004
  -9468432.89946  -7354936.10547  21233406.409    21233407.0614   21233412.4374
        48.2004         45.4004
 -22432143.46047 -17464371.71247  20586315.365    20586314.7864   20586315.4844
        49.8004         47.2004
 -15512551.39946 -12067950.51347  21441842.635    21441842.7744   21441847.5514
        47.9004         45.1004
   2753522.49441   2168427.00045  24475373.324    24475371.9584   24475382.7484
        33.8004         32.4004
  -4909243.18444  -3546110.69246  23233960.424    23233959.6174   23233959.6834
        41.1004         38.6004
 -17416590.60046 -13548320.53847  20804416.902    20804417.0274   20804421.7334
        49.3004         46.6004
 16  6  8  0 47  0.0000000  0  9G19G17G31G 6G23G 3G 1G22G 9
 -12189986.92645  -9476473.99346  22677771.717    22677770.7854   22677772.8774
        44.1004         40.9004
  -4494481.39844  -3473851.43946  23231159.909    23231159.7984   23231161.8874
        40.8004         38.5004
  -2530204.38643  -1958693.31746  24530635.998    24530637.3824   24530639.5464
        40.1004         37.6004
  -9525024.83646  -7399033.70647  21222637.684    21222638.2084   21222643.4164
        48.4004         45.6004
 -22432840.99347 -17464915.24447  20586182.112    20586182.0974   20586182.4974
        49.8004         47.2004
 -15450237.80146 -12019394.49747  21453699.656    21453700.3284   21453705.4974
        47.9004         44.9004
   2865085.50341   2255359.18145  24496598.170    24496601.7944   24496609.6004
        33.7004         32.6004
  -4825296.67544  -3480697.84646  23249935.519    23249934.0454   23249934.5524
        40.9004         38.6004
 -17473343.96846 -13592543.93347  20793617.319    20793617.1594   20793622.0554
        49.5004         46.6004
 16  6  8  0 47 30.0000000  0  9G19G17G31G 6G23G 3G 1G22G 9
 -12132071.65045  -9431345.23946  22688793.528    22688792.1154   22688793.5434
        43.7004         41.1004
  -4410609.51444  -3408496.75546  23247120.514    23247119.7754   23247123.0514
        41.1004         38.6004
  -2454812.85843  -1899946.68946  24544983.867    24544983.4104   24544986.0254
        39.7004         36.9004
  -9581164.70946  -7442779.05247  21211954.712    21211955.2564   21211960.1554
        48.4004         45.4004
 -22433072.12247 -17465095.33447  20586138.373    20586138.2954   20586138.3474
        49.8004         47.2004
 -15387661.38646 -11970633.68747  21465608.902    21465609.1904   21465613.5784
        47.9004         45.1004
   2976745.85541   2342367.19745  24517851.151    24517850.3814   24517859.3654
        33.7004         32.6004
  -4741207.37944  -3415173.72946  23265934.532    23265934.9434   23265936.1214
        40.8004         38.3004
 -17529647.89646 -13636417.11047  20782902.477    20782902.6314   20782907.3474
        49.3004         46.5004
 16  6  8  0 48  0.0000000  0  9G19G17G31G 6G23G 3G 1G22G 9
 -12073655.54945  -9385826.21746  22699910.255    22699909.4974   22699910.9564
        43.9004         41.2004
  -4326436.67744  -3342907.54146  23263137.275    23263137.9874   23263141.3674
        41.5004         39.0004
  -2379006.34443  -1840876.69046  24559409.387    24559408.6094   24559411.4944
        39.2004         36.7004
  -9636850.37946  -7486170.47247  21201358.338    21201358.7284   21201363.1414
        48.2004         45.4004
 -22432837.28047 -17464912.33047  20586183.320    20586182.7454   20586183.1574
        49.8004         47.2004
 -15324822.83846 -11921668.58247  21477565.728    21477566.3654   21477571.1114
        47.9004         44.9004
   3088501.68041   2429449.59645  24539117.281    24539119.0184   24539125.1874
        33.3004         32.6004
  -4656975.87944  -3349538.81146  23281966.253    23281964.3294   23281964.9284
        40.6004         37.9004
 -17585501.46046 -13679939.36447  20772274.106    20772274.1684   20772279.2284
        49.3004         46.5004
 16  6  8  0 48 30.0000000  0  9G19G17G31G 6G23G 3G 1G22G 9
 -12014741.85445  -9339919.45946  22711121.685    22711119.9074   22711120.8364
        44.1004         41.2004
  -4241966.19544  -3277086.42446  23279212.002    23279211.7044   23279214.3314
        41.5004         39.0004
  -2302787.14543  -1781485.11146  24573913.131    24573913.1224   24573914.2934
        39.2004         36.7004
  -9692079.80446  -7529206.37847  21190848.238    21190848.9574   21190853.6514
        48.2004         45.6004
 -22432137.12147 -17464366.74547  20586316.230    20586315.9674   20586316.4824
        49.8004         47.2004
 -15261722.88946 -11872499.80047  21489574.008    21489574.3064   21489579.0104
        47.9004         45.1004
   3200351.04041   2516604.96445  24560403.715    24560407.3234   24560410.6094
        33.3004         32.6004
  -4572603.03144  -3283793.74346  23298018.957    23298018.8224   23298019.9864
        40.6004         38.1004
 -17640903.84946 -13723110.04447  20761731.376    20761731.3714   20761735.7444
        49.3004         46.5004
 16  6  8  0 49  0.0000000  0  9G19G17G31G 6G23G 3G 1G22G 9
 -11955332.86945  -9293626.74446  22722425.754    22722424.8004   22722425.8804
        43.9004         41.1004
  -4157200.98544  -3211035.63846  23295341.635    23295342.7444   23295345.1784
        41.5004         38.8004
  -2226157.36743  -1721773.61846  24588495.793    24588496.0424   24588497.8304
        39.0004         36.6004
  -9746850.85446  -7571885.10447  21180425.693    21180426.1774   21180431.4074
        48.4004         45.6004
 -22430972.22247 -17463459.02947  20586538.248    20586537.7574   20586537.9984
        49.8004         47.2004
 -15198362.21546 -11823127.85147  21501630.991    21501631.1424   21501636.2994
        47.9004         45.1004
   3312292.27341   2603831.87545  24581708.017    24581704.4594   24581709.3704
        33.3004         32.7004
  -4488089.37743  -3217938.95546  23314102.606    23314101.5644   23314103.2734
        40.4004         37.8004
 -17695854.18446 -13765928.47947  20751274.437    20751274.7034   20751278.9824
        49.3004         46.5004
 16  6  8  0 49 30.0000000  0  9G19G17G31G 6G23G 3G 1G22G 9
 -11895430.58445  -9246949.65146  22733824.857    22733823.9074   22733825.4404
        43.7004         40.9004
  -4072143.83844  -3144757.36846  23311528.241    23311528.1284   23311531.2244
        41.6004         39.2004
  -2149119.86243  -1661744.38146  24603155.806    24603155.7214   24603156.3684
        38.7004         36.2004
  -9801161.48646  -7614205.06547  21170090.857    21170091.3994   21170095.9464
        48.4004         45.6004
 -22429343.19147 -17462189.65347  20586847.941    20586847.5414   20586848.2924
        49.8004         47.2004
 -15134741.53546 -11773553.29947  21513737.334    21513737.7704   21513742.9184
        47.9004         44.9004
   3424323.47141   2691128.83145  24603030.907    24603026.3534   24603029.5684
        33.1004         32.0004
  -4403435.62243  -3151975.01946  23330210.065    23330210.9974   23330211.9664
        40.4004         37.9004
 -17750351.60946 -13808393.99547  20740904.190    20740903.8284   20740908.6334
        49.3004         46.5004
 16  6  8  0 50  0.0000000  0  9G19G17G31G 6G23G 3G 1G22G 9
 -11835038.07945  -9199890.56246  22745317.703    22745316.5604   22745317.6794
        43.7004         41.1004
  -3986797.82744  -3078254.00846  23327768.273    23327768.5554   23327771.4874
        41.3004         38.6004
  -2071677.16343  -1601399.44046  24617892.518    24617892.9814   24617894.3274
        38.9004         36.7004
  -9855009.59946  -7656164.63147  21159843.339    21159844.0994   21159848.7054
        48.4004         45.4004
 -22427250.81247 -17460559.22747  20587246.190    20587245.7554   20587246.1864
        49.8004         47.2004
 -15070861.58246 -11723776.73447  21525893.398    21525893.9464   21525898.1734
        47.7004         44.7004
   3536442.76641   2778494.44845  24624368.737    24624359.7684   24624365.4134
        33.0004         32.4004
  -4318642.52343  -3085902.48646  23346346.188    23346345.3254   23346348.3134
        40.3004         37.8004
 -17804395.29146 -13850505.94247  20730619.402    20730619.4484   20730624.6244
        49.3004         46.5004
 16  6  8  0 50 30.0000000  0  9G19G17G31G 6G23G 3G 1G22G 9
 -11774157.78845  -9152451.38446  22756902.948    22756901.3584   22756902.2154
        43.7004         40.9004
  -3901165.92244  -3011527.87946  23344063.656    23344064.4604   23344067.8484
        41.1004         38.6004
  -1993831.71843  -1540740.64546  24632705.078    24632706.0264   24632706.7574
        39.0004         36.6004
  -9908393.15846  -7697762.19647  21149684.946    21149685.3964   21149690.3224
        48.4004         45.6004
 -22424695.36047 -17458567.96047  20587732.147    20587732.0994   20587732.6004
        49.8004         47.0004
 -15006722.99846 -11673798.63547  21538098.727    21538099.1164   21538103.8954
        47.5004         44.7004
   3648648.33541   2865927.28145  24645721.302    24645710.8504   24645716.2224
        33.1004         32.2004
  -4233710.57343  -3019721.76746  23362508.936    23362507.4584   23362508.9884
        40.3004         37.6004
 -17857984.41646 -13892263.69147  20720422.340    20720422.1954   20720426.7934
        49.5004         46.6004
 16  6  8  0 51  0.0000000  0  9G19G17G31G 6G23G 3G 1G22G 9
 -11712792.02845  -9104633.92346  22768580.401    22768579.0474   22768579.8814
        43.7004         40.9004
  -3815251.10244  -2944581.27846  23360413.677    23360413.7684   23360416.3954
        41.1004         38.5004
  -1915586.09043  -1479770.06246  24647595.843    24647595.5464   24647596.0334
        38.7004         36.4004
  -9961310.09746  -7738996.17147  21139615.218    21139615.5624   21139620.7064
        48.6004         45.8004
 -22421677.65547 -17456216.49847  20588306.399    20588306.3324   20588306.4664
        49.8004         47.0004
 -14942326.51046 -11623619.55747  21550352.804    21550353.2374   21550358.1044
        47.4004         44.5004
   3760938.37641   2953425.90345  24667089.803    24667078.6354   24667085.0854
        33.0004         31.9004
  -4148640.50943  -2953433.45346  23378697.574    23378696.7414   23378697.1204
        40.1004         37.6004
 -17911118.17446 -13933666.60647  20710311.493    20710311.4444   20710315.7564
        49.5004         46.8004
 16  6  8  0 51 30.0000000  0  9G19G17G31G 6G23G 3G 1G22G 9
 -11650943.41344  -9056440.20846  22780348.937    22780347.6304   22780349.5934
        43.4004         40.4004
  -3729056.55744  -2877416.71746  23376813.516    23376814.5604   23376818.9604
        40.8004         38.1004
  -1836942.60743  -1418489.40146  24662560.887    24662561.2574   24662562.4014
        39.0004         36.7004
 -10013758.39746  -7779864.96147  21129634.150    21129634.8554   21129640.4084
        48.6004         45.8004
 -22418198.33047 -17453505.33047  20588968.850    20588968.7074   20588968.6044
        49.8004         47.2004
 -14877672.82446 -11573240.07447  21562655.115    21562655.9094   21562661.6824
        47.4004         44.4004
   3873310.90851   3040988.88455  24688446.986    24688464.1274   24688469.3684
        33.1004         32.0004
  -4063433.00843  -2887037.99546  23394910.535    23394910.3164   23394912.3594
        39.9004         37.4004
 -17963795.75247 -13974714.06747  20700287.286    20700287.1994   20700291.3884
        49.6004         46.8004
 16  6  8  0 52  0.0000000  0  9G19G17G31G 6G23G 3G 1G22G 9
 -11588614.00644  -9007871.85246  22792210.158    22792208.4594   22792209.7014
        43.2004         40.4004
  -3642584.81944  -2810036.17846  23393270.291    23393270.5194   23393273.0514
        40.9004         38.5004
  -1757903.34843  -1356900.40246  24677601.148    24677601.2684   24677602.2914
        38.5004         36.0004
 -10065736.00346  -7820366.99147  21119744.032    21119744.3104   21119749.0024
        48.6004         45.8004
 -22414258.04647 -17450434.97547  20589718.451    20589718.0224   20589718.4174
        49.8004         47.0004
 -14812762.62346 -11522660.70647  21575007.834    21575008.4204   21575013.3944
        47.4004         44.5004
   3985764.29951   3128614.91055  24709851.330    24709854.7934   24709868.3634
        32.4004         31.9004
  -3978088.54743  -2820535.86546  23411153.880    23411152.4644   23411153.0524
        40.1004         37.8004
 -18016016.39647 -14015405.46547  20690349.361    20690349.6374   20690354.1724
        49.6004         46.6004
 16  6  8  0 52 30.0000000  0  9G19G17G31G 6G23G 3G 1G22G 9
 -11525807.66245  -8958931.86446  22804162.837    22804160.8134   22804162.8614
        43.7004         41.1004
  -3555839.57144  -2742442.51746  23409778.246    23409778.1824   23409779.9824
        40.9004         38.5004
  -1678471.35443  -1295005.38545  24692717.448    24692718.5094   24692717.6094
        38.3004         35.9004
 -10117240.91046  -7860500.68047  21109942.436    21109943.1224   21109948.0844
        48.6004         45.8004
 -22409857.59647 -17447006.05047  20590555.992    20590555.9614   20590555.9424
        50.0004         47.2004
 -14747596.63246 -11471882.01047  21587408.914    21587409.3844   21587414.0064
        47.4004         44.5004
   4098296.69641   3216302.36245  24731281.985    24731274.2914
        32.4004         32.0004
  -3892607.79743  -2753927.52546  23427416.995    23427417.5794   23427420.3644
        40.1004         37.6004
 -18067779.33647 -14055740.21147  20680499.985    20680499.6594   20680503.6224
        49.6004         46.8004
 16  6  8  0 53  0.0000000  0  9G19G17G31G 6G23G 3G 1G22G 9
 -11462526.13645  -8909621.60346  22816204.546    22816203.7484   22816205.0744
        43.9004         41.2004
  -3468823.52344  -2674637.82646  23426335.600    23426336.1794   23426340.0494
        41.1004         38.5004
  -1598649.12743  -1232806.29646  24707906.656    24707906.6004   24707907.5464
        38.5004         36.4004
 -10168271.08946  -7900264.44947  21100231.732    21100232.7794   21100237.5334
        48.8004         45.9004
 -22404997.80547 -17443219.20347  20591480.902    20591480.5794   20591480.7104
        50.0004         47.2004
 -14682175.55846 -11420904.55647  21599857.830    21599858.5044   21599863.2064
        47.4004         44.4004
   4210906.28441   3304049.91945  24752708.316    24752711.0074
        32.4004         31.5004
  -3806991.81043  -2687213.78046  23443710.300    23443708.8674   23443712.4954
        39.9004         37.4004
 -18119083.81947 -14095717.72147  20670737.255    20670737.1414   20670741.0904
        49.6004         46.8004
 16  6  8  0 53 30.0000000  0  9G19G17G31G 6G23G 3G 1G22G 9
 -11398772.04845  -8859943.09346  22828335.131    22828334.5194   22828336.5314
        43.6004         40.4004
  -3381539.83244  -2606624.57946  23442946.220    23442946.3374   23442948.4194
        41.1004         38.3004
  -1518438.96943  -1170304.87346  24723169.996    24723170.3464   24723170.1684
        38.5004         36.2004
 -10218824.56746  -7939656.76647  21090612.192    21090612.7974   21090617.3094
        48.8004         45.9004
 -22399679.10447 -17439074.75947  20592492.757    20592492.5334   20592492.7834
        50.0004         47.2004
 -14616500.07046 -11369728.84647  21612355.842    21612355.7964   21612360.2854
        47.2004         44.4004
   4323591.06841   3391856.17745  24774154.258    24774146.1904
        32.3004         32.0004
  -3721240.94943  -2620394.97046  23460029.358    23460027.8824   23460030.0204
        39.7004         37.3004
 -18169929.09747 -14135337.39847  20661061.090    20661061.1434   20661066.0764
        49.8004         47.0004
 16  6  8  0 54  0.0000000  0  9G19G17G31G 6G23G 3G 1G22G 9
 -11334548.33844  -8809898.65846  22840557.589    22840556.2234   22840558.3354
        43.4004         40.7004
  -3293991.23344  -2538404.93946  23459605.338    23459604.6034   23459607.8304
        40.8004         38.1004
  -1437843.64943  -1107503.35846  24738507.201    24738507.4924   24738508.4884
        38.5004         36.2004
 -10268899.31746  -7978676.04647  21081082.784    21081083.8124   21081088.4064
        48.9004         46.1004
 -22393902.24247 -17434573.30547  20593592.096    20593591.7694   20593592.1844
        49.8004         47.2004
 -14550570.90546 -11318355.47347  21624901.434    21624901.8314   21624906.4484
        47.2004         44.2004
   4436349.37041   3479719.68245  24795610.114    24795603.5814
        31.9004         31.7004
  -3635355.94143  -2553471.59346  23476371.613    23476371.5564   23476374.4464
        39.9004         37.6004
 -18220314.49947 -14174598.73847  20651473.109    20651473.0894   20651477.8474
        49.8004         47.0004
 16  6  8  0 54 30.0000000  0  9G19G17G31G 6G23G 3G 1G22G 9
 -11269857.43245  -8759490.18746  22852867.639    22852867.1174   22852869.2544
        43.6004         40.9004
  -3206181.23144  -2469981.61046  23476315.063    23476314.9064   23476318.8934
        40.6004         37.9004
  -1356865.53043  -1044403.57545  24753917.530    24753916.9784   24753918.8754
        38.3004         35.9004
 -10318493.37946  -8017320.76847  21071645.698    21071646.0934   21071651.0274
        48.9004         46.1004
 -22387668.00447 -17429715.45647  20594778.301    20594778.1804   20594778.1764
        49.8004         47.2004
 -14484388.75846 -11266784.97547  21637495.272    21637495.7054   21637500.7074
        47.0004         44.2004
   4549179.25641   3567638.93045  24817081.604    24817078.7504   24817084.8544
        32.3004         31.7004
  -3549337.42043  -2486444.20046  23492743.102    23492740.8814   23492743.7314
        40.1004         37.6004
 -18270239.25447 -14213501.13347  20641973.085    20641972.9434   20641977.5694
        49.8004         47.2004
 16  6  8  0 55  0.0000000  0  9G19G17G31G 6G23G 3G 1G22G 9
 -11204701.85245  -8708719.61546  22865265.928    22865264.9204   22865267.6644
        43.6004         40.7004
  -3118112.32944  -2401356.49146  23493074.444    23493075.0094   23493078.7614
        40.8004         38.3004
  -1275507.05043   -981007.37645  24769398.661    24769398.4054   24769398.5994
        38.2004         35.7004
 -10367604.77746  -8055589.38947  21062300.288    21062300.6894   21062305.5964
        48.9004         46.3004
 -22380977.15247 -17424501.80047  20596051.608    20596051.4524   20596051.3034
        49.8004         47.0004
 -14417954.34946 -11215017.92047  21650137.561    21650137.9714   21650142.6184
        47.0004         44.2004
   4662079.01241   3655612.73445  24838562.086    24838562.8564
        31.6004         31.5004
  -3463186.19043  -2419313.43046  23509135.246    23509134.4494   23509136.2584
        39.9004         37.4004
 -18319702.68947 -14252044.05247  20632560.044    20632560.1744   20632564.4814
        49.8004         47.0004
 16  6  8  0 55 30.0000000  0  9G19G17G31G 6G23G 3G 1G22G 9
 -11139084.19644  -8657588.97846  22877753.066    22877751.9114   22877754.2614
        43.4004         40.7004
  -3029787.89344  -2332532.29046  23509882.620    23509881.9874   23509884.1124
        40.8004         38.1004
  -1193770.72943   -917316.78546  24784952.612    24784952.9714   24784953.5674
        38.2004         36.0004
 -10416231.56046  -8093480.38447  21053046.647    21053047.2314   21053052.5794
        49.1004         46.3004
 -22373830.15947 -17418932.71247  20597411.889    20597411.5244   20597411.7044
        49.8004         47.2004
 -14351268.36946 -11163054.82047  21662827.172    21662827.6094   21662832.4884
        46.9004         44.0004
   4775046.7214    3743639.43345  24860054.994    24860060.0614
        31.4004         31.5004
  -3376902.58443  -2352079.46046  23525552.862    23525553.5614   23525555.5494
        39.7004         37.1004
 -18368704.11547 -14290226.95847  20623234.635    20623234.8684   20623239.7084
        49.8004         46.8004
 16  6  8  0 56  0.0000000  0  9G19G17G31G 6G23G 3G 1G22G 9
 -11073007.53545  -8606100.70746  22890328.140    22890326.4804   22890328.2814
        43.6004         40.9004
  -2941210.87043  -2263511.26246  23526736.817    23526737.6034   23526740.7504
        40.3004         37.8004
  -1111659.20843   -853333.78545  24800578.473    24800578.4704   24800578.2084
        38.2004         35.9004
 -10464371.76146  -8130992.22847  21043886.002    21043886.3794   21043891.4934
        49.1004         46.1004
 -22366228.13847 -17413009.06047  20598858.379    20598858.0844   20598858.5704
        49.8004         47.2004
 -14284331.49946 -11110896.23947  21675565.450    21675565.4724   21675570.6424
        46.9004         44.0004
   4888080.50641   3831717.67345  24881562.595    24881567.0734
        31.9004         31.7004
  -3290487.37943  -2284742.97046  23542000.504    23541997.9764   23541999.9534
        39.4004         36.9004
 -18417242.86947 -14328049.35147  20613998.964    20613998.5884   20614003.2374
        49.8004         47.0004
 16  6  8  0 56 30.0000000  0  9G19G17G31G 6G23G 3G 1G22G 9
 -11006474.29744  -8554256.66146  22902988.184    22902987.0614   22902988.1854
        43.4004         40.6004
  -2852384.35743  -2194295.82146  23543641.336    23543640.9814   23543644.8234
        40.3004         37.9004
  -1029175.19143   -789060.54146  24816274.984    24816274.5284   24816276.3954
        38.5004         36.4004
 -10512023.47146  -8168123.42447  21034818.280    21034818.5934   21034823.2964
        48.9004         45.9004
 -22358171.62947 -17406731.25647  20600391.410    20600390.9734   20600391.6334
        50.0004         47.2004
 -14217144.31746 -11058542.59347  21688349.965    21688350.2894   21688355.6024
        46.9004         43.9004
                     55133.01043  24903087.489
                        23.4004
  -3203941.22643  -2217304.45746  23558467.797    23558467.2404   23558468.5424
        39.4004         36.7004
 -18465318.28647 -14365510.70947  20604850.257    20604850.3794   20604854.6304
        49.8004         47.0004
 16  6  8  0 57  0.0000000  0  9G19G17G31G 6G23G 3G 1G22G 9
 -10939487.41344  -8502059.07946  22915733.859    22915732.6874   22915736.3714
        42.9004         40.0004
  -2763311.26743  -2124888.23746  23560590.742    23560591.0734   23560594.4474
        40.4004         37.9004
   -946321.15843   -724499.00146  24832040.470    24832040.6454   24832042.3924
        38.9004         36.6004
 -10559184.70946  -8204872.44347  21025843.463    21025844.1884   21025848.7714
        48.8004         45.9004
 -22349661.48047 -17400099.97547  20602010.686    20602010.7764   20602011.0774
        50.0004         47.2004
 -14149707.82546 -11005994.69347  21701182.346    21701182.7504   21701188.6534
        46.7004         43.9004
                    143244.16644  24924622.079
                        29.8004
  -3117264.98043  -2149764.54046  23574960.252    23574959.6794   23574961.1404
        39.0004         36.6004
 -18512929.73047 -14402610.52347  20595790.427    20595790.3034   20595794.5984
        50.0004         47.2004
 16  6  8  0 57 30.0000000  0  9G19G17G31G 6G23G 3G 1G22G 9
 -10872049.24844  -8449509.87046  22928567.820    22928567.5984   22928569.1644
        43.0004         40.4004
  -2673994.76443  -2055291.00146  23577586.394    23577586.6024   23577588.7994
        40.1004         37.3004
   -863099.84843   -659651.27946  24847875.521    24847876.9824   24847878.1224
        38.9004         36.4004
 -10605853.62646  -8241237.82347  21016962.795    21016963.0494   21016968.1104
        48.9004         45.9004
 -22340698.46547 -17393115.80447  20603716.725    20603716.1814   20603716.3444
        50.0004         47.2004
 -14082022.57346 -10953252.96247  21714062.655    21714062.4464   21714068.8014
        46.7004         43.9004
                    231384.39945  24946167.284
                        30.0004
  -3030459.08343  -2082123.62446  23591481.637    23591478.4714   23591481.6054
        38.9004         36.4004
 -18560076.56747 -14439348.30847  20586819.011    20586818.7444   20586822.7244
        50.0004         47.2004
 16  6  8  0 58  0.0000000  0  9G19G17G31G 6G23G 3G 1G22G 9
 -10804162.33544  -8396611.02146  22941487.454    22941486.0244   22941486.8534
        43.0004         40.4004
  -2584437.67343  -1985506.29846  23594628.522    23594628.8324   23594632.3444
        40.1004         37.8004
   -779513.29943   -594518.92946  24863782.642    24863782.6324   24863784.3414
        38.9004         36.6004
 -10652028.26246  -8277218.05847  21008176.107    21008176.4234   21008181.2744
        48.9004         46.1004
 -22331283.14547 -17385779.19547  20605508.552    20605507.8494   20605508.0874
        49.8004         47.2004
 -14014089.26846 -10900317.93347  21726990.299    21726990.4774   21726995.7244
        46.5004         43.7004
                     47865.09343  24967724.736
                        23.4004
  -2943524.21743  -2014382.22946  23608023.461    23608023.8184   23608023.8374
        38.9004         36.6004
 -18606758.21247 -14475723.60447  20577934.967    20577935.3904   20577939.8114
        50.0004         47.2004
 16  6  8  0 58 30.0000000  0  9G19G17G31G 6G23G 3G 1G22G 9
 -10735829.98244  -8343365.03346  22954489.303    22954487.9904   22954490.5784
        42.7004         39.9004
  -2494643.50043  -1915536.84746  23611717.735    23611717.0754   23611720.1384
        40.4004         37.9004
   -695564.55043   -529104.31046  24879757.283    24879757.9714   24879761.2634
        38.9004         36.6004
 -10697706.74346  -8312811.67447  20999483.382    20999484.1344   20999489.5814
        48.9004         46.3004
 -22321416.78247 -17378091.12247  20607385.684    20607385.2214   20607385.4264
        49.8004         47.0004
 -13945908.58846 -10847190.13947  21739963.726    21739964.2744   21739970.2004
        46.5004         43.7004
                    136076.41454  24989291.091
                        29.8004
  -2856461.18343  -1946540.92846  23624592.366    23624590.3284   23624591.5794
        39.0004         36.9004
 -18652974.02747 -14511735.92047  20569140.385    20569140.5514   20569145.3014
        50.0004         47.2004
 16  6  8  0 59  0.0000000  0  9G19G17G31G 6G23G 3G 1G22G 9
 -10667055.00344  -8289774.13146  22967577.175    22967576.4784   22967577.5684
        42.7004         40.2004
  -2404615.12843  -1845384.90546  23628848.088    23628847.7924   23628851.9824
        40.4004         37.8004
   -611256.42443   -463409.66946  24895800.864    24895800.7684   24895803.9514
        38.9004         36.6004
 -10742887.16546  -8348017.19447  20990885.772    20990886.3014   20990891.9064
        48.9004         45.9004
 -22311100.30647 -17370052.30247  20609348.869    20609348.4384   20609348.9204
        49.8004         47.2004
 -13877481.24346 -10793870.12847  21752985.995    21752986.5334   21752992.0454
        46.7004         44.0004
                    224286.51544  25010867.262
                        29.8004
  -2769270.63643  -1878600.27746  23641184.826    23641183.4084   23641183.9894
        39.2004         36.9004
 -18698723.43047 -14547384.78847  20560434.771    20560434.7214   20560439.6144
        50.0004         47.2004
 16  6  8  0 59 30.0000000  0  9G19G17G31G 6G23G 3G 1G22G 9
 -10597839.88044  -8235840.29146  22980748.592    22980747.8274   22980748.8334
        42.9004         40.2004
  -2314355.66843  -1775052.88046  23646024.178    23646024.0424   23646027.0954
        40.1004         37.6004
   -526591.17843   -397436.82846  24911911.337    24911911.5014   24911913.3294
        38.7004         36.4004
 -10787567.71246  -8382833.20547  20982383.319    20982383.9544   20982389.2074
        48.9004         45.9004
 -22300334.03247 -17361662.99547  20611397.970    20611397.5234   20611397.7484
        50.0004         47.2004
 -13808807.96546 -10740358.48447  21766054.419    21766054.8394   21766059.7774
        46.9004         44.0004
                     40567.75243  25032455.817
                        23.4004
  -2681953.18243  -1810560.71846  23657798.986    23657798.9714   23657800.5164
        39.4004         37.1004
 -18744005.88147 -14582669.81247  20551817.444    20551817.4964   20551822.3654
        50.0004         47.2004
 16  6  8  1  0  0.0000000  0  9G19G17G31G 6G23G 3G 1G22G 9
 -10528187.45944  -8181565.68446  22994001.897    22994001.8264   22994003.3194
        42.5004         39.7004
  -2223867.97943  -1704543.06046  23663243.679    23663243.5284   23663246.3634
        39.9004         37.4004
   -441571.30143   -331187.57846  24928091.439    24928090.0534   24928092.5554
        38.9004         36.7004
 -10831746.49546  -8417258.22847  20973976.831    20973977.1704   20973982.2644
        48.9004         46.1004
 -22289118.70447 -17352923.77047  20613532.392    20613532.0764   20613532.0544
        50.0004         47.3004
 -13739889.47046 -10686655.76347  21779169.297    21779169.8514   21779174.8694
        47.0004         44.2004
                    128923.24644  25054056.308
                        29.6004
  -2594509.27143  -1742422.64646  23674440.746    23674439.1444   23674440.3874
        39.2004         36.7004
 -18788820.77547 -14617590.49847  20543289.385    20543289.5474   20543294.3554
        50.0004         47.2004
 16  6  8  1  0 30.0000000  0  9G19G17G31G 6G23G 3G 1G22G 9
 -10458100.33344  -8126952.33546  23007339.531    23007338.7004   23007341.0694
        42.5004         39.9004
  -2133155.20943  -1633857.86746  23680506.071    23680506.5474   23680509.5654
        39.7004         37.3004
   -356199.29143   -264663.96746  24944335.845    24944336.1144   24944339.1994
        38.7004         36.2004
 -10875421.63846  -8451290.81747  20965666.002    20965666.4514   20965671.3854
        49.1004         46.3004
 -22277455.85347 -17343835.83247  20615751.511    20615750.8154   20615751.4064
        50.0004         47.2004
 -13670726.44846 -10632762.49947  21792330.398    21792330.7774   21792335.7284
        46.9004         44.2004
                    217265.70345  25075662.132
                        30.5004
  -2506939.90943  -1674186.80846  23691103.017    23691102.9754   23691102.3454
        39.2004         36.7004
 -18833167.58747 -14652146.43847  20534850.737    20534850.6044   20534855.3794
        50.0004         47.2004
 16  6  8  1  1  0.0000000  0  9G19G17G31G 6G23G 3G 1G22G 9
 -10387581.91044  -8072002.94546  23020759.270    23020758.0004   23020760.7274
        42.9004         40.4004
  -2042220.62243  -1562999.77646  23697809.636    23697810.4494   23697813.2694
        39.9004         37.6004
   -270478.31543   -197868.45745  24960648.718    24960648.7464   24960650.0154
        38.2004         35.7004
 -10918591.35846  -8484929.55847  20957451.006    20957451.5104   20957456.8244
        49.3004         46.5004
 -22265345.89447 -17334399.49747  20618055.569    20618055.2834   20618055.6624
        49.8004         47.0004
 -13601319.59846 -10578679.24347  21805538.142    21805538.1404   21805543.6774
        46.9004         44.0004
                     33244.07543  25097278.443
                        23.4004
  -2419245.56843  -1605853.56946  23707791.233    23707790.0684   23707790.8144
        39.0004         36.6004
 -18877045.80247 -14686337.25247  20526500.912    20526501.0394   20526505.8044
        50.2004         47.3004
 16  6  8  1  1 30.0000000  0  9G19G17G31G 6G23G 3G 1G22G 9
 -10316634.31944  -8016719.14046  23034259.002    23034258.8714   23034261.1244
        43.0004         40.2004
  -1951067.09243  -1491971.08946  23715155.925    23715155.3114   23715159.2404
        39.9004         37.4004
   -184410.64143   -130802.75145  24977027.373    24977027.1344   24977025.6394
        37.6004         35.2004
 -10961253.82646  -8518173.02947  20949332.404    20949332.9204   20949338.5624
        49.3004         46.5004
 -22252789.71047 -17324615.44447  20620444.865    20620444.4844   20620444.9544
        49.8004         47.0004
 -13531669.65046 -10524406.57147  21818791.518    21818791.6414   21818797.2584
        46.7004         43.9004
                    121814.31044  25118903.989
                        28.9004
  -2331426.87943  -1537423.44946  23724502.558    23724501.8664   23724501.2604
        38.9004         36.6004
 -18920454.89047 -14720162.49947  20518240.672    20518240.6594   20518245.4184
        50.2004         47.3004
 16  6  8  1  2  0.0000000  0  9G19G17G31G 6G23G 3G 1G22G 9
 -10245260.50544  -7961103.19046  23047842.069    23047840.9284   23047843.5984
        42.9004         40.4004
  -1859697.49043  -1420774.06746  23732543.360    23732544.2854   23732546.9374
        39.9004         37.6004
    -97998.80442    -63468.92945  24993471.305    24993470.9864   24993471.0964
        37.3004         35.0004
 -11003407.23946  -8551019.83647  20941310.926    20941311.1914   20941316.6204
        49.1004         46.3004
 -22239788.24347 -17314484.42447  20622918.686    20622918.5314   20622919.0674
        49.8004         47.0004
 -13461777.31546 -10469945.01847  21832091.008    21832092.0674   21832097.2844
        46.7004         43.9004
                    210436.59744  25140533.886
                        29.4004
  -2243484.43043  -1468896.89846  23741238.488    23741236.8014   23741235.8554
        39.0004         36.6004
 -18963394.35847 -14753621.81047  20510069.701    20510069.4694   20510074.2904
        50.3004         47.5004
 16  6  8  1  2 30.0000000  0  9G19G17G31G 6G23G 3G 1G22G 9
 -10173463.71844  -7905157.66746  23061505.242    23061504.4344   23061505.9384
        43.4004         40.9004
  -1768115.38643  -1349411.42146  23749967.701    23749968.1414   23749974.8624
        39.6004         37.1004
    -11245.71942      4130.81545  25009977.830    25009977.9024   25009978.3334
        37.3004         35.0004
 -11045049.78746  -8583468.57247  20933386.616    20933387.3164   20933391.9954
        49.1004         46.3004
 -22226342.43747 -17304007.16847  20625477.666    20625477.2354   20625477.7684
        49.8004         47.0004
 -13391643.25646 -10415295.12747  21845438.478    21845439.1504   21845443.1554
        46.7004         43.9004
                     25897.52753  25162175.137
                        23.4004
  -2155419.27943  -1400274.73346  23757994.167    23757994.3774   23757996.1004
        38.9004         36.4004
 -19005863.68447 -14786714.78747  20501987.527    20501987.8154   20501992.3074
        50.2004         47.3004
 16  6  8  1  3  0.0000000  0  9G19G17G31G 6G23G 3G 1G22G 9
 -10101246.59044  -7848884.60746  23075247.695    23075246.3884   23075248.5364
        43.4004         40.4004
  -1676323.79543  -1277885.55246  23767438.693    23767438.2144   23767441.8034
        39.7004         37.3004
     75846.00942     71994.43145  25026551.675    25026552.8784   25026552.1674
        37.1004         35.0004
 -11086179.70046  -8615517.84547  20925560.144    20925560.5234   20925565.3084
        49.1004         46.3004
 -22212453.24047 -17293184.41347  20628120.869    20628120.3074   20628120.7434
        49.8004         47.0004
 -13321268.22146 -10360457.44047  21858830.265    21858831.0364   21858835.5004
        46.7004         43.9004
                    114548.91544  25183824.852
                        28.9004
  -2067231.80243  -1331557.23246  23774774.929    23774775.3454   23774777.8214
        38.9004         36.9004
 -19047862.40547 -14819441.05647  20493995.997    20493995.7654   20494000.2134
        50.2004         47.3004
 16  6  8  1  3 30.0000000  0  9G19G17G31G 6G23G 3G 1G22G 9
 -10028611.66544  -7792285.95446  23089067.599    23089067.4984   23089069.7094
        42.5004         39.7004
  -1584325.37543  -1206198.55446  23784943.553    23784943.5394   23784948.6044
        39.4004         37.1004
    163273.91942    140120.01845  25043190.010    25043188.9564   25043190.0964
        37.1004         35.2004
 -11126795.20046  -8647166.28347  20917831.498    20917832.2354   20917836.3334
        49.3004         46.6004
 -22198121.35647 -17282016.69947  20630848.346    20630847.7104   20630847.9754
        49.8004         47.0004
 -13250652.89746 -10305432.50947  21872267.867    21872268.3284   21872273.1684
        46.7004         43.9004
                    203233.94744  25205480.901
                        29.4004
  -1978922.46843  -1262744.82046  23791583.855    23791581.6544   23791582.4344
        39.0004         36.7004
 -19089390.10947 -14851800.29947  20486093.674    20486093.1924   20486097.9004
        50.2004         47.3004
 16  6  8  1  4  0.0000000  0  9G19G17G31G 6G23G 3G 1G22G 9
  -9955561.98344  -7735364.16346  23102969.967    23102969.0374   23102970.5084
        42.2004         39.5004
  -1492123.50143  -1134352.98846  23802488.863    23802488.6924   23802493.3264
        39.2004         36.7004
    251035.49242    208505.61145  25059890.226    25059891.7554   25059889.8474
        36.6004         34.8004
 -11166894.53146  -8678412.50247  20910200.365    20910200.9494   20910205.6774
        49.5004         46.6004
 -22183347.94647 -17270504.94747  20633659.680    20633659.0354   20633659.0384
        49.8004         47.0004
 -13179797.99746 -10250220.90047  21885751.193    21885751.2814   21885756.3684
        46.7004         43.9004
                     18530.20443  25227144.668
                        23.4004
  -1890492.14643  -1193838.10146  23808410.128    23808409.4394   23808411.8404
        39.2004         36.9004
 -19130446.27947 -14883792.10547  20478280.307    20478280.3624   20478285.0314
        50.2004         47.3004
 16  6  8  1  4 30.0000000  0  9G19G17G31G 6G23G 3G 1G22G 9
  -9882100.51844  -7678121.50446  23116949.207    23116948.1664   23116950.3354
        42.3004         39.9004
  -1399721.38943  -1062351.38646  23820074.236    23820073.8374   23820077.5804
        39.7004         37.6004
    339127.94542    277149.05845  25076652.425    25076650.4594   25076653.6964
        35.9004         34.0004
 -11206475.99446  -8709255.18147  20902668.095    20902668.8754   20902674.0234
        49.5004         46.6004
 -22168134.02747 -17258649.93447  20636554.447    20636554.1074   20636554.0864
        49.6004         46.8004
 -13108704.23046 -10194823.17347  21899279.669    21899279.7484   21899284.8244
        46.5004         43.5004
                    107249.01944  25248818.700
                        29.3004
  -1801941.61243  -1124837.70946  23825260.008    23825259.9044   23825260.6324
        39.2004         36.9004
 -19171030.51147 -14915416.16547  20470557.116    20470557.2564   20470561.8104
        50.0004         47.2004
 16  6  8  1  5  0.0000000  0  9G19G17G31G 6G23G 3G 1G22G 9
  -9808230.32644  -7620560.33246  23131005.651    23131004.9284   23131006.9644
        42.3004         39.7004
  -1307121.87643   -990195.98546  23837695.179    23837694.4704   23837698.8134
        39.9004         37.6004
    427548.51642    346048.12745  25093479.056    25093479.6614   25093478.0484
        35.2004         33.8004
 -11245537.80646  -8739692.95647  20895234.967    20895235.2204   20895240.5014
        49.3004         46.5004
 -22152480.07347 -17246452.04547  20639532.892    20639532.5274   20639532.9014
        49.6004         46.8004
 -13037372.30845 -10139239.85147  21912852.967    21912853.3624   21912859.0134
        46.3004         43.5004
                    195967.02345  25270495.427
                        30.1004
  -1713271.48243  -1055744.12946  23842134.925    23842133.7634   23842134.5944
        39.2004         36.7004
 -19211142.37847 -14946672.14747  20462924.268    20462924.2204   20462928.9584
        50.0004         47.2004
 16  6  8  1  5 30.0000000  0  9G19G17G31G 6G23G 3G 1G22G 9
  -9733954.15744  -7562682.81546  23145140.693    23145139.9904   23145141.6694
        42.5004         40.2004
  -1214328.06543   -917889.16846  23855351.450    23855352.6194   23855356.8214
        39.9004         37.3004
    516294.65542    415200.86045  25110366.686    25110366.3104   25110365.8074
        35.4004         33.8004
 -11284078.29846  -8769724.50047  20887900.468    20887901.3884   20887906.6274
        49.1004         46.3004
 -22136387.41647 -17233912.30947  20642595.278    20642595.0204   20642595.5424
        49.6004         46.8004
 -12965802.96345 -10083471.54747  21926472.709    21926473.3144   21926477.9074
        46.2004         43.3004
                     11146.50843  25292173.818
                        23.4004
  -1624482.60643   -986558.02846  23859029.593    23859029.0674   23859029.9394
        39.2004         36.7004
 -19250781.48947 -14977559.75647  20455381.419    20455381.5654   20455385.8714
        50.2004         47.3004
 16  6  8  1  6  0.0000000  0  9G19G17G31G 6G23G 3G 1G22G 9
  -9659274.94044  -7504491.26246  23159352.202    23159351.4464   23159352.9064
        42.9004         40.2004
  -1121343.26443   -845433.53846  23873047.177    23873046.7384   23873050.7094
        39.6004         37.1004
    605363.74042    484605.26945  25127316.389    25127316.3064   25127317.6814
        35.7004         34.3004
 -11322095.74146  -8799348.47647  20880666.366    20880666.7084   20880672.1924
        49.1004         46.3004
 -22119856.75547 -17221031.27647  20645741.192    20645741.0914   20645740.8864
        49.6004         46.8004
 -12893996.89245 -10027518.77247  21940136.006    21940136.9714   21940142.0384
        46.0004         43.2004
                     99953.70654  25313861.181
                        26.8004
  -1535575.23343   -917279.58246  23875948.816    23875947.8414   23875948.9244
        39.0004         36.7004
 -19289947.43447 -15008078.66547  20447928.705    20447928.6714   20447933.0584
        50.2004         47.3004
 16  6  8  1  6 30.0000000  0  9G19G17G31G 6G23G 3G 1G22G 9
  -9584195.49944  -7445987.81546  23173638.371    23173637.2794   23173640.7484
        42.7004         39.7004
  -1028170.35743   -772831.32046  23890777.643    23890778.0164   23890783.1024
        39.7004         37.4004
    694752.87042    554259.07845  25144325.850    25144324.6444   25144327.8854
        35.4004         33.8004
 -11359588.46946  -8828563.59147  20873532.174    20873532.2074   20873537.0884
        49.1004         46.3004
 -22102889.12247 -17207809.74247  20648970.544    20648970.1164   20648969.6094
        49.6004         46.8004
 -12821954.76745  -9971382.06447  21953846.346    21953846.6964   21953851.5064
        46.0004         43.2004
                    188783.35744  25335556.408
                        29.4004
  -1446550.24143   -847909.49246  23892888.632    23892888.9264   23892889.6844
        39.0004         36.7004
 -19328639.84647 -15038228.59447  20440565.690    20440565.5174   20440570.2274
        50.2004         47.3004
 16  6  8  1  7  0.0000000  0  9G19G17G31G 6G23G 3G 1G22G 9
  -9508718.81544  -7387174.81646  23188001.578    23188001.2124   23188001.7904
        42.3004         39.9004
   -934812.30543   -700084.85846  23908542.877    23908541.8564   23908546.0824
        39.6004         37.1004
    784459.67742    624160.46445  25161396.266    25161395.6944   25161398.3164
        35.7004         34.1004
 -11396554.82746  -8857368.54347  20866497.332    20866497.9194   20866503.2574
        49.1004         46.3004
 -22085485.82347 -17194248.72547  20652282.075    20652281.3864   20652281.3794
        49.6004         46.8004
 -12749677.34145  -9915061.99347  21967599.217    21967600.2384   21967605.7984
        45.8004         43.2004
                      3749.82443  25357253.378
                        23.4004
  -1357408.00443   -778448.03946  23909853.642    23909851.2764   23909852.6534
        38.7004         36.2004
 -19366858.36047 -15068009.24247  20433292.329    20433292.6134   20433297.1494
        50.2004         47.3004
 16  6  8  1  7 30.0000000  0  9G19G17G31G 6G23G 3G 1G22G 9
  -9432847.73744  -7328054.54146  23202440.119    23202438.8234   23202439.1974
        42.5004         39.9004
   -841272.49143   -627196.73546  23926341.874    23926341.9664   23926346.3664
        39.0004         36.7004
    874481.37642    694307.16745  25178527.483    25178525.8584   25178527.1684
        35.6004         33.8004
 -11432993.16146  -8885762.02747  20859562.608    20859563.1994   20859569.0444
        49.1004         46.3004
 -22067647.65647 -17180348.85647  20655675.965    20655675.6474   20655676.1064
        49.6004         46.8004
 -12677165.36545  -9858559.17247  21981398.947    21981399.0854   21981403.9264
        45.8004         43.2004
                     92615.25254  25378956.924
                        28.4004
  -1268149.38843   -708895.89446  23926837.897    23926835.9484   23926837.5314
        38.5004         36.2004
 -19404602.64147 -15097420.35647  20426109.296    20426109.5214   20426114.5604
        50.2004         47.2004
 16  6  8  1  8  0.0000000  0  8G19G17G31G 6G23G 3G22G 9
  -9356585.16044  -7268629.20846  23216950.778    23216949.7354   23216952.2004
        42.0004         38.8004
   -747553.89943   -554169.31846  23944178.978    23944177.4734   23944182.4854
        39.2004         37.1004
    964815.24942    764697.12445  25195718.264    25195718.1464   25195720.0944
        35.9004         34.1004
 -11468901.82646  -8913742.79347  20852730.410    20852730.8124   20852735.3154
        49.1004         46.6004
 -22049375.53447 -17166110.83447  20659153.006    20659152.7704   20659153.1484
        49.6004         46.8004
 -12604419.48545  -9801874.08947  21995242.073    21995242.5664   21995246.9084
        45.8004         43.2004
  -1178775.19143   -639253.66246  23943842.140    23943842.9944   23943845.8964
        38.7004         36.7004
 -19441872.33547 -15126461.67247  20419017.149    20419017.2914   20419022.6344
        50.0004         47.2004
 16  6  8  1  8 30.0000000  0  8G19G17G31G 6G23G 3G22G 9
  -9279934.33244  -7208901.28546  23231537.523    23231537.4454   23231538.8864
        41.5004         38.8004
   -653659.51143   -481004.92246  23962045.046    23962044.8484   23962047.8474
        39.4004         36.9004
   1055458.89942    835328.49545  25212966.917    25212966.7904   25212967.0664
        35.6004         33.8004
 -11504279.17546  -8941309.55247  20845998.492    20845998.6654   20846003.4784
        49.5004         46.6004
 -22030670.51347 -17151535.48847  20662713.064    20662712.4074   20662712.6324
        49.6004         46.8004
 -12531440.43945  -9745007.32247  22009129.840    22009130.3304   22009134.4984
        45.8004         43.2004
  -1089286.20443   -569522.01446  23960875.191    23960873.1914   23960876.0194
        39.0004         36.9004
 -19478667.12747 -15155132.93147  20412015.805    20412015.7144   20412020.8224
        50.0004         47.3004
 16  6  8  1  9  0.0000000  0  8G19G17G31G 6G23G 3G22G 9
  -9202898.11444  -7148873.10146  23246198.302    23246196.6614   23246197.7424
        41.6004         39.2004
   -559592.67543   -407706.10346  23979943.221    23979944.6054   23979949.0394
        38.9004         36.4004
   1146409.43242    906198.94445  25230272.692    25230271.8014   25230277.6674
        35.4004         33.8004
 -11539123.60947  -8968461.04747  20839367.398    20839368.1284   20839372.7184
        49.6004         46.8004
 -22011533.38447 -17136623.43347  20666354.274    20666354.0234   20666354.1924
        49.6004         46.8004
 -12458228.94445  -9687959.41847  22023061.008    22023061.3914   22023066.6854
        45.8004         43.0004
   -999682.55143   -499701.00746  23977927.483    23977925.1904   23977926.5834
        39.0004         36.7004
 -19514986.69547 -15183433.88847  20405104.545    20405104.7254   20405109.4554
        50.2004         47.3004
 16  6  8  1  9 30.0000000  0  8G19G17G31G 6G23G 3G22G 9
  -9125479.38144  -7088546.83446  23260929.148    23260928.2054   23260930.8184
        41.5004         38.5004
   -465356.20943   -334275.10246  23997878.795    23997878.9924   23997883.7494
        39.4004         37.3004
   1237663.96242    977306.31045  25247638.874    25247639.4094   25247643.6194
        35.4004         33.6004
 -11573433.54246  -8995196.05247  20832838.293    20832838.7924   20832843.4934
        49.5004         46.5004
 -21991965.63447 -17121375.83047  20670078.112    20670077.6734   20670077.7194
        49.6004         46.8004
 -12384785.69845  -9630730.91147  22037037.663    22037037.8424   22037042.4934
        45.8004         43.0004
   -909965.63843   -429791.74846  23994998.234    23994997.4344   23994999.6914
        39.2004         36.9004
 -19550830.76547 -15211364.32347  20398284.157    20398284.0254   20398288.6034
        50.2004         47.5004
 16  6  8  1 10  0.0000000  0  8G19G17G31G 6G23G 3G22G 9
  -9047681.27244  -7027924.94246  23275733.351    23275733.1854   23275735.0914
        41.1004         38.6004
   -370952.93543   -260714.17446  24015843.359    24015842.8094   24015845.7144
        39.4004         36.9004
   1329220.11342   1048648.79445  25265061.614    25265063.3654   25265063.1444
        34.7004         33.1004
 -11607207.40946  -9021513.33747  20826411.639    20826412.2034   20826416.8114
        49.5004         46.6004
 -21971967.86546 -17105793.14147  20673883.478    20673883.3134   20673883.2554
        49.5004         46.6004
 -12311111.44145  -9573322.41147  22051057.897    22051057.7744   22051062.3424
        45.8004         43.0004
   -820135.29343   -359794.12146  24012094.322    24012093.0074   24012091.5304
        39.2004         36.7004
 -19586199.03847 -15238924.00447  20391553.858    20391553.7094   20391558.1024
        50.3004         47.5004
 16  6  8  1 10 30.0000000  0  8G19G17G31G 6G23G 3G22G 9
  -8969506.66944  -6967009.70446  23290611.649    23290609.9474   23290610.5914
        41.6004         39.3004
   -276386.77643   -187026.28046  24033836.515    24033836.9254   24033842.7654
        39.2004         37.1004
   1421075.20841   1120224.17345  25282540.731    25282538.6684   25282543.8774
        34.3004         32.9004
 -11640443.62047  -9047411.67847  20820086.975    20820087.6144   20820092.1874
        49.6004         46.8004
 -21951541.38546 -17089876.39347  20677770.430    20677770.1284   20677770.3134
        49.5004         46.6004
 -12237206.86545  -9515734.44247  22065119.314    22065120.0424   22065125.1084
        45.6004         42.8004
   -730192.64943   -289708.93646  24029209.922    24029208.4174   24029207.9954
        38.9004         36.6004
 -19621091.25547 -15266112.73647  20384913.534    20384913.7644   20384918.5784
        50.3004         47.5004
 16  6  8  1 11  0.0000000  0  7G19G17G 6G23G 3G22G 9
  -8890958.51244  -6905803.38646  23305557.430    23305556.3844   23305557.1864
        41.5004         38.8004
   -181660.29643   -113213.45446  24051864.292    24051864.2134   24051868.2294
        39.4004         36.9004
 -11673140.65347  -9072889.87647  20813864.774    20813865.4684   20813870.3384
        49.6004         46.8004
 -21930687.15246 -17073626.33647  20681738.778    20681738.8924   20681738.8244
        49.5004         46.8004
 -12163072.68945  -9457967.57647  22079226.936    22079227.9454   22079232.8114
        45.6004         42.8004
   -640138.42543   -219536.82446  24046345.311    24046345.2824   24046346.3624
        39.0004         36.6004
 -19655507.18747 -15292930.34147  20378364.300    20378364.6514   20378369.1014
        50.3004         47.5004
 16  6  8  1 11 30.0000000  0  7G19G17G 6G23G 3G22G 9
  -8812039.94944  -6844308.41346  23320575.184    23320574.4164   23320575.0034
        41.1004         38.3004
    -86776.72843    -39278.26046  24069920.116    24069919.4174   24069922.1464
        39.4004         36.9004
 -11705296.95647  -9097946.71947  20807745.416    20807746.1264   20807751.2044
        49.6004         46.8004
 -21909406.37547 -17057043.90547  20685789.029    20685788.3524   20685788.7164
        49.6004         46.8004
 -12088709.64745  -9400022.35747  22093378.402    22093377.9874   22093383.3804
        45.5004         42.6004
   -549973.33643   -149278.33546  24063501.745    24063499.6004   24063503.6514
        38.9004         36.2004
 -19689446.55547 -15319376.59647  20371906.396    20371906.3114   20371910.6444
        50.3004         47.5004
 16  6  8  1 12  0.0000000  0  7G19G17G 6G23G 3G22G 9
  -8732753.63244  -6782526.88746  23335663.694    23335662.3724   23335663.5034
        41.3004         38.8004
      8261.00043     34777.09546  24088004.204    24088003.3704   24088008.9094
        39.0004         36.6004
 -11736911.04446  -9122581.07047  20801729.363    20801730.1134   20801734.9724
        49.5004         46.6004
 -21887699.97747 -17040129.82747  20689919.302    20689919.0434   20689919.1934
        49.6004         46.8004
 -12014118.40745  -9341899.33947  22107572.741    22107573.3904   22107577.6484
        45.6004         42.8004
   -459697.63543    -78933.62045  24080679.537    24080677.9674   24080680.2814
        38.0004         35.3004
 -19722909.12247 -15345451.31147  20365538.962    20365538.8014   20365542.8024
        50.3004         47.5004
 16  6  8  1 12 30.0000000  0  7G19G17G 6G23G 3G22G 9
  -8653103.07044  -6720461.53546  23350819.120    23350818.7214   23350821.0714
        41.5004         38.8004
    103449.80343    108950.18046  24106117.843    24106117.9984   24106122.4514
        39.2004         36.9004
 -11767981.38646  -9146791.72147  20795817.005    20795817.6654   20795822.2844
        49.5004         46.5004
 -21865569.03247 -17022884.92647  20694130.882    20694130.5084   20694130.4044
        49.6004         46.8004
 -11939299.76945  -9283599.09947  22121810.157    22121810.8414   22121815.2984
        45.6004         43.0004
   -369312.38042     -8503.58245  24097880.139    24097879.9144   24097880.5424
        37.5004         35.2004
 -19755894.71347 -15371154.36147  20359261.911    20359261.8524   20359265.8304
        50.3004         47.5004
 16  6  8  1 13  0.0000000  0  7G19G17G 6G23G 3G22G 9
  -8573091.20544  -6658114.65246  23366045.451    23366044.9554   23366047.2074
        41.3004         39.0004
    198786.54743    183238.53446  24124261.576    24124260.9924   24124263.9914
        39.4004         36.9004
 -11798506.53946  -9170577.54847  20790008.321    20790008.9754   20790013.7344
        49.5004         46.8004
 -21843014.46246 -17005309.93547  20698422.670    20698422.0944   20698422.1524
        49.5004         46.6004
 -11864254.37945  -9225122.19347  22136090.967    22136090.8434   22136095.8224
        45.6004         42.8004
   -278818.23243     62011.28445  24115098.815    24115098.6304   24115102.7364
        37.6004         35.5004
 -19788403.13947 -15396485.59347  20353075.659    20353075.6994   20353080.0374
        50.5004         47.7004
 16  6  8  1 13 30.0000000  0  7G19G17G 6G23G 3G22G 9
  -8492720.80144  -6595488.41846  23381339.736    23381338.2304   23381341.1784
        41.6004         39.0004
    294268.40243    257639.96246  24142428.712    24142429.3824   24142432.0934
        39.0004         36.7004
 -11828484.98447  -9193937.37147  20784303.451    20784303.8504   20784309.2444
        49.6004         46.8004
 -21820037.61346 -16987405.90047  20702794.867    20702794.4584   20702794.4134
        49.5004         46.6004
 -11788983.02645  -9166469.20847  22150413.889    22150414.8034   22150420.4734
        45.6004         42.8004
   -188215.82643    132610.54445  24132343.030    24132340.9294   24132344.2594
        37.8004         35.7004
 -19820434.18747 -15421444.84047  20346979.935    20346980.1034   20346984.8104
        50.5004         47.7004
 16  6  8  1 14  0.0000000  0  8G19G17G 6G 2G23G 3G22G 9
  -8411995.29344  -6532585.46446  23396700.610    23396700.3884   23396702.7784
        41.6004         39.2004
    389891.56643    332151.48846  24160626.016    24160625.8994   24160629.9974
        38.9004         36.4004
 -11857915.32346  -9216870.09647  20778702.810    20778703.6334   20778708.4544
        49.5004         46.6004
                   -153816.11056  23983783.973
                        37.4004
 -21796639.66446 -16969173.72547  20707247.364    20707246.9904   20707247.3554
        49.3004         46.6004
 -11713486.35745  -9107640.64847  22164780.753    22164781.4614   22164786.8834
        45.5004         42.8004
    -97505.75143    203293.70746  24149602.836    24149602.5764   24149606.0654
        38.2004         36.0004
 -19851987.69547 -15446031.97147  20340975.833    20340975.7754   20340980.1344
        50.5004         47.7004
 16  6  8  1 14 30.0000000  0  8G19G17G 6G 2G23G 3G22G 9
  -8330917.59144  -6469408.07446  23412128.375    23412127.5694   23412131.0024
        41.8004         39.0004
    485653.46443    406771.11746  24178849.614    24178850.1754   24178852.6824
        38.7004         36.6004
 -11886796.10646  -9239374.60247  20773206.573    20773207.4414   20773212.7124
        49.5004         46.6004
                   -227716.33246  23965737.619                    23965736.7824
                        37.8004
 -21772821.27046 -16950613.92847  20711779.208    20711779.4294   20711779.8084
        49.3004         46.6004
 -11637765.12745  -9048637.11247  22179191.208    22179190.6204   22179196.2714
        45.5004         42.8004
     -6688.66243    274060.25046  24166887.468    24166885.5644   24166887.9304
        38.5004         36.2004
 -19883063.52647 -15470246.88447  20335062.260    20335062.1174   20335066.4554
        50.5004         47.7004
 16  6  8  1 15  0.0000000  0  8G19G17G 6G 2G23G 3G22G 9
  -8249490.09344  -6405958.11246  23427623.219    23427623.0314   23427626.0824
        41.5004         38.8004
    581550.80143    481496.30646  24197097.505    24197097.4474   24197102.3364
        38.9004         36.6004
 -11915125.92346  -9261449.78247  20767815.999    20767816.7744   20767821.7374
        49.5004         46.6004
   -406730.91643   -301470.99446  23947724.240    23947723.3774   23947724.5034
        39.7004         37.8004
 -21748583.77146 -16931727.54647  20716391.935    20716391.4614   20716392.1784
        49.3004         46.5004
 -11561820.06645  -8989459.15047  22193641.606    22193642.3574   22193647.8124
        45.5004         42.5004
     84234.65743    344909.57545  24184190.772    24184187.8824   24184189.1994
        38.2004         35.7004
 -19913661.51747 -15494089.45347  20329239.051    20329239.4574   20329243.8114
        50.3004         47.5004
 16  6  8  1 15 30.0000000  0  8G19G17G 6G 2G23G 3G22G 9
  -8167716.55844  -6342238.51646  23443185.904    23443185.0024   23443187.5304
        41.5004         39.0004
    677580.58843    556324.72846  24215370.695    24215372.0704   24215375.2434
        38.7004         36.4004
 -11942903.37046  -9283094.54947  20762530.415    20762530.5924   20762536.1264
        49.5004         46.6004
   -501193.50643   -375078.19346  23929748.194    23929747.8134   23929748.9914
        40.3004         38.1004
 -21723928.59346 -16912515.72747  20721083.955    20721083.4044   20721083.8914
        49.3004         46.5004
 -11485651.84145  -8930107.27747  22208137.193    22208137.0324   22208142.0734
        45.3004         42.5004
    175263.61343    415841.20745  24201509.483    24201508.2284   24201511.5364
        37.6004         35.3004
 -19943781.56047 -15517559.60147  20323507.838    20323507.5054   20323512.1414
        50.3004         47.5004
 16  6  8  1 16  0.0000000  0  8G19G17G 6G 2G23G 3G22G 9
  -8085600.07844  -6278251.71646  23458812.566    23458811.6664   23458813.4744
        41.6004         39.0004
    773739.90643    631254.02346  24233670.969    24233670.9494   24233673.3784
        38.9004         36.6004
 -11970127.06646  -9304307.81247  20757349.889    20757350.4974   20757355.8854
        49.5004         46.8004
   -595464.68253   -448536.22456  23911807.928    23911807.9194   23911810.0324
        40.3004         37.8004
 -21698856.58046 -16892979.09547  20725855.139    20725854.4094   20725854.5784
        49.3004         46.5004
 -11409261.23045  -8870582.12647  22222672.451    22222673.3074   22222678.4854
        45.1004         42.1004
    266397.52842    486854.67545  24218848.637    24218848.1154   24218853.2774
        37.0004         34.6004
 -19973423.54147 -15540657.24647  20317867.049    20317867.0744   20317871.5204
        50.3004         47.5004
 16  6  8  1 16 30.0000000  0  8G19G17G 6G 2G23G 3G22G 9
  -8003143.30344  -6213999.70346  23474502.379    23474501.5594   23474504.7364
        41.5004         38.8004
    870025.39843    706281.64046  24251993.319    24251992.7834   24251997.5004
        39.0004         36.7004
 -11996795.66447  -9325088.53147  20752274.791    20752275.3024   20752280.7594
        49.6004         46.8004
   -689541.90243   -521843.12446  23893906.880    23893906.1874   23893907.7734
        40.4004         37.9004
 -21673368.93746 -16873118.60347  20730704.501    20730704.5334   20730704.7674
        49.1004         46.5004
 -11332648.96745  -8810884.26847  22237250.808    22237251.2214   22237257.0024
        44.9004         42.1004
    357635.69342    557949.28445  24236217.959    24236213.9964   24236213.3024
        37.0004         34.8004
 -20002587.34647 -15563382.28347  20312317.304    20312317.2444   20312321.6694
        50.3004         47.5004
 16  6  8  1 17  0.0000000  0  8G19G17G 6G 2G23G 3G22G 9
  -7920349.69744  -6149485.22646  23490258.090    23490257.9464   23490260.3034
        41.5004         39.0004
    966434.28843    781405.46146  24270337.992    24270338.4814   24270342.9114
        38.7004         36.2004
 -12022907.80447  -9345435.65147  20747305.916    20747306.4574   20747311.4584
        49.6004         46.8004
   -783423.03643   -594997.21846  23876040.976    23876040.7514   23876042.9614
        40.4004         37.9004
 -21647466.75346 -16852935.08047  20735633.224    20735633.2054   20735633.7834
        49.1004         46.3004
 -11255815.75245  -8751014.24546  22251871.986    22251872.9614   22251877.9134
        44.8004         41.9004
    448977.49542    629124.72345  24253597.914    24253596.3694   24253596.1374
        37.1004         35.0004
 -20031272.88347 -15585734.63947  20306858.600    20306858.7254   20306863.4614
        50.5004         47.7004
 16  6  8  1 17 30.0000000  0  8G19G17G 6G 2G23G 3G22G 9
  -7837222.46044  -6084710.80246  23506076.948    23506075.2104   23506078.0014
        41.5004         38.6004
   1062963.54543    856623.03346  24288707.410    24288707.3984   24288711.7694
        38.3004         36.0004
 -12048462.17947  -9365348.15247  20742443.172    20742443.7294   20742448.6904
        49.6004         46.8004
   -877105.78343   -667996.73046  23858215.213    23858212.8014   23858215.1174
        40.4004         37.8004
 -21621151.25046 -16832429.49247  20740641.612    20740641.2904   20740641.4264
        49.1004         46.3004
 -11178762.33745  -8690972.62146  22266534.163    22266534.7334   22266540.5594
        44.8004         41.9004
    540422.10742    700380.27945  24271001.151    24270996.8644   24270997.0324
        37.1004         35.0004
 -20059480.13047 -15607714.31447  20301490.909    20301490.9664   20301495.6154
        50.5004         47.7004
 16  6  8  1 18  0.0000000  0  8G19G17G 6G 2G23G 3G22G 9
  -7753764.03144  -6019678.30746  23521958.211    23521956.9134   23521959.9614
        40.9004         38.3004
   1159609.82643    931931.79745  24307100.705    24307099.0864   24307103.3864
        38.2004         35.9004
 -12073457.55447  -9384825.06947  20737687.065    20737687.6644   20737692.2664
        49.6004         46.8004
   -970587.76143   -740839.81046  23840425.501    23840424.9084   23840425.9684
        40.4004         37.9004
 -21594423.27846 -16811602.49747  20745728.343    20745727.5134   20745728.1134
        49.1004         46.5004
 -11101489.37345  -8630759.94246  22281240.373    22281239.6464   22281245.8674
        44.6004         41.9004
    631969.09142    771715.57945  24288417.896    24288418.0744   24288418.4084
        37.0004         35.0004
 -20087208.97347 -15629321.19947  20296214.141    20296214.0364   20296219.3054
        50.5004         47.5004
 16  6  8  1 18 30.0000000  0  8G19G17G 6G 2G23G 3G22G 9
  -7669978.25444  -5954390.72246  23537902.579    23537902.0974   23537903.7554
        40.9004         38.5004
   1256370.19043   1007329.46245  24325511.129    24325510.6374   24325515.3984
        37.8004         35.7004
 -12097892.44847  -9403865.24947  20733037.614    20733037.8824   20733042.6834
        49.8004         47.0004
  -1063866.70343   -813524.68546  23822674.316    23822673.7914   23822675.6624
        40.3004         37.8004
 -21567284.42546 -16790455.33647  20750892.129    20750891.6664   20750892.2174
        49.3004         46.5004
 -11023997.63345  -8570376.75947  22295984.782    22295985.5084   22295992.0914
        44.8004         42.1004
    723617.51442    843129.94445  24305857.451    24305857.8424   24305857.7284
        37.0004         34.8004
 -20114459.34347 -15650555.24247  20291028.435    20291028.3164   20291033.4144
        50.3004         47.5004
 16  6  8  1 19  0.0000000  0  8G19G17G 6G 2G23G 3G22G 9
  -7585867.81544  -5888850.17646  23553908.856    23553906.8734   23553910.5374
        41.3004         38.6004
   1353241.36943   1082813.50645  24343945.097    24343945.8534   24343949.0884
        37.8004         35.7004
 -12121765.69947  -9422467.78347  20728494.026    20728494.4884   20728499.4514
        49.6004         46.8004
  -1156940.44943   -886049.64346  23804963.613    23804962.4224   23804964.0334
        40.4004         37.9004
 -21539735.76046 -16768988.84247  20756134.296    20756133.9584   20756134.4814
        49.1004         46.5004
 -10946287.86745  -8509823.71647  22310774.461    22310774.0834   22310780.0164
        44.9004         42.3004
    815366.94142    914623.01245  24323318.960    24323316.8064   24323317.6574
        37.0004         35.0004
 -20141231.25847 -15671416.46147  20285934.124    20285934.2204   20285938.7144
        50.3004         47.7004
 16  6  8  1 19 30.0000000  0  8G19G17G 6G 2G23G 3G22G 9
  -7501436.08544  -5823059.24546  23569974.686    23569973.1104   23569976.5034
        40.9004         38.1004
   1450220.37243   1158381.53845  24362399.713    24362401.2694   24362404.7744
        37.8004         35.7004
 -12145076.04747  -9440631.68947  20724057.565    20724058.2984   20724063.9654
        49.6004         46.6004
  -1249806.71144   -958412.92246  23787291.409    23787290.8104   23787292.5644
        40.8004         38.3004
 -21511778.31046 -16747203.81447  20761453.902    20761454.1344   20761454.6524
        49.1004         46.5004
 -10868360.78945  -8449101.32647  22325601.308    22325602.8494   22325609.4394
        44.9004         42.3004
    907216.46242    986194.02345  24340799.506    24340795.6194   24340799.4424
        37.3004         35.2004
 -20167524.67247 -15691904.82647  20280930.875    20280930.9534   20280935.0274
        50.5004         47.7004
 16  6  8  1 20  0.0000000  0  8G19G17G 6G 2G23G 3G22G 9
  -7416685.87243  -5757020.17846  23586102.991    23586102.5364   23586102.8134
        40.4004         37.8004
   1547304.43243   1234031.45245  24380875.883    24380875.6754   24380878.7984
        38.0004         35.7004
 -12167822.26046  -9458356.01347  20719730.095    20719730.5654   20719735.1074
        49.5004         46.8004
  -1342462.95444  -1030612.56046  23769659.257    23769658.6654   23769660.1774
        40.8004         38.3004
 -21483413.69146 -16725101.51647  20766852.431    20766851.9504   20766852.2294
        49.1004         46.5004
 -10790217.11745  -8388210.16647  22340474.122    22340474.0274   22340479.1814
        45.1004         42.5004
    999165.32642   1057842.49545  24358288.122    24358292.0824   24358294.9944
        37.3004         35.5004
 -20193339.57547 -15712020.32547  20276018.620    20276018.3554   20276022.7674
        50.5004         47.7004
 16  6  8  1 20 30.0000000  0  8G19G17G 6G 2G23G 3G22G 9
  -7331620.45343  -5690735.49446  23602290.626    23602289.5244   23602290.8544
        40.3004         37.9004
   1644490.24343   1309760.63145  24399369.197    24399368.2044   24399371.5324
        37.6004         35.5004
 -12190003.10547  -9475639.79047  20715509.353    20715509.6984   20715514.2074
        49.6004         46.8004
  -1434907.09544  -1102646.91446  23752068.846    23752068.3854   23752068.5554
        40.6004         38.1004
 -21454642.66646 -16702682.54047  20772327.092    20772326.8434   20772327.2084
        49.1004         46.5004
 -10711857.60145  -8327150.82247  22355384.409    22355384.8584   22355389.9474
        45.1004         42.3004
   1091213.11842   1129568.05945  24375810.062    24375809.4104   24375809.1104
        37.1004         35.0004
 -20218676.01447 -15731762.99347  20271196.677    20271196.8354   20271201.7524
        50.5004         47.8004
 16  6  8  1 21  0.0000000  0  8G19G17G 6G 2G23G 3G22G 9
  -7246242.96543  -5624207.63946  23618535.596    23618535.3344   23618538.2214
        40.3004         37.8004
   1741774.64942   1385566.65245  24417880.667    24417881.3874   24417885.3184
        37.1004         35.0004
 -12211617.40947  -9492482.10647  20711395.974    20711396.6584   20711401.3664
        49.6004         46.8004
  -1527136.83143  -1174514.21346  23734518.162    23734516.9324   23734517.1544
        40.3004         37.6004
 -21425466.42246 -16679947.80347  20777879.081    20777878.7074   20777879.3644
        49.1004         46.3004
 -10633282.90045  -8265923.79147  22370337.357    22370337.4874   22370342.5014
        45.1004         42.3004
   1183358.93942   1201369.97145  24393346.746    24393345.0674   24393345.3754
        37.1004         35.3004
 -20243533.98347 -15751132.83047  20266466.570    20266466.4944   20266471.2684
        50.7004         47.8004
 16  6  8  1 21 30.0000000  0  8G19G17G 6G 2G23G 3G22G 9
  -7160556.32743  -5557438.85446  23634842.166    23634840.8104   23634844.1724
        40.1004         37.6004
   1839154.88842   1461447.32745  24436412.997    24436412.9544   24436416.3784
        37.0004         34.8004
 -12232663.98147  -9508882.03047  20707391.352    20707391.6224   20707396.3414
        49.6004         46.8004
  -1619149.66343  -1246212.47846  23717008.626    23717007.9704   23717007.9664
        40.1004         37.4004
 -21395886.23546 -16656898.30847  20783508.279    20783507.7824   20783508.0214
        49.1004         46.3004
 -10554493.82645  -8204529.71347  22385330.252    22385330.3124   22385335.3474
        45.1004         42.5004
   1275602.28642   1273247.88145  24410899.555    24410896.8004   24410897.8174
        37.0004         34.8004
 -20267913.52847 -15770129.87247  20261827.338    20261827.5184   20261832.3884
        50.7004         47.8004
 16  6  8  1 22  0.0000000  0  8G19G17G 6G 2G23G 3G22G 9
  -7074563.48443  -5490431.49446  23651206.549    23651205.8354   23651207.9924
        40.4004         37.9004
   1936627.85842   1537400.24945  24454957.726    24454958.6154   24454964.0534
        36.4004         34.1004
 -12253141.65747  -9524838.66447  20703494.036    20703494.5114   20703499.5504
        49.6004         46.8004
  -1710943.25243  -1317739.91246  23699540.663    23699540.0264   23699540.8274
        40.1004         37.6004
 -21365903.35446 -16633535.03047  20789214.054    20789213.4044   20789213.8244
        49.1004         46.3004
 -10475491.05945  -8142969.10047  22400363.698    22400364.3644   22400369.7064
        45.3004         42.6004
   1367942.42142   1345201.21745  24428470.948    24428469.8914   24428469.9984
        37.0004         35.0004
 -20291814.67247 -15788754.12147  20257279.402    20257279.0844   20257283.8034
        50.7004         47.8004
 16  6  8  1 22 30.0000000  0  8G19G17G 6G 2G23G 3G22G 9
  -6988268.01143  -5423188.32946  23667627.958    23667626.7484   23667628.7824
        40.4004         37.9004
   2034190.18542   1613422.78045  24473524.643    24473525.8244   24473530.8434
        35.9004         34.1004
 -12273049.30847  -9540351.12547  20699705.823    20699706.4274   20699711.0794
        49.6004         46.8004
  -1802515.61243  -1389094.95546  23682115.225    23682114.3534   23682115.0674
        40.3004         37.9004
 -21335519.02346 -16609858.93347  20794995.899    20794995.5344   20794995.5044
        49.1004         46.3004
 -10396275.38345  -8081242.60447  22415439.205    22415438.9834   22415444.1604
        45.3004         42.5004
   1460378.53442   1417229.35145  24446059.565    24446058.4254   24446058.3044
        37.0004         35.0004
 -20315237.51047 -15807005.67247  20252821.681    20252821.8494   20252826.5424
        50.5004         47.8004
 16  6  8  1 23  0.0000000  0  8G19G17G 6G 2G23G 3G22G 9
  -6901673.26044  -5355711.93446  23684106.571    23684105.7184   23684107.6684
        40.8004         38.3004
   2131839.13242   1689512.83445  24492107.921    24492107.9494   24492112.0564
        36.1004         34.5004
 -12292385.81947  -9555418.53547  20696026.464    20696026.9984   20696031.3664
        49.6004         46.8004
  -1893864.20444  -1460275.63046  23664732.139    23664731.4724   23664732.9014
        40.6004         38.3004
 -21304734.49546 -16585870.97747  20800853.966    20800853.4424   20800853.4944
        49.1004         46.1004
 -10316847.51145  -8019350.75847  22430551.806    22430553.1164   22430557.5334
        45.1004         42.1004
   1552909.99542   1489331.74945  24463669.506    24463667.7984   24463666.2794
        36.8004         35.0004
 -20338182.11747 -15824884.59147  20248455.928    20248456.0304   20248460.5374
        50.5004         47.8004
 16  6  8  1 23 30.0000000  0  9G19G17G 6G 2G 7G23G 3G22G 9
  -6814781.95644  -5288004.44346  23700640.303    23700639.7214   23700642.9284
        40.8004         38.3004
   2229571.56742   1765667.92545  24510705.580    24510707.1494   24510709.5564
        36.1004         34.5004
 -12311150.04347  -9570040.01747  20692455.570    20692456.1214   20692461.1164
        49.6004         46.8004
  -1984986.65544  -1531280.09446  23647392.261    23647391.3154   23647391.9774
        40.8004         38.1004
                   -222210.14955  24009923.587                    24009928.3734
                        35.7004
 -21273551.09046 -16561572.20947  20806787.844    20806787.3334   20806787.4484
        48.9004         46.1004
 -10237208.19745  -7957294.17247  22445707.667    22445708.0264   22445713.0624
        44.9004         42.3004
   1645536.21642   1561508.00345  24481296.673    24481294.1504   24481293.3984
        37.0004         35.0004
 -20360648.54647 -15842390.88547  20244180.589    20244180.5194   20244184.9954
        50.7004         47.8004
 16  6  8  1 24  0.0000000  0  9G19G17G 6G 2G 7G23G 3G22G 9
  -6727597.41044  -5220068.48046  23717231.987    23717230.4404   23717232.7284
        40.8004         38.1004
   2327384.47142   1841885.74045  24529319.855    24529319.9594   24529324.3014
        36.4004         34.6004
 -12329340.95247  -9584214.75147  20688993.859    20688994.2334   20688999.3994
        49.6004         46.6004
  -2075880.41444  -1602106.37846  23630094.589    23630094.7534   23630095.7324
        40.6004         38.1004
   -420648.14342   -305147.59345  23989667.919    23989668.8854   23989672.8634
        37.1004         35.7004
 -21241969.66646 -16536963.29047  20812797.733    20812797.3114   20812797.7694
        48.9004         46.3004
 -10157358.17845  -7895073.38147  22460902.175    22460903.1814   22460907.8794
        44.9004         42.1004
   1738256.27342   1633757.38145  24498939.419    24498937.2024   24498938.1924
        36.6004         34.5004
 -20382636.92047 -15859524.66847  20239996.180    20239996.0814   20240000.6104
        50.7004         47.8004
 16  6  8  1 24 30.0000000  0  9G19G17G 6G 2G 7G23G 3G22G 9
  -6640122.93044  -5151906.61346  23733878.288    23733876.7564   23733879.3034
        40.6004         38.1004
   2425274.54342   1918163.70645  24547947.436    24547948.2684   24547950.8554
        36.8004         34.6004
 -12346957.47446  -9597941.92047  20685641.449    20685641.7454   20685646.8884
        49.5004         46.6004
  -2166543.37544  -1672752.79046  23612842.486    23612841.6484   23612842.5214
        40.8004         38.3004
   -527000.05742   -388019.14045  23969429.529    23969431.4164   23969434.2824
        37.5004         35.3004
 -21209991.59646 -16512045.30747  20818883.051    20818882.4824   20818882.9754
        48.9004         46.3004
 -10077298.13545  -7832688.95046  22476137.145    22476137.2104   22476142.9824
        44.8004         41.9004
   1831069.62642   1706079.50445  24516598.819    24516599.5644   24516599.8004
        36.4004         34.6004
 -20404147.37847 -15876286.04647  20235902.632    20235902.9964   20235907.3214
        50.7004         47.8004
 16  6  8  1 25  0.0000000  0  9G19G17G 6G 2G 7G23G 3G22G 9
  -6552361.25444  -5083520.93646  23750577.295    23750576.6644   23750580.5134
        40.6004         38.1004
   2523239.20342   1994499.76845  24566590.990    24566588.7754   24566591.5634
        37.0004         35.0004
 -12363998.52346  -9611220.66847  20682399.091    20682399.3094   20682404.3804
        49.5004         46.6004
  -2256973.27944  -1743217.60846  23595633.984    23595632.9084   23595634.3364
        40.8004         38.1004
   -633264.69952   -470822.72555  23949207.259    23949209.2934   23949212.0434
        37.5004         35.2004
 -21177618.46946 -16486819.49747  20825043.048    20825042.6444   20825043.3334
        48.9004         46.1004
  -9997028.87545  -7770141.46746  22491411.297    22491412.0444   22491418.0844
        44.8004         41.9004
   1923975.97942   1778474.03645  24534280.013    24534278.9434   24534279.8214
        36.8004         34.8004
 -20425179.99747 -15892675.08747  20231900.282    20231900.3234   20231904.9254
        50.7004         47.8004
 16  6  8  1 25 30.0000000  0  9G19G17G 6G 2G 7G23G 3G22G 9
  -6464315.70044  -5014914.05946  23767333.417    23767332.8974   23767334.7634
        40.6004         38.1004
   2621275.30442   2070891.54845  24585245.354    24585245.3314   24585248.6534
        37.1004         35.3004
 -12380463.12846  -9624050.23247  20679265.347    20679265.8234   20679271.3074
        49.5004         46.6004
  -2347167.64244  -1813498.90846  23578471.563    23578469.9824   23578471.1874
        40.8004         38.1004
   -739440.03242   -553556.67145  23929005.689    23929005.0254   23929008.1554
        37.3004         35.2004
 -21144851.31146 -16461286.64847  20831278.310    20831278.1304   20831278.4084
        48.9004         46.1004
  -9916551.06145  -7707431.49646  22506726.043    22506726.6044   22506731.3314
        44.8004         41.8004
   2016973.99542   1850940.02545  24551976.339    24551974.7684   24551976.4404
        36.4004         34.6004
 -20445734.93847 -15908691.90847  20227988.860    20227988.8124   20227993.3874
        50.7004         47.7004
 16  6  8  1 26  0.0000000  0  9G19G17G 6G 2G 7G23G 3G22G 9
  -6375989.53444  -4946088.52946  23784141.565    23784139.9894   23784142.0494
        40.8004         38.1004
   2719379.66042   2147336.49445  24603912.834    24603912.5904   24603917.3654
        37.0004         35.0004
 -12396350.26546  -9636429.82447  20676242.127    20676242.5034   20676248.4604
        49.5004         46.6004
  -2437124.48844  -1883595.12546  23561352.782    23561351.9834   23561352.5464
        40.6004         38.1004
   -845522.76342   -636218.49145  23908819.996    23908817.7874   23908820.1404
        37.5004         35.3004
 -21111691.38646 -16435447.73847  20837588.806    20837588.2614   20837588.5714
        48.9004         46.1004
  -9835865.48845  -7644559.60246  22522079.414    22522079.7264   22522085.7504
        44.4004         41.6004
   2110062.99942   1923476.87145  24569691.363    24569687.5844   24569690.8564
        36.4004         34.6004
 -20465812.38347 -15924336.66047  20224167.948    20224168.2824   20224172.8364
        50.5004         47.7004
 16  6  8  1 26 30.0000000  0  9G19G17G 6G 2G 7G23G 3G22G 9
  -6287385.70944  -4877046.60546  23801002.309    23801000.6184   23801002.7734
        40.8004         38.3004
   2817549.50942   2223832.48445  24622594.201    24622597.0394   24622596.7224
        37.0004         34.8004
 -12411658.94346  -9648358.67247  20673329.066    20673329.4324   20673334.9564
        49.5004         46.6004
  -2526841.14344  -1953504.18246  23544280.139    23544279.8774   23544280.3144
        40.9004         38.5004
   -951510.31142   -718806.11145  23888649.910    23888649.5804   23888651.9364
        37.3004         35.3004
 -21078140.00346 -16409303.80147  20843972.818    20843972.5554   20843973.4704
        48.9004         45.9004
  -9754972.87745  -7581526.41446  22537473.474    22537473.5494   22537479.5544
        44.4004         41.8004
   2203242.92942   1996084.59145  24587420.930    24587420.8614   24587421.5004
        36.4004         34.5004
 -20485412.46347 -15939609.43747  20220438.788    20220438.4844   20220443.1354
        50.5004         47.8004
 16  6  8  1 27  0.0000000  0  9G19G17G 6G 2G 7G23G 3G22G 9
  -6198507.53144  -4807790.92146  23817916.391    23817915.0304   23817916.1404
        40.9004         38.5004
   2915781.61542   2300376.95745  24641285.585    24641286.0064   24641290.3054
        36.6004         34.6004
 -12426388.21846  -9659836.02947  20670526.159    20670526.7094   20670532.2774
        49.5004         46.6004
  -2616315.38044  -2023224.31946  23527253.891    23527252.5214   23527254.0644
        40.9004         38.5004
  -1057400.28143   -801317.71845  23868499.807    23868498.9924   23868502.4304
        37.6004         35.5004
 -21044198.50846 -16382855.87447  20850431.687    20850431.3404   20850432.0024
        48.8004         45.9004
  -9673873.96345  -7518332.45346  22552905.674    22552906.5944   22552912.0044
        44.4004         41.6004
   2296512.50542   2068762.17345  24605170.210    24605169.2164   24605171.2504
        36.3004         34.3004
 -20504535.39447 -15954510.41247  20216799.240    20216799.5014   20216803.9794
        50.7004         47.8004
 16  6  8  1 27 30.0000000  0  9G19G17G 6G 2G 7G23G 3G22G 9
  -6109358.13244  -4738323.88846  23834879.556    23834877.7954   23834881.8074
        41.1004         38.6004
   3014073.02342   2376967.62545  24659990.535    24659990.5334   24659994.2574
        36.1004         34.1004
 -12440537.14946  -9670861.16747  20667833.469    20667834.0384   20667839.5344
        49.5004         46.6004
  -2705544.58844  -2092753.52846  23510274.292    23510273.6204   23510274.9634
        40.8004         38.6004
  -1163189.73643   -883750.99345  23848366.417    23848367.3564   23848371.0374
        37.8004         35.9004
 -21009867.91346 -16356104.75647  20856964.737    20856964.4174   20856964.9044
        48.8004         45.9004
  -9592569.53245  -7454978.36746  22568377.995    22568378.2944   22568383.7464
        44.2004         41.6004
   2389871.22242   2141509.15445  24622938.237    24622935.7374   24622936.7454
        36.3004         34.5004
 -20523181.37247 -15969039.72947  20213251.480    20213251.2744   20213255.7494
        50.7004         47.8004
 16  6  8  1 28  0.0000000  0  9G19G17G 6G 2G 7G23G 3G22G 9
  -6019940.58544  -4668647.88046  23851895.428    23851893.7984   23851897.2064
        41.3004         38.6004
   3112420.70742   2453602.17545  24678707.141    24678706.9344   24678710.2204
        36.1004         34.1004
 -12454104.79047  -9681433.36447  20665252.137    20665252.5664   20665257.8114
        49.6004         47.0004
  -2794526.40544  -2162089.94946  23493340.852    23493340.1904   23493340.6064
        40.8004         38.1004
  -1268876.47743   -966104.23946  23828257.899    23828256.7624   23828259.5964
        38.0004         36.0004
 -20975149.67246 -16329051.57147  20863571.908    20863571.0514   20863571.9524
        48.8004         45.9004
  -9511060.29245  -7391464.67646  22583887.603    22583888.9134   22583894.2874
        44.2004         41.4004
   2483318.28542   2214325.05745  24640716.682    24640717.2174   24640718.3104
        35.9004         34.3004
 -20541350.58647 -15983197.55447  20209793.248    20209793.4804   20209798.5524
        50.7004         47.8004
 16  6  8  1 28 30.0000000  0  9G19G17G 6G 2G 7G23G 3G22G 9
  -5930258.31944  -4598765.64646  23868960.794    23868959.6684   23868962.5074
        41.1004         38.5004
   3210821.18742   2530277.87145  24697432.312    24697430.4144   24697434.4454
        36.1004         34.3004
 -12467090.26747  -9691551.92147  20662781.162    20662781.6114   20662786.8854
        49.6004         47.0004
  -2883258.79744  -2231232.03146  23476455.894    23476454.7014   23476456.2614
        40.6004         37.9004
  -1374457.83443  -1048375.34746  23808166.137    23808164.4074   23808168.5234
        38.3004         36.2004
 -20940044.89846 -16301697.19947  20870251.440    20870251.4874   20870251.6044
        48.8004         45.8004
  -9429346.97245  -7327791.96546  22599438.781    22599438.9654   22599443.8904
        44.1004         41.4004
   2576852.98542   2287209.22545  24658516.847    24658515.7824   24658516.6534
        36.3004         34.3004
 -20559043.22347 -15996984.01447  20206426.642    20206426.7954   20206431.6674
        50.5004         47.8004
 16  6  8  1 29  0.0000000  0  9G19G17G 6G 2G 7G23G 3G22G 9
  -5840315.31344  -4528680.23346  23886077.537    23886075.4594   23886077.4494
        40.9004         38.3004
   3309272.01342   2606992.80845  24716166.672    24716165.1524   24716172.3424
        36.3004         34.5004
 -12479492.69147  -9701216.14847  20660420.870    20660421.5954   20660426.4344
        49.6004         46.8004
  -2971739.42044  -2300177.97946  23459618.993    23459618.4134   23459618.6074
        40.6004         37.9004
  -1479930.97443  -1130562.15146  23788094.289    23788095.6484   23788097.9394
        38.5004         36.4004
 -20904555.17746 -16274042.86147  20877005.101    20877004.5954   20877005.1574
        48.8004         45.9004
  -9347430.39245  -7263960.86846  22615026.535    22615026.8194   22615032.9224
        44.2004         41.4004
   2670474.73042   2360161.19745  24676337.087    24676333.1524   24676334.1594
        36.3004         34.3004
 -20576259.56847 -16010399.34347  20203150.858    20203150.7134   20203155.2044
        50.5004         47.7004
 16  6  8  1 29 30.0000000  0  9G19G17G 6G 2G 7G23G 3G22G 9
  -5750113.55144  -4458393.14746  23903241.098    23903241.0464   23903243.4654
        40.9004         38.5004
   3407770.08242   2683744.52645  24734908.937    24734910.0484   24734913.1364
        36.6004         34.6004
 -12491311.21947  -9710425.39747  20658172.378    20658172.7254   20658177.7764
        49.6004         46.8004
  -3059965.94543  -2368925.90746  23442828.989    23442828.5564   23442830.1284
        40.4004         38.1004
  -1585293.48643  -1212662.73846  23768044.963    23768044.9794   23768048.2364
        38.7004         36.4004
 -20868681.63846 -16246089.44747  20883831.516    20883831.3274   20883831.8784
        48.8004         45.9004
  -9265311.18745  -7199971.90046  22630654.629    22630654.2334   22630658.5614
        44.2004         41.4004
   2764182.68942   2433180.35345  24694169.670    24694163.4764   24694163.8594
        35.7004         34.0004
 -20592999.85647 -16023443.71347  20199965.419    20199965.3744   20199969.5084
        50.5004         47.7004
 16  6  8  1 30  0.0000000  0  9G19G17G 6G 2G 7G23G 3G22G 9
  -5659655.82044  -4387906.62646  23920455.702    23920454.4454   23920455.9854
        40.9004         38.3004
   3506312.53542   2760530.81045  24753664.666    24753662.2534   24753664.0984
        36.1004         34.1004
 -12502544.97947  -9719178.98347  20656034.525    20656035.0174   20656039.5674
        49.8004         46.8004
  -3147935.74343  -2437473.78546  23426088.813    23426088.0844   23426090.2534
        40.4004         37.9004
  -1690542.35343  -1294674.78846  23748016.745    23748016.8564   23748019.4174
        38.7004         36.6004
 -20832425.53446 -16217837.94447  20890730.562    20890730.4244   20890730.8864
        48.8004         45.9004
  -9182990.22445  -7135825.68346  22646318.109    22646319.0814   22646323.7844
        44.1004         41.2004
   2857976.58742   2506266.53245  24712008.970    24712010.3254   24712016.3154
        35.7004         34.1004
 -20609264.31347 -16036117.31347  20196870.322    20196870.2854   20196874.5014
        50.7004         47.8004
 16  6  8  1 30 30.0000000  0  9G19G17G 6G 2G 7G23G 3G22G 9
  -5568945.92343  -4317223.62346  23937716.637    23937715.3544   23937718.6264
        40.4004         37.8004
   3604896.38642   2837349.36445  24772422.281    24772422.4254   24772425.5384
        36.1004         34.5004
 -12513193.18647  -9727476.28647  20654008.317    20654008.7204   20654013.5934
        49.8004         47.0004
  -3235646.55343  -2505819.88646  23409398.160    23409397.5424   23409398.7954
        40.3004         37.9004
  -1795674.97843  -1376596.22146  23728010.597    23728011.1314   23728013.5744
        38.7004         36.6004
 -20795788.33646 -16189289.47347  20897702.906    20897702.5134   20897703.0234
        48.8004         45.9004
  -9100468.14945  -7071522.77146  22662021.842    22662022.6294   22662026.7434
        43.9004         41.1004
   2951855.59152   2579419.00855  24729874.858    24729876.1344   24729879.5334
        35.4004         33.6004
 -20625053.22647 -16048420.34847  20193865.557    20193865.6714   20193870.2384
        50.7004         47.8004
 16  6  8  1 31  0.0000000  0  9G19G17G 6G 2G 7G23G 3G22G 9
  -5477986.86243  -4246346.46146  23955025.391    23955024.5034   23955027.8414
        40.4004         38.1004
   3703518.57542   2914197.83945  24791188.904    24791187.6544   24791194.8404
        36.6004         34.6004
 -12523255.00647  -9735316.66247  20652093.664    20652093.9564   20652098.8394
        49.8004         46.8004
  -3323095.87043  -2573962.20946  23392757.014    23392756.5534   23392757.9184
        40.3004         37.9004
  -1900688.65843  -1458424.97546  23708026.243    23708026.0404   23708030.2014
        38.7004         36.2004
 -20758771.35246 -16160445.07147  20904747.154    20904746.5734   20904746.8454
        48.8004         45.9004
  -9017745.78645  -7007063.79846  22677764.056    22677764.2854   22677769.2154
        43.9004         41.1004
   3045818.59242   2652636.84245  24747761.902    24747756.7524   24747761.6134
        35.6004         34.1004
 -20640366.89247 -16060353.07448  20190951.652    20190951.6804   20190956.1184
        50.7004         48.0004
 16  6  8  1 31 30.0000000  0  9G19G17G 6G 2G 7G23G 3G22G 9
  -5386782.57044  -4175278.20146  23972382.049    23972380.9254   23972383.9324
        40.6004         38.1004
   3802176.00742   2991073.74545  24809962.612    24809962.6754   24809966.8424
        36.8004         34.8004
 -12532729.70747  -9742699.54947  20650290.485    20650290.7894   20650295.9404
        49.6004         46.8004
  -3410281.85043  -2641899.33846  23376167.019    23376165.8004   23376166.1114
        40.4004         38.3004
  -2005581.12643  -1540159.29946  23688064.223    23688066.1184   23688069.6054
        38.5004         36.4004
 -20721375.32246 -16131305.30747  20911863.390    20911862.9434   20911863.0064
        48.8004         45.8004
  -8934823.88845  -6942449.35146  22693542.753    22693543.2594   22693548.1444
        43.7004         40.9004
   3139864.73642   2725919.50145  24765657.035    24765657.2664   24765657.2634
        36.4004         34.8004
 -20655205.57147 -16071915.66948  20188127.699    20188127.9324   20188132.4784
        50.8004         48.0004
 16  6  8  1 32  0.0000000  0  9G19G17G 6G 2G 7G23G 3G22G 9
  -5295335.70443  -4104020.93346  23989782.854    23989780.8984   23989784.2684
        40.4004         37.8004
   3900865.66042   3067974.74045  24828743.828    24828744.0764   24828743.4184
        35.9004         34.0004
 -12541616.52547  -9749624.34547  20648599.066    20648599.5644   20648604.8804
        49.6004         46.8004
  -3497201.60444  -2709629.02146  23359625.880    23359625.8064   23359626.7674
        40.8004         38.5004
  -2110349.62843  -1621797.02046  23668124.603    23668128.4994   23668132.9794
        38.5004         36.2004
 -20683601.98946 -16101871.53347  20919051.481    20919050.9954   20919051.1144
        48.8004         45.8004
  -8851703.16245  -6877679.97746  22709361.188    22709360.9744   22709365.5094
        43.7004         40.9004
   3233993.75342   2799266.84845  24783572.447    24783568.0584   24783571.4174
        36.1004         34.5004
 -20669569.63447 -16083108.43948  20185394.005    20185394.2004   20185398.9854
        50.8004         48.0004
 16  6  8  1 32 30.0000000  0  9G19G17G 6G 2G 7G23G 3G22G 9
  -5203649.34743  -4032577.02146  24007230.342    24007228.9884   24007231.3084
        40.3004         37.8004
   3999584.79742   3144898.70645  24847527.805    24847527.8424   24847531.8714
        35.6004         33.8004
 -12549914.72947  -9756090.47647  20647019.732    20647020.2394   20647025.8824
        49.6004         46.8004
  -3583852.86744  -2777149.48346  23343137.106    23343136.4864   23343137.7044
        41.5004         39.2004
  -2214991.53443  -1703336.10846  23648213.493    23648215.7844   23648219.5984
        38.7004         36.6004
 -20645453.03046 -16072145.06647  20926310.942    20926310.3444   20926310.6214
        48.6004         45.8004
  -8768384.38945  -6812756.26946  22725215.257    22725215.9504   22725220.5604
        43.7004         41.1004
   3328204.82142   2872677.99045  24801495.807    24801495.4784   24801495.9834
        35.6004         33.6004
 -20683459.36547 -16093931.59948  20182751.409    20182751.2774   20182756.0454
        50.8004         48.2004
 16  6  8  1 33  0.0000000  0  9G19G17G 6G 2G 7G23G 3G22G 9
  -5111726.82843  -3960949.08346  24024723.259    24024721.4814   24024723.4574
        40.4004         37.9004
   4098330.08442   3221843.07445  24866320.577    24866321.0074   24866323.5204
        35.7004         34.1004
 -12557623.58747  -9762097.38547  20645552.791    20645553.2884   20645559.0684
        49.6004         47.0004
  -3670233.31844  -2844458.92846  23326698.410    23326698.5774   23326700.1724
        42.0004         39.7004
  -2319504.12943  -1784774.41446  23628327.746    23628328.5494   23628332.2044
        39.0004         36.9004
 -20606929.55846 -16042126.77747  20933641.499    20933640.8834   20933641.4244
        48.6004         45.6004
  -8684868.29245  -6747678.80746  22741108.362    22741108.6724   22741113.3114
        43.7004         40.9004
   3422497.20942   2946152.58745  24819436.150    24819436.1124   24819439.4114
        35.2004         33.8004
 -20696875.09247 -16104385.40148  20180198.329    20180198.3824   20180203.3714
        50.8004         48.2004
 16  6  8  1 33 30.0000000  0  9G19G17G 6G 2G 7G23G 3G22G 9
  -5019571.34343  -3889139.62846  24042259.419    24042259.0014   24042259.3994
        40.3004         37.6004
   4197098.82742   3298805.73845  24885115.420    24885115.8894   24885117.5504
        35.9004         34.1004
 -12564742.44747  -9767644.54247  20644198.054    20644198.5144   20644204.6364
        49.6004         47.0004
  -3756340.73844  -2911555.61446  23310313.765    23310313.2034   23310314.7584
        42.7004         40.4004
  -2423884.64643  -1866109.79646  23608465.503    23608464.9834   23608469.3454
        39.2004         36.9004
 -20568032.67646 -16011817.51747  20941042.952    20941042.8324   20941042.9164
        48.4004         45.6004
  -8601155.69745  -6682448.21846  22757036.936    22757038.2774   22757042.3234
        43.6004         40.7004
   3516870.53642   3019690.21145  24837396.308    24837394.4084   24837399.8404
        34.9004         33.6004
 -20709817.18247 -16114470.14148  20177735.509    20177735.5824   20177740.5094
        50.8004         48.0004
 16  6  8  1 34  0.0000000  0  9G19G17G 6G 2G 7G23G 3G22G 9
  -4927185.91843  -3817150.99646  24059839.275    24059838.0424   24059842.0764
        40.3004         37.8004
   4295888.20542   3375784.45445  24903913.478    24903915.0524   24903917.1004
        35.2004         33.4004
 -12571270.61147  -9772731.43147  20642956.130    20642956.4664   20642962.1404
        49.8004         47.0004
  -3842172.67444  -2978437.62546  23293980.535    23293979.8184   23293980.8394
        43.2004         40.7004
  -2528130.79643  -1947340.50546  23588627.772    23588627.3964   23588632.5404
        39.6004         37.3004
 -20528764.04046 -15981218.58447  20948515.994    20948515.5564   20948515.3674
        48.4004         45.4004
  -8517247.27844  -6617065.06946  22773005.437    22773004.7814   22773011.1394
        43.2004         40.6004
   3611323.57542   3093289.96545  24855364.415    24855368.9664   24855373.5754
        34.5004         32.9004
 -20722285.93647 -16124186.04948  20175362.705    20175362.7414   20175367.8324
        50.8004         48.2004
 16  6  8  1 34 30.0000000  0  9G19G17G 6G 2G 7G23G 3G22G 9
  -4834573.68943  -3744985.63946  24077463.562    24077462.6324   24077464.9354
        40.4004         37.9004
   4394695.10942   3452776.78745  24922715.637    24922715.1984   24922715.1434
        34.5004         33.1004
 -12577207.45747  -9777357.54947  20641826.097    20641826.5214   20641832.2934
        49.6004         47.0004
  -3927726.50145  -3045102.93046  23277699.720    23277699.2594   23277700.4194
        43.7004         41.1004
  -2632239.53443  -2028464.12446  23568816.751    23568816.2934   23568820.0794
        39.7004         37.3004
 -20489124.73546 -15950330.81047  20956059.130    20956058.5854   20956058.5604
        48.4004         45.6004
  -8433143.86444  -6551529.95746  22789009.304    22789009.8264   22789015.1954
        43.2004         40.4004
   3705855.92251   3166951.54055  24873361.287    24873357.1904   24873361.4504
        34.2004         32.9004
 -20734281.81947 -16133533.48348  20173080.063    20173080.2334   20173084.9834
        50.8004         48.0004
 16  6  8  1 35  0.0000000  0  9G19G17G 6G 2G 7G23G 3G22G 9
  -4741737.96043  -3672646.15646  24095129.280    24095128.7394   24095129.1264
        40.1004         37.3004
   4493516.63942   3529780.48745  24941520.977    24941521.6624   24941525.8514
        34.9004         33.8004
 -12582552.34247  -9781522.39947  20640809.516    20640810.1274   20640815.1664
        49.8004         47.0004
  -4013000.19145  -3111549.94546  23261473.047    23261472.5244   23261473.3474
        43.9004         41.4004
  -2736208.39843  -2109478.74746  23549033.715    23549032.5034   23549036.0204
        39.9004         37.6004
 -20449116.28646 -15919155.40147  20963671.827    20963671.4954   20963672.0644
        48.2004         45.4004
  -8348846.18844  -6485843.49346  22805050.077    22805050.7424   22805056.5164
        43.0004         40.4004
   3800466.90241   3240674.35445  24891370.672    24891365.4074   24891362.7084
        34.3004         33.1004
 -20745805.12547 -16142512.68148  20170887.409    20170887.1254   20170892.0524
        50.8004         48.0004
 16  6  8  1 35 30.0000000  0  9G19G17G 6G 2G 7G23G 3G22G 9
  -4648682.21643  -3600135.24146  24112835.916    24112835.0234   24112838.7474
        39.6004         37.3004
   4592349.54742   3606793.14545  24960325.377    24960324.6204   24960335.1134
        34.7004         32.9004
 -12587304.68547  -9785225.52447  20639904.762    20639905.4984   20639910.8974
        50.0004         47.2004
  -4097991.41645  -3177776.86546  23245300.429    23245299.2204   23245299.9894
        44.1004         41.4004
  -2840034.77143  -2190382.34046  23529275.861    23529274.7604   23529278.5754
        40.1004         37.6004
 -20408739.88346 -15887693.26747  20971354.892    20971354.3484   20971355.5294
        48.2004         45.2004
  -8264354.98344  -6420006.21346  22821130.183    22821129.9444   22821134.6214
        43.2004         40.6004
   3895155.46041   3314457.64045  24909378.921    24909381.6634   24909380.7704
        34.3004         33.1004
 -20756856.28147 -16151123.97248  20168784.246    20168784.3164   20168788.8974
        50.8004         48.0004
 16  6  8  1 36  0.0000000  0  9G19G17G 6G 2G 7G23G 3G22G 9
  -4555409.44743  -3527455.17946  24130585.299    24130585.3124   24130586.5454
        39.7004         37.3004
   4691191.23541   3683812.66645  24979135.698    24979135.0204   24979138.7774
        34.0004         32.7004
 -12591463.90047  -9788466.46347  20639113.385    20639113.7194   20639119.0244
        50.0004         47.2004
  -4182697.44645  -3243781.54946  23229181.542    23229180.4304   23229181.1494
        44.2004         41.4004
  -2943715.92343  -2271172.78046  23509545.258    23509545.4184   23509549.6134
        40.4004         37.9004
 -20367996.86246 -15855945.45647  20979108.429    20979108.2704   20979108.4654
        48.2004         45.4004
  -8179671.05144  -6354018.75246  22837243.112    22837244.0514   22837250.9154
        43.2004         40.6004
   3989921.43942   3388301.22045  24927415.098    24927413.6974   24927416.9474
        34.5004         33.3004
 -20767435.69347 -16159367.66648  20166771.169    20166771.1754   20166775.7184
        50.8004         48.0004
 16  6  8  1 36 30.0000000  0  9G19G17G 6G 2G 7G23G 3G22G 9
  -4461922.88643  -3454608.55746  24148376.068    24148374.1094   24148376.6324
        39.4004         36.9004
   4790038.82941   3760836.75445  24997948.849    24997951.9214   24997953.7394
        33.5004         32.2004
 -12595029.46047  -9791244.81947  20638435.349    20638435.8914   20638440.8294
        50.0004         47.3004
  -4267116.30845  -3309562.45946  23213116.268    23213115.8734   23213116.5324
        44.2004         41.4004
  -3047249.31644  -2351848.09646  23489842.538    23489842.6654   23489846.5924
        40.6004         38.1004
 -20326888.60546 -15823913.04547  20986931.479    20986931.1634   20986931.1214
        48.2004         45.6004
  -8094795.17344  -6287881.73046  22853395.627    22853396.0944   22853400.8924
        43.2004         40.6004
   4084763.81841   3462204.37045  24945463.728    24945463.9824   24945464.6204
        34.3004         33.3004
 -20777543.81347 -16167244.11648  20164847.811    20164847.8214   20164852.3574
        50.8004         48.0004
 16  6  8  1 37  0.0000000  0  9G19G17G 6G 2G 7G23G 3G22G 9
  -4368225.57643  -3381597.68246  24166207.661    24166206.4724   24166206.7234
        39.4004         37.3004
   4888889.49141   3837863.18245  25016757.686    25016759.7604   25016755.8744
        33.3004         32.2004
 -12598000.78247  -9793560.13447  20637869.805    20637870.2684   20637875.3024
        50.2004         47.2004
  -4351245.38745  -3375117.56846  23197107.703    23197107.0324   23197107.8804
        44.2004         41.6004
  -3150632.13544  -2432406.09546  23470169.995    23470170.2804   23470173.3404
        40.8004         38.3004
 -20285416.51046 -15791597.12647  20994823.056    20994823.0464   20994823.3984
        48.4004         45.6004
  -8009728.05644  -6221595.68846  22869583.973    22869584.7904   22869588.5394
        43.2004         40.6004
   4179681.54742   3536166.18945  24963529.069    24963524.8994   24963527.6764
        35.2004         34.0004
 -20787181.04047 -16174753.64548  20163013.596    20163013.6364   20163018.2224
        50.8004         48.0004
 16  6  8  1 37 30.0000000  0  9G19G17G 6G 2G 7G23G 3G22G 9
  -4274320.49443  -3308424.93046  24184075.878    24184074.9564   24184076.5864
        39.2004         36.7004
   4987739.93441   3914889.52545  25035570.180    25035568.8514   25035572.4754
        33.1004         32.0004
 -12600377.40247  -9795412.03847  20637417.539    20637418.0324   20637423.1284
        50.0004         47.2004
  -4435082.43445  -3440445.12446  23181153.413    23181153.0744   23181153.5274
        44.4004         41.8004
  -3253861.82244  -2512844.75846  23450526.877    23450526.6534   23450529.9274
        41.1004         38.6004
 -20243582.10446 -15758998.89147  21002784.787    21002784.4934   21002784.0324
        48.4004         45.8004
  -7924470.51244  -6155161.26146  22885807.583    22885808.5424   22885812.3584
        43.2004         40.6004
   4274674.01342   3610186.22645  24981601.719    24981604.4074   24981603.9734
        35.2004         33.8004
 -20796347.78447 -16181896.55448  20161269.423    20161269.5214   20161273.9854
        50.8004         48.2004
 16  6  8  1 38  0.0000000  0  9G19G17G 6G 2G 7G23G 3G22G 9
  -4180211.18943  -3235093.05646  24201984.157    24201981.9964   24201985.5644
        38.9004         36.4004
   5086587.43241   3991913.57945  25054378.897    25054374.3904   25054386.9674
        33.5004         32.6004
 -12602158.79247  -9796800.13147  20637078.352    20637078.9114   20637084.0354
        50.0004         47.2004
  -4518625.11145  -3505543.29546  23165255.461    23165255.4064   23165256.8914
        44.4004         41.8004
  -3356935.73944  -2593162.03746  23430911.150    23430911.8954   23430915.3434
        41.1004         38.5004
 -20201386.57646 -15726119.26147  21010813.925    21010813.6044   21010813.9104
        48.6004         45.8004
  -7839023.29044  -6088579.03446  22902066.875    22902067.3884   22902072.0374
        43.2004         40.6004
   4369740.60242   3684264.12145  24999692.466    24999692.6724   24999694.5124
        35.9004         34.5004
 -20805044.54047 -16188673.24548  20159614.207    20159614.4654   20159619.2504
        50.8004         48.2004
 16  6  8  1 38 30.0000000  0  9G19G17G 6G 2G 7G23G 3G22G 9
  -4085900.84743  -3161604.50746  24219931.506    24219930.3184   24219932.4604
        38.7004         36.4004
   5185429.08141   4068932.96645  25073188.476    25073191.3144   25073190.5244
        33.3004         32.2004
 -12603344.51047  -9797724.06647  20636852.574    20636853.3104   20636858.2954
        49.8004         47.0004
  -4601870.98845  -3570410.20346  23149415.236    23149414.2294   23149415.0984
        44.4004         41.8004
  -3459851.43644  -2673356.01546  23411325.917    23411327.2344   23411330.9324
        41.1004         38.6004
 -20158831.47946 -15692959.44547  21018911.890    21018911.4414   21018911.7954
        48.4004         45.6004
  -7753387.15744  -6021849.60446  22918364.025    22918364.6644   22918368.2694
        43.2004         40.4004
   4464880.80542   3758399.28245  25017797.613    25017797.3624   25017798.5044
        36.3004         34.6004
 -20813271.75747 -16195084.05948  20158049.103    20158049.1614   20158053.7244
        51.0004         48.2004
 16  6  8  1 39  0.0000000  0  9G19G17G 6G 2G 7G23G 3G22G 9
  -3991392.75843  -3087961.91946  24237914.399    24237913.0234   24237916.0834
        38.5004         36.0004
   5284261.98141   4145945.51045  25091998.142    25091993.8184   25091999.6554
        33.3004         32.4004
 -12603934.09047  -9798183.48447  20636740.481    20636740.7464   20636746.0024
        49.8004         46.8004
  -4684817.45045  -3635043.79746  23133630.699    23133630.0424   23133630.9144
        44.4004         41.6004
  -3562606.27744  -2753424.66246  23391772.503    23391773.9714   23391776.9104
        40.9004         38.5004
 -20115917.65746 -15659520.10047  21027077.698    21027077.5004   21027078.2104
        48.4004         45.6004
  -7667562.92044  -5954973.60346  22934694.563    22934695.1844   22934700.2354
        43.2004         40.4004
   4560093.78542   3832591.21645  25035917.665    25035915.1274   25035917.4804
        35.9004         34.1004
 -20821029.93647 -16201129.39048  20156572.680    20156572.5574   20156577.3034
        51.0004         48.2004
 16  6  8  1 39 30.0000000  0  8G19G 6G 2G 7G23G 3G22G 9
  -3896689.74043  -3014167.40146  24255936.031    24255934.7884   24255937.2364
        38.2004         36.0004
 -12603927.12947  -9798178.06547  20636742.096    20636742.5554   20636747.3434
        49.8004         47.0004
  -4767462.39945  -3699442.45346  23117904.173    23117902.9124   23117903.5984
        44.2004         41.4004
  -3665197.14044  -2833365.53346  23372250.485    23372250.9764   23372253.7394
        40.9004         38.3004
 -20072646.84946 -15625802.58647  21035311.940    21035311.5894   21035312.1194
        48.4004         45.4004
  -7581551.30044  -5887951.58946  22951062.256    22951063.1364   22951067.3444
        43.0004         40.4004
   4655378.86142   3906839.33545  25054050.235    25054048.1534   25054049.7304
        35.7004         34.1004
 -20828319.54647 -16206809.60448  20155185.417    20155185.4424   20155190.0564
        51.0004         48.2004
 16  6  8  1 40  0.0000000  0  8G19G 6G 2G 7G23G 3G22G 9
  -3801794.83343  -2940223.37245  24273993.406    24273994.0864   24273995.7824
        38.2004         35.9004
 -12603323.24347  -9797707.50447  20636856.774    20636857.1694   20636862.5024
        49.6004         47.0004
  -4849803.57145  -3763604.39146  23102234.520    23102233.9634   23102235.2454
        43.9004         41.1004
  -3767621.65644  -2913176.76546  23352759.699    23352760.4674   23352764.0264
        40.9004         38.5004
 -20029020.40146 -15591807.95447  21043613.690    21043613.2794   21043614.0014
        48.4004         45.6004
  -7495353.10944  -5820784.18046  22967464.730    22967464.3664   22967470.1074
        42.9004         39.9004
   4750735.46542   3981143.17645  25072192.006    25072194.0044   25072197.2834
        35.9004         34.5004
 -20835141.09347 -16212125.08948  20153887.424    20153887.2714   20153891.8014
        50.8004         48.2004
 16  6  8  1 40 30.0000000  0  7G19G 6G 2G 7G23G 3G 9
  -3706711.59543  -2866132.55045  24292088.775    24292087.7834   24292089.5114
        38.2004         35.9004
 -12602122.03247  -9796771.50147  20637085.693    20637085.8554   20637091.2674
        49.8004         47.0004
  -4931838.35245  -3827527.58046  23086623.919    23086622.4314   23086624.5364
        43.6004         40.4004
  -3869877.43444  -2992856.53746  23333300.846    23333301.3454   23333305.1724
        40.8004         38.3004
 -19985039.89046 -15557537.42847  21051983.072    21051982.7994   21051983.3354
        48.4004         45.4004
  -7408969.08344  -5753471.98046  22983903.141    22983904.3494   22983908.8114
        42.7004         40.0004
 -20841495.09147 -16217076.25448  20152677.903    20152678.2604   20152682.7794
        50.8004         48.2004
 16  6  8  1 41  0.0000000  0  7G19G 6G 2G 7G23G 3G 9
  -3611443.76443  -2791897.92545  24310216.756    24310215.6854   24310217.8004
        38.0004         35.9004
 -12600323.15747  -9795369.78447  20637427.271    20637427.6004   20637433.2574
        49.6004         46.6004
  -5013564.42144  -3891210.20946  23071071.992    23071071.5914   23071071.8464
        43.2004         40.6004
  -3971961.58244  -3072402.57946  23313874.867    23313875.7764   23313878.3654
        40.9004         38.5004
 -19940706.62946 -15522992.04747  21060419.973    21060419.2284   21060419.4354
        48.4004         45.6004
  -7322400.03644  -5686015.60746  23000378.118    23000378.0274   23000382.7744
        42.7004         40.2004
 -20847382.07347 -16221663.51048  20151557.687    20151558.2244   20151562.5974
        50.8004         48.2004
 16  6  8  1 41 30.0000000  0  7G19G 6G 2G 7G23G 3G 9
  -3515993.92843  -2717521.47645  24328379.604    24328378.8834   24328381.1114
        37.6004         35.3004
 -12597926.28246  -9793502.09347  20637883.079    20637883.7384   20637889.3754
        49.5004         46.6004
  -5094979.45444  -3954650.47246  23055579.890    23055579.0854   23055579.5534
        43.2004         40.4004
  -4073871.76544  -3151813.06546  23294482.405    23294482.4724   23294484.5394
        40.8004         38.1004
 -19896021.76046 -15488172.67247  21068922.835    21068922.7464   21068922.9454
        48.4004         45.6004
  -7235646.74844  -5618415.66146  23016886.278    23016887.6664   23016891.0724
        42.9004         40.2004
 -20852802.57247 -16225887.27448  20150526.715    20150526.6124   20150531.1894
        51.0004         48.2004
 16  6  8  1 42  0.0000000  0  7G19G 6G 2G 7G23G 3G 9
  -3420365.16642  -2643005.59545  24346577.444    24346576.7044   24346577.4864
        37.0004         34.8004
 -12594931.08946  -9791168.17847  20638453.221    20638454.0034   20638459.4644
        49.5004         46.8004
  -5176081.01044  -4017846.47446  23040146.311    23040145.4294   23040146.1004
        43.0004         40.4004
  -4175604.98144  -3231085.67246  23275123.454    23275123.0724   23275125.3644
        40.8004         38.3004
 -19850986.81046 -15453080.50647  21077492.642    21077492.5134   21077492.4164
        48.4004         45.6004
  -7148709.95044  -5550672.72246  23033430.324    23033430.6684   23033434.3254
        42.9004         40.0004
 -20857757.10247 -16229747.94548  20149583.810    20149583.6734   20149588.0934
        51.0004         48.2004
 16  6  8  1 42 30.0000000  0  7G19G 6G 2G 7G23G 3G 9
  -3324560.69143  -2568352.76945  24364808.530    24364807.4264   24364811.7684
        37.6004         35.9004
 -12591337.32347  -9788367.84347  20639137.763    20639138.0414   20639143.3154
        49.6004         46.8004
  -5256867.02644  -4080796.59646  23024772.263    23024772.5384   23024772.9494
        43.0004         40.4004
  -4277158.41544  -3310218.16246  23255799.351    23255797.9984   23255801.1684
        40.8004         38.3004
 -19805603.01746 -15417716.52347  21086128.500    21086128.3264   21086128.8624
        48.2004         45.4004
  -7061590.46144  -5482787.42846  23050008.167    23050008.4874   23050013.0364
        42.9004         40.2004
 -20862246.23747 -16233245.97348  20148729.755    20148729.7234   20148733.9354
        51.0004         48.2004
 16  6  8  1 43  0.0000000  0  7G19G 6G 2G 7G23G 3G 9
  -3228583.82643  -2493565.64046  24383073.818    24383072.7634   24383075.0074
        38.2004         36.2004
 -12587144.72347  -9785100.87947  20639935.484    20639935.9344   20639941.3734
        49.8004         47.0004
  -5337334.87344  -4143498.79846  23009459.707    23009459.6994   23009461.2624
        43.0004         40.4004
  -4378529.80644  -3389208.80946  23236507.407    23236507.6974   23236510.4784
        40.9004         38.3004
 -19759871.99346 -15382081.96847  21094830.994    21094830.6984   21094831.0334
        48.2004         45.4004
  -6974289.04744  -5414760.38346  23066620.592    23066621.0944   23066626.2114
        42.7004         40.0004
 -20866270.56147 -16236381.80648  20147963.369    20147963.6864   20147967.8584
        51.0004         48.2004
 16  6  8  1 43 30.0000000  0  7G19G 6G 2G 7G23G 3G 9
  -3132437.38643  -2418646.37246  24401368.950    24401368.2414   24401370.8744
        38.3004         36.2004
 -12582353.04547  -9781367.10347  20640847.012    20640847.5364   20640852.6294
        49.8004         46.8004
  -5417482.41744  -4205951.42446  22994208.627    22994208.1334   22994209.3984
        43.0004         40.4004
  -4479715.99244  -3468055.12946  23217252.420    23217252.3344   23217255.6494
        40.9004         38.6004
 -19713794.90646 -15346177.75147  21103599.159    21103598.7764   21103599.2714
        48.2004         45.4004
  -6886806.52744  -5346592.19246  23083266.579    23083267.4514   23083273.6994
        42.5004         39.7004
 -20869830.65847 -16239155.90348  20147286.110    20147286.1734   20147290.4734
        51.0004         48.2004
 16  6  8  1 44  0.0000000  0  7G19G 6G 2G 7G23G 3G 9
  -3036125.01343  -2343597.82546  24419697.496    24419695.9704   24419697.6704
        38.5004         36.2004
 -12576962.05247  -9777166.33047  20641873.491    20641873.5984   20641878.7544
        49.8004         47.0004
  -5497307.01144  -4268152.38446  22979018.554    22979018.0174   22979018.9744
        43.0004         40.2004
  -4580715.20044  -3546755.75746  23198034.493    23198033.4074   23198036.2104
        41.1004         38.6004
 -19667373.46146 -15310005.19547  21112433.215    21112432.6104   21112432.8304
        48.4004         45.6004
  -6799143.63944  -5278283.47646  23099950.613    23099949.3624   23099956.0504
        42.3004         39.9004
 -20872927.07947 -16241568.69248  20146696.889    20146696.9604   20146701.2344
        51.0004         48.2004
 16  6  8  1 44 30.0000000  0  7G19G 6G 2G 7G23G 3G 9
  -2939649.84543  -2268422.36046  24438055.665    24438055.2294   24438056.4574
        38.9004         36.6004
 -12570971.59047  -9772498.43747  20643013.031    20643013.7224   20643018.6534
        49.8004         47.0004
  -5576806.28344  -4330099.85546  22963890.904    22963889.9104   22963890.7854
        43.0004         40.4004
  -4681524.31244  -3625308.26446  23178850.094    23178849.8564   23178852.2504
        41.5004         39.0004
 -19620608.79546 -15273565.20247  21121332.580    21121332.4294   21121332.1004
        48.4004         45.8004
  -6711301.20844  -5209834.85246  23116664.642    23116664.7384   23116671.2594
        42.3004         39.7004
 -20875560.47647 -16243620.68348  20146195.541    20146195.7694   20146200.2954
        51.0004         48.2004
 16  6  8  1 45  0.0000000  0  7G19G 6G 2G 7G23G 3G 9
  -2843014.99243  -2193122.50246  24456445.065    24456444.6044   24456445.1884
        38.9004         36.6004
 -12564381.46847  -9767363.27947  20644267.072    20644267.6484   20644272.6324
        49.8004         47.0004
  -5655978.10244  -4391792.16346  22948824.405    22948824.2364   22948824.5864
        43.2004         40.6004
  -4782140.61744  -3703710.53446  23159702.400    23159703.1304   23159705.9534
        41.6004         39.3004
 -19573502.57146 -15236859.05247  21130297.071    21130296.6284   21130296.0234
        48.6004         45.8004
  -6623280.01244  -5141246.92346  23133416.577    23133415.7604   23133421.8084
        42.5004         39.9004
 -20877731.43747 -16245312.33648  20145782.627    20145782.5724   20145787.2404
        51.0004         48.2004
 16  6  8  1 45 30.0000000  0  7G19G 6G 2G 7G23G 3G 9
  -2746223.51443  -2117700.60846  24474863.635    24474862.5594   24474864.5024
        38.5004         36.0004
 -12557191.55547  -9761760.75247  20645635.216    20645635.4454   20645641.0384
        49.6004         46.8004
  -5734820.18744  -4453227.53946  22933820.308    22933820.1754   22933820.9824
        43.4004         40.7004
  -4882561.51044  -3781960.52246  23140593.778    23140594.4204   23140597.1904
        41.8004         39.3004
 -19526056.09546 -15199887.76547  21139325.373    21139324.8214   21139325.1014
        48.6004         45.6004
  -6535080.81744  -5072520.31746  23150201.349    23150201.1894   23150205.3794
        42.7004         40.0004
 -20879440.59247 -16246644.13648  20145457.693    20145457.7144   20145461.9134
        51.0004         48.2004
 16  6  8  1 46  0.0000000  0  7G19G 6G 2G 7G23G 3G 9
  -2649278.26743  -2042158.89045  24493311.808    24493310.3234   24493312.0474
        38.0004         35.9004
 -12549401.70547  -9755690.74547  20647118.047    20647118.1154   20647123.0624
        49.6004         46.8004
  -5813329.95644  -4514403.98246  22918881.002    22918880.9734   22918881.8704
        43.4004         40.6004
  -4982784.47144  -3860056.27246  23121522.463    23121521.9034   23121524.8754
        42.0004         39.3004
 -19478270.42546 -15162652.17647  21148418.716    21148418.1184   21148418.2434
        48.4004         45.6004
  -6446704.47144  -5003655.62646  23167015.750    23167017.0044   23167022.5054
        42.7004         39.9004
 -20880688.56447 -16247616.57448  20145220.211    20145219.9614   20145224.3524
        51.0004         48.2004
 16  6  8  1 46 30.0000000  0  7G19G 6G 2G 7G23G 3G 9
  -2552182.96343  -1966500.23545  24511787.720    24511786.4314   24511789.8814
        38.2004         35.9004
 -12541011.84547  -9749153.20147  20648713.808    20648714.5674   20648720.3124
        49.8004         47.0004
  -5891505.33544  -4575319.84646  22904004.417    22904004.5574   22904004.8004
        43.2004         40.6004
  -5082807.11544  -3937995.94746  23102488.997    23102489.2264   23102491.6824
        42.2004         39.7004
 -19430147.36046 -15125153.68647  21157575.456    21157575.6344   21157575.7934
        48.4004         45.4004
  -6358151.74044  -4934653.52846  23183869.107    23183869.9454   23183873.2654
        42.5004         39.9004
 -20881476.01247 -16248230.17248  20145070.009    20145070.0694   20145074.3264
        51.0004         48.2004
 16  6  8  1 47  0.0000000  0  7G19G 6G 2G 7G23G 3G 9
  -2454940.69443  -1890727.04545  24530292.316    24530291.0774   24530294.9884
        38.0004         35.9004
 -12532021.87647  -9742148.03047  20650424.949    20650425.4794   20650430.9494
        49.8004         47.0004
  -5969343.66944  -4635973.08546  22889192.124    22889191.3144   22889192.8674
        43.0004         40.2004
  -5182626.33044  -4015777.08046  23083493.756    23083493.6084   23083497.0654
        42.3004         39.9004
 -19381688.14846 -15087393.26647  21166796.892    21166796.8394   21166797.4364
        48.4004         45.4004
  -6269423.39244  -4865514.57146  23200751.932    23200752.5934   23200757.7544
        42.3004         39.7004
 -20881803.58747 -16248485.41148  20145007.532    20145007.6424   20145011.7754
        51.0004         48.2004
 16  6  8  1 47 30.0000000  0  7G19G 6G 2G 7G23G 3G 9
  -2357554.84943  -1814841.99745  24548824.684    24548823.4784   24548826.0944
        37.8004         35.7004
 -12522431.77247  -9734675.23147  20652250.144    20652250.2434   20652255.7364
        49.8004         47.0004
  -6046842.83644  -4696362.04646  22874445.715    22874445.1974   22874445.2254
        43.0004         40.6004
  -5282239.73844  -4093397.87446  23064538.299    23064537.1484   23064540.2234
        42.5004         39.9004
 -19332894.42646 -15049372.18847  21176082.560    21176082.1294   21176082.2554
        48.2004         45.4004
  -6180520.26944  -4796239.43046  23217669.604    23217669.7684   23217675.5474
        42.2004         39.2004
 -20881671.96047 -16248382.84348  20145032.815    20145032.7654   20145037.0624
        51.0004         48.2004
 16  6  8  1 48  0.0000000  0  7G19G 6G 2G 7G23G 3G 9
  -2260028.06643  -1738847.14545  24567383.071    24567382.7954   24567384.9484
        37.8004         35.9004
 -12512241.51047  -9726734.77447  20654188.970    20654189.4234   20654194.8034
        49.8004         47.0004
  -6124000.35344  -4756484.76946  22859762.685    22859762.2764   22859762.8954
        43.4004         40.7004
  -5381644.73644  -4170856.25846  23045622.212    23045621.4714   23045624.4704
        42.5004         39.9004
 -19283767.36146 -15011091.36347  21185431.538    21185430.7644   21185430.5224
        48.2004         45.2004
  -6091443.13944  -4726828.69546  23234621.289    23234620.3424   23234626.0874
        42.0004         39.3004
 -20881081.70347 -16247922.89748  20145145.248    20145145.3994   20145149.3134
        51.0004         48.2004
 16  6  8  1 48 30.0000000  0  7G19G 6G 2G 7G23G 3G 9
  -2162363.68343  -1662745.07345  24585968.380    24585967.3724   24585969.9204
        38.0004         35.9004
 -12501451.10147  -9718326.66447  20656241.150    20656242.4604   20656248.2314
        49.6004         46.8004
  -6200813.90045  -4816339.47546  22845145.103    22845144.9574   22845145.8464
        43.6004         41.1004
  -5480838.81844  -4248150.28946  23026745.610    23026745.1444   23026748.1844
        42.7004         39.9004
 -19234308.36846 -14972551.89447  21194842.624    21194842.5134   21194842.8784
        48.2004         45.2004
  -6002192.82344  -4657283.01546  23251604.687    23251604.9604   23251610.4174
        41.8004         39.0004
 -20880033.70247 -16247106.26348  20145344.493    20145344.4174   20145349.0044
        51.0004         48.2004
 16  6  8  1 49  0.0000000  0  8G19G30G 6G 2G 7G23G 3G 9
  -2064565.01243  -1586538.34245  24604578.877    24604577.9244   24604580.2064
        37.8004         35.9004
                   -272648.19855  25108053.240                    25108056.7384
                        34.3004
 -12490060.51847  -9709450.89447  20658409.939    20658410.4664   20658415.9974
        49.6004         46.8004
  -6277281.14845  -4875924.33746  22830594.153    22830593.1244   22830594.8764
        43.7004         41.1004
  -5579819.21144  -4325277.82146  23007910.214    23007909.7134   23007913.0894
        42.7004         40.0004
 -19184519.08846 -14933755.05847  21204316.624    21204316.8094   21204317.2474
        48.2004         45.2004
  -5912770.10144  -4587603.02046  23268620.739    23268621.3564   23268626.7864
        41.5004         39.0004
 -20878528.52947 -16245933.39148  20145630.974    20145630.9734   20145635.4244
        51.0004         48.2004
 16  6  8  1 49 30.0000000  0  8G19G30G 6G 2G 7G23G 3G 9
  -1966634.89343  -1510229.17445  24623214.725    24623212.9374   24623215.9294
        37.8004         35.5004
   -487926.90542   -361361.32845  25086387.769    25086385.4294   25086391.5274
        35.2004         34.0004
 -12478069.82846  -9700107.50347  20660691.685    20660692.2144   20660697.0184
        49.5004         46.6004
  -6353400.05445  -4935237.77046  22816110.118    22816109.0184   22816109.5994
        43.7004         40.9004
  -5678583.05644  -4402236.60746  22989116.177    22989115.6564   22989118.6844
        42.7004         40.0004
 -19134400.79246 -14894701.84647  21213854.818    21213853.9584   21213854.1504
        48.1004         45.1004
  -5823175.79744  -4517789.29546  23285670.330    23285670.3634   23285675.8004
        41.5004         38.8004
 -20876566.92147 -16244404.85948  20146004.530    20146004.4004   20146008.9514
        51.0004         48.4004
 16  6  8  1 50  0.0000000  0  8G19G30G 6G 2G 7G23G 3G 9
  -1868576.56043  -1433820.10345  24641875.041    24641873.9364   24641877.3004
        37.8004         35.7004
   -601810.89742   -450102.01145  25064714.859    25064716.1824   25064725.0414
        36.1004         34.6004
 -12465479.11946  -9690296.56647  20663088.005    20663088.2194   20663093.3494
        49.5004         46.8004
  -6429168.02745  -4994277.73946  22801690.015    22801689.9964   22801691.2424
        43.6004         40.7004
  -5777128.16244  -4479024.96446  22970363.371    22970363.0924   22970366.1084
        42.7004         39.9004
 -19083954.67946 -14855393.19847  21223453.786    21223453.8894   21223453.9024
        48.1004         45.1004
  -5733410.66844  -4447842.44446  23302752.480    23302752.5294   23302758.5674
        41.6004         39.0004
 -20874149.58847 -16242521.21348  20146464.640    20146464.2834   20146468.8144
        51.0004         48.4004
 16  6  8  1 50 30.0000000  0  8G19G30G 6G 2G 7G23G 3G 9
  -1770393.14943  -1357313.59445  24660557.701    24660557.1454   24660559.3544
        37.6004         35.5004
   -715727.93552   -538868.37455  25043037.212    25043037.2794   25043046.1544
        36.4004         34.8004
 -12452288.44346  -9680018.11847  20665597.657    20665598.2124   20665603.0944
        49.5004         46.6004
  -6504582.66145  -5053042.35246  22787340.087    22787339.1124   22787340.9384
        43.6004         40.9004
  -5875451.51944  -4555640.52446  22951651.903    22951652.3124   22951656.4884
        42.7004         40.0004
 -19033182.45746 -14815830.43447  21233114.895    21233115.0584   21233115.8094
        47.9004         45.1004
  -5643475.55044  -4377763.10646  23319865.367    23319866.2854   23319872.6204
        41.6004         39.0004
 -20871277.25647 -16240283.02348  20147010.802    20147010.7934   20147015.4194
        51.0004         48.4004
 16  6  8  1 51  0.0000000  0  8G19G30G 6G 2G 7G23G 3G 9
  -1672087.79043  -1280712.06645  24679264.778    24679263.8464   24679267.6704
        37.8004         35.9004
   -829675.42342   -627658.49345  25021354.850    25021354.0034   25021366.8154
        36.6004         34.8004
 -12438497.92046  -9669272.26447  20668222.056    20668222.3514   20668227.4684
        49.5004         46.6004
  -6579641.84545  -5111530.01746  22773056.164    22773055.9094   22773058.0964
        43.6004         40.9004
  -5973550.85744  -4632081.52346  22932984.310    22932985.0484   22932988.3534
        42.7004         40.2004
 -18982085.50146 -14776014.63047  21242838.850    21242838.4334   21242838.8734
        47.9004         45.1004
  -5553371.25644  -4307551.98546  23337012.776    23337013.6514   23337017.8764
        41.5004         38.8004
 -20867950.66447 -16237690.85948  20147643.612    20147643.4454   20147648.2264
        51.0004         48.2004
 16  6  8  1 51 30.0000000  0  8G19G30G 6G 2G 7G23G 3G 9
  -1573663.88743  -1204018.14945  24697995.153    24697993.5624   24697996.8324
        38.0004         35.9004
   -943651.05142   -716470.55445  24999666.699    24999666.7194   24999676.9734
        37.0004         35.0004
 -12424107.70646  -9658059.12347  20670960.288    20670960.7094   20670966.1214
        49.5004         46.6004
  -6654343.03845  -5169738.73246  22758841.647    22758840.7904   22758842.2244
        43.6004         40.7004
  -6071423.37244  -4708345.77746  22914361.048    22914360.4214   22914363.2094
        42.9004         40.2004
 -18930665.15046 -14735946.82647  21252624.077    21252623.9644   21252623.7654
        47.9004         45.1004
  -5463098.60344  -4237209.65646  23354191.650    23354191.9544   23354196.4954
        41.5004         38.8004
 -20864170.52847 -16234745.28548  20148362.803    20148362.9254   20148367.4994
        50.8004         48.2004
 16  6  8  1 52  0.0000000  0  8G19G30G 6G 2G 7G23G 3G 9
  -1475124.50943  -1127234.28545  24716746.332    24716745.7314   24716749.2364
        37.8004         35.7004
  -1057652.29842   -805302.59345  24977972.856    24977972.8674   24977979.7354
        36.8004         34.8004
 -12409117.98446  -9646378.82947  20673812.922    20673813.3534   20673818.4824
        49.5004         46.6004
  -6728684.19444  -5227666.89146  22744694.192    22744693.9174   22744695.5734
        43.4004         40.6004
  -6169066.81844  -4784431.53546  22895779.979    22895779.7214   22895782.4854
        42.9004         40.4004
 -18878922.91846 -14695628.20747  21262469.999    21262469.9844   21262470.2104
        47.9004         45.1004
  -5372658.39944  -4166736.78546  23371399.722    23371401.8874   23371405.9804
        41.5004         38.8004
 -20859937.66347 -16231446.94148  20149168.828    20149168.7214   20149172.8594
        51.0004         48.2004
 16  6  8  1 52 30.0000000  0  8G19G30G 6G 2G 7G23G 3G 9
  -1376472.57943  -1050362.68145  24735519.106    24735518.0934   24735521.1034
        38.0004         35.9004
  -1171676.87942   -894152.81445  24956272.093    24956272.8974   24956280.3684
        36.8004         34.5004
 -12393528.88746  -9634231.49147  20676779.109    20676779.8254   20676784.8284
        49.5004         46.6004
  -6802662.80344  -5285312.55246  22730617.245    22730616.3574   22730618.4664
        43.4004         40.7004
  -6266478.44744  -4860336.65846  22877241.955    22877242.7294   22877244.1304
        42.9004         40.2004
 -18826860.11946 -14655059.79447  21272378.046    21272377.7374   21272377.1704
        48.1004         45.2004
  -5282051.45744  -4096133.99246  23388643.659    23388644.0264   23388648.7054
        41.3004         38.8004
 -20855252.81647 -16227796.41148  20150060.143    20150060.1464   20150064.6184
        51.0004         48.2004
 16  6  8  1 53  0.0000000  0  9G19G26G30G 6G 2G 7G23G 3G 9
  -1277711.57243   -973406.08945  24754312.204    24754311.1114   24754313.9254
        38.0004         35.9004
                    -62839.72554  25080595.763
                        29.6004
  -1285722.26842   -983019.23945  24934569.799    24934570.1604   24934579.9494
        36.6004         34.5004
 -12377340.67046  -9621617.30647  20679859.551    20679860.4074   20679865.3194
        49.3004         46.5004
  -6876276.56345  -5342673.90546  22716608.901    22716608.7964   22716609.5754
        43.6004         40.9004
  -6363655.70444  -4936059.15646  22858750.968    22858751.2714   22858752.9474
        43.0004         40.4004
 -18774478.39946 -14614242.87947  21282346.008    21282345.5494   21282345.2714
        48.1004         45.2004
  -5191278.59944  -4025401.91746  23405917.345    23405917.7094   23405921.6214
        41.1004         38.6004
 -20850116.75647 -16223794.27948  20151037.558    20151037.5554   20151042.1774
        51.0004         48.4004
 16  6  8  1 53 30.0000000  0  8G19G30G 6G 2G 7G23G 3G 9
  -1178844.19043   -896366.59245  24773126.940    24773125.2294   24773128.6914
        38.0004         35.7004
  -1399786.09042  -1071900.04145  24912860.881    24912864.1984   24912874.2074
        36.1004         34.3004
 -12360553.54346  -9608536.44147  20683054.432    20683054.8494   20683059.8914
        49.3004         46.3004
  -6949523.25045  -5399749.24346  22702671.283    22702670.4254   22702671.3094
        43.7004         41.2004
  -6460595.32044  -5011596.48546  22840305.148    22840304.3144   22840306.5434
        43.2004         40.6004
 -18721778.98246 -14573178.40847  21292374.063    21292373.7114   21292373.3044
        48.1004         45.1004
  -5100340.66444  -3954541.18846  23423220.993    23423221.6524   23423228.3404
        41.1004         38.5004
 -20844530.27047 -16219441.17448  20152100.252    20152100.1724   20152105.1634
        51.0004         48.2004
 16  6  8  1 54  0.0000000  0  8G19G30G 6G 2G 7G23G 3G 9
  -1079873.73943   -819246.79045  24791959.413    24791959.8834   24791962.2524
        37.8004         35.7004
  -1513865.82942  -1160793.21945  24891151.057    24891152.9584   24891163.7984
        35.7004         34.1004
 -12343167.75046  -9594989.07847  20686362.955    20686363.4014   20686368.5064
        49.3004         46.6004
  -7022400.70945  -5456536.87246  22688803.145    22688802.3064   22688803.0074
        43.9004         41.2004
  -6557295.39544  -5086947.16146  22821904.072    22821903.3524   22821904.3804
        43.2004         40.4004
 -18668763.31246 -14531867.49547  21302463.007    21302462.7274   21302462.4854
        48.1004         45.2004
  -5009238.39744  -3883552.44346  23440559.460    23440558.7164   23440563.5864
        40.9004         38.3004
 -20838494.16647 -16214737.71748  20153248.879    20153249.0884   20153253.6704
        51.0004         48.2004
 16  6  8  1 54 30.0000000  0  8G19G30G 6G 2G 7G23G 3G 9
   -980803.32042   -742049.10445  24810812.145    24810811.7174   24810814.1784
        37.5004         35.2004
  -1627959.02242  -1249696.89445  24869439.776    24869442.1754   24869454.9644
        35.7004         34.0004
 -12325183.60046  -9580975.46447  20689784.834    20689785.4174   20689790.6814
        49.5004         46.6004
  -7094906.29745  -5513034.72746  22675006.037    22675004.9264   22675005.7624
        43.9004         41.2004
  -6653753.20244  -5162109.05446  22803548.141    22803547.4164   22803549.1434
        43.2004         40.6004
 -18615432.61846 -14490311.11347  21312611.174    21312610.6234   21312610.9414
        48.1004         45.2004
  -4917972.70044  -3812436.35746  23457924.745    23457925.6734   23457929.5394
        40.8004         37.9004
 -20832009.22647 -16209684.51248  20154483.002    20154482.9334   20154487.4674
        51.0004         48.0004
 16  6  8  1 55  0.0000000  0  8G19G30G 6G 2G 7G23G 3G 9
   -881636.31242   -664776.13845  24829682.001    24829682.9024   24829686.4984
        37.3004         35.2004
  -1742063.25242  -1338609.18445  24847730.235    24847730.5044   24847740.1674
        35.9004         34.3004
 -12306601.38146  -9566495.81847  20693321.162    20693321.6804   20693326.9084
        49.5004         46.6004
  -7167038.04645  -5569241.28046  22661279.714    22661279.0524   22661279.7594
        44.1004         41.2004
  -6749965.86644  -5237079.92546  22785237.890    22785237.8664   22785241.1244
        43.2004         40.4004
 -18561788.75546 -14448510.69647  21322818.728    21322818.4074   21322819.2884
        48.1004         45.1004
  -4826544.35943  -3741193.50446  23475323.199    23475323.5504   23475327.8764
        40.4004         37.8004
 -20825076.26147 -16204282.19848  20155802.280    20155802.6224   20155806.7914
        50.8004         48.2004
 16  6  8  1 55 30.0000000  0  8G19G30G 6G 2G 7G23G 3G 9
   -782375.62742   -587430.22145  24848572.620    24848571.1414   24848573.5814
        37.5004         35.5004
  -1856176.04142  -1427528.16445  24826014.993    24826015.9174   24826028.6034
        35.9004         34.1004
 -12287421.43046  -9551550.41147  20696971.144    20696971.5574   20696976.4654
        49.5004         46.6004
  -7238793.45245  -5625154.57546  22647624.302    22647624.2844   22647624.3454
        44.1004         41.1004
  -6845931.11044  -5311858.01546  22766976.774    22766975.8064   22766978.5944
        43.0004         40.2004
 -18507832.71246 -14406467.03647  21333086.453    21333086.2244   21333086.8484
        47.9004         45.1004
  -4734954.18943  -3669824.57346  23492751.745    23492752.5074   23492757.3124
        40.3004         37.8004
 -20817696.10447 -16198531.42448  20157207.160    20157207.0354   20157211.3114
        51.0004         48.2004
 16  6  8  1 56  0.0000000  0  8G19G30G 6G 2G 7G23G 3G 9
   -683024.32742   -510013.68745  24867477.514    24867477.2544   24867478.8714
        37.3004         35.2004
  -1970294.96242  -1516451.94345  24804301.076    24804299.8124   24804310.1044
        36.1004         34.3004
 -12267644.07146  -9536139.49347  20700734.088    20700734.5754   20700740.2754
        49.5004         46.6004
  -7310170.55645  -5680773.09246  22634041.904    22634041.7184   22634041.7194
        43.9004         41.1004
  -6941646.59844  -5386441.46546  22748763.056    22748762.8994   22748764.7624
        43.0004         40.2004
 -18453566.17246 -14364181.42947  21343413.061    21343412.9204   21343413.3664
        47.9004         45.1004
  -4643203.03543  -3598330.17246  23510211.022    23510211.7514   23510217.1144
        40.3004         37.8004
 -20809869.58147 -16192432.83648  20158696.849    20158696.8074   20158700.8334
        51.0004         48.4004
 16  6  8  1 56 30.0000000  0  8G19G30G 6G 2G 7G23G 3G 9
   -583585.37842   -432528.84645  24886401.944    24886400.0334   24886403.0694
        37.5004         35.3004
  -2084417.54342  -1605378.52945  24782581.877    24782581.5514   24782594.5014
        35.7004         34.0004
 -12247269.72046  -9520263.37047  20704611.417    20704612.2664   20704617.6094
        49.5004         46.8004
  -7381166.84045  -5736094.86346  22620531.790    22620531.8664   22620531.8184
        44.1004         41.4004
  -7037109.51244  -5460828.09946  22730595.821    22730595.9104   22730599.8264
        42.9004         40.0004
 -18398990.72646 -14321655.11047  21353798.498    21353797.9374   21353798.8684
        47.9004         45.1004
  -4551291.69443  -3526710.97346  23527702.584    23527702.5414   23527708.1574
        40.3004         37.9004
 -20801597.54247 -16185987.09448  20160270.538    20160270.5244   20160275.0314
        51.2004         48.4004
 16  6  8  1 57  0.0000000  0  8G19G30G 6G 2G 7G23G 3G 9
   -484062.09443   -354978.29545  24905338.227    24905338.0434   24905341.6104
        37.6004         35.5004
  -2198541.24642  -1694306.03545  24760866.002    24760866.8184   24760874.5094
        36.1004         34.5004
 -12226298.77347  -9503922.37747  20708602.216    20708602.6554   20708607.8714
        49.6004         46.6004
  -7451780.09145  -5791118.16246  22607094.476    22607094.5564   22607094.6324
        44.2004         41.4004
  -7132317.50044  -5535016.10446  22712478.093    22712477.6924   22712480.8954
        42.9004         40.2004
 -18344107.55546 -14278889.01447  21364242.454    21364241.9504   21364242.7474
        47.9004         45.1004
  -4459221.04943  -3454967.63546  23545218.856    23545221.3634   23545227.5314
        40.1004         37.4004
 -20792880.83747 -16179194.85448  20161928.820    20161928.9034   20161933.6664
        51.2004         48.4004
 16  6  8  1 57 30.0000000  0  8G19G30G 6G 2G 7G23G 3G 9
   -384457.41342   -277364.30845  24924293.210    24924293.2494   24924297.1964
        37.5004         35.2004
  -2312663.59942  -1783232.46045  24739150.440    24739149.8384   24739156.2654
        36.4004         34.6004
 -12204731.63246  -9487116.82047  20712706.643    20712707.0614   20712711.7024
        49.5004         46.6004
  -7522007.97145  -5845841.17546  22593730.873    22593731.0294   22593729.9384
        44.4004         41.6004
  -7227267.54544  -5609003.11546  22694409.832    22694410.3584   22694412.1624
        42.9004         40.2004
 -18288917.96246 -14235884.13947  21374744.534    21374744.4194   21374744.8154
        47.9004         45.1004
  -4366991.88943  -3383100.75746  23562772.190    23562773.0914   23562779.7634
        39.7004         37.3004
 -20783720.29947 -16172056.76848  20163671.802    20163672.1224   20163676.8244
        51.0004         48.2004
 16  6  8  1 58  0.0000000  0  8G19G30G 6G 2G 7G23G 3G 9
   -284774.35442   -199689.26945  24943262.301    24943261.7384   24943264.7954
        37.0004         34.6004
  -2426782.14442  -1872155.97145  24717432.638    24717432.7134   24717438.3054
        36.6004         34.6004
 -12182568.75947  -9469847.04747  20716923.722    20716924.3014   20716929.4884
        49.6004         46.8004
  -7591848.41945  -5900262.30646  22580441.169    22580440.6584   22580440.0844
        44.6004         41.8004
  -7321957.09944  -5682787.15746  22676391.328    22676391.5374   22676394.6474
        43.2004         40.6004
 -18233423.66546 -14192641.84447  21385304.775    21385304.4094   21385304.5424
        47.7004         44.7004
  -4274605.01143  -3311111.00546  23580354.108    23580353.0964   23580359.8084
        39.7004         37.3004
 -20774116.83447 -16164573.54848  20165499.462    20165499.7204   20165504.2424
        51.0004         48.4004
 16  6  8  1 58 30.0000000  0  8G19G30G 6G 2G 7G23G 3G 9
   -185016.18542   -121955.69045  24962245.083    24962246.7664   24962248.9844
        36.1004         34.1004
  -2540894.38842  -1961074.55145  24695716.446    24695717.6504   24695723.0564
        36.6004         34.8004
 -12159810.48847  -9452113.33847  20721254.597    20721254.8344   20721260.2744
        49.6004         46.8004
  -7661298.93345  -5954379.57246  22567224.114    22567223.9484   22567224.0454
        44.6004         41.8004
  -7416383.75244  -5756366.33746  22658422.637    22658423.7094   22658424.8924
        43.4004         40.9004
 -18177625.60546 -14149162.84747  21395922.640    21395922.0694   21395923.0294
        47.7004         44.7004
  -4182061.37443  -3238999.08346  23597962.855    23597964.5864   23597970.0014
        39.9004         37.6004
 -20764071.24747 -16156745.79148  20167411.519    20167411.5904   20167415.8684
        51.0004         48.4004
 16  6  8  1 59  0.0000000  0  8G19G30G 6G 2G 7G23G 3G 9
    -85185.95542    -44165.97345  24981243.986    24981244.0244   24981244.0224
        35.9004         34.1004
  -2654997.90842  -2049986.32245  24674003.758    24674004.0584   24674011.7154
        36.6004         34.6004
 -12136457.52046  -9433916.22847  20725698.139    20725698.5334   20725704.2334
        49.5004         46.6004
  -7730357.44445  -6008191.38546  22554083.219    22554082.3314   22554082.6944
        44.4004         41.8004
  -7510545.16845  -5829738.83046  22640504.428    22640504.5964   22640507.0034
        43.6004         40.7004
 -18121525.92446 -14105448.82347  21406597.352    21406597.2654   21406598.3214
        47.5004         44.5004
  -4089361.68943  -3166765.55546  23615606.199    23615605.6584   23615610.0784
        40.3004         37.8004
 -20753584.50347 -16148574.28248  20169406.898    20169406.6994   20169411.1774
        51.0004         48.2004
 16  6  8  1 59 30.0000000  0  8G19G30G 6G 2G 7G23G 3G 9
     14712.97242     33677.31245  25000252.237    25000250.1864   25000255.2034
        35.6004         33.6004
  -2769090.14142  -2138889.31445  24652293.926    24652293.7534   24652300.8844
        36.8004         34.8004
 -12112510.31846  -9415256.08447  20730255.077    20730255.7104   20730261.1184
        49.5004         46.6004
  -7799021.63445  -6061695.95646  22541017.149    22541016.5974   22541017.0934
        44.6004         41.9004
  -7604438.55545  -5902902.48046  22622636.229    22622636.3174   22622639.5404
        43.6004         40.7004
 -18065125.74546 -14061500.63347  21417330.604    21417330.1344   21417330.3264
        47.4004         44.4004
  -3996506.84543  -3094411.17146  23633276.683    23633276.1264   23633280.4874
        40.4004         37.9004
 -20742657.48747 -16140059.72548  20171485.691    20171486.1084   20171490.4194
        51.0004         48.2004
 16  6  8  2  0  0.0000000  0  8G19G30G 6G 2G 7G23G 3G 9
    114678.08342    111572.19745  25019275.665    25019275.3044   25019276.8154
        35.0004         33.4004
  -2883168.56342  -2227781.54045  24630584.729    24630585.5934   24630591.8524
        37.1004         35.3004
 -12087969.38246  -9396133.28147  20734925.445    20734925.9134   20734931.3544
        49.5004         46.8004
  -7867289.42045  -6114891.61646  22528025.802    22528025.0794   22528025.8794
        44.8004         41.9004
  -7698061.43344  -5975855.34246  22604820.278    22604821.0844   22604824.4204
        43.4004         40.7004
 -18008426.50346 -14017319.41147  21428120.705    21428120.1094   21428120.0454
        47.4004         44.5004
  -3903497.70844  -3021936.49646  23650973.120    23650973.5244   23650979.9324
        40.6004         38.1004
 -20731291.05847 -16131202.75948  20173648.907    20173649.1684   20173653.4064
        51.0004         48.2004
 16  6  8  2  0 30.0000000  0  8G19G30G 6G 2G 7G23G 3G 9
    214706.13542    189516.09045  25038311.556    25038309.0724   25038310.7464
        34.7004         32.9004
  -2997230.74242  -2316661.11845  24608879.575    24608880.0484   24608888.6384
        37.1004         35.2004
 -12062835.25746  -9376548.26047  20739708.511    20739708.8974   20739714.1824
        49.5004         46.6004
  -7935158.57645  -6167776.67047  22515111.295    22515109.9404   22515110.2634
        44.8004         42.1004
  -7791411.29144  -6048595.45246  22587057.669    22587057.3844   22587059.8124
        43.4004         40.4004
 -17951429.31046 -13972906.01747  21438966.229    21438966.2454   21438965.9894
        47.5004         44.5004
  -3810335.07643  -2949342.29246  23668700.683    23668701.5314   23668707.4984
        40.4004         37.8004
 -20719486.14647 -16122004.12148  20175895.598    20175895.4254   20175899.8454
        50.8004         48.2004
 16  6  8  2  1  0.0000000  0  8G19G30G 6G 2G 7G23G 3G 9
    314794.14842    267506.72645  25057357.955    25057354.6224   25057356.8734
        34.7004         33.3004
  -3111274.14742  -2405526.06345  24587180.005    24587180.9424   24587188.5114
        37.5004         35.3004
 -12037108.57546  -9356501.50147  20744603.208    20744603.8394   20744609.5594
        49.3004         46.5004
  -8002626.60145  -6220349.15446  22502271.847    22502271.2124   22502272.1184
        44.6004         41.8004
  -7884486.16144  -6121121.29846  22569345.396    22569344.7594   22569348.0854
        43.2004         40.4004
 -17894135.88246 -13928261.79647  21449869.275    21449869.0324   21449869.0484
        47.4004         44.5004
  -3717019.84943  -2876629.13746  23686458.171    23686458.7554   23686464.4454
        40.1004         37.4004
 -20707243.65947 -16112464.51248  20178224.993    20178225.2404   20178229.7374
        50.8004         48.2004
 16  6  8  2  1 30.0000000  0  8G19G30G 6G 2G 7G23G 3G 9
    414938.83742    345541.54145  25076413.608    25076412.0634   25076415.3064
        34.9004         33.6004
  -3225296.24742  -2494374.38945  24565481.227    24565482.4594   24565491.7764
        37.5004         35.3004
 -12010789.94646  -9335993.48547  20749612.457    20749612.7874   20749617.7304
        49.3004         46.5004
  -8069691.42145  -6272607.44946  22489510.560    22489509.7784   22489509.8854
        44.6004         41.8004
  -7977282.76944  -6193430.30146  22551685.239    22551686.7684   22551689.9264
        43.2004         40.6004
 -17836547.36246 -13883387.63347  21460827.789    21460827.3834   21460827.7474
        47.4004         44.5004
  -3623552.82843  -2803797.71546  23704243.578    23704245.3204   23704250.8404
        39.9004         37.6004
 -20694564.52947 -16102584.65448  20180637.780    20180637.9964   20180642.5454
        50.8004         48.2004
 16  6  8  2  2  0.0000000  0  8G19G30G 6G 2G 7G23G 3G 9
    515137.02742    423618.04345  25095480.386    25095479.5224   25095484.3914
        34.9004         33.6004
  -3339294.55043  -2583204.20945  24543788.179    24543787.7064   24543797.9414
        37.6004         35.5004
 -11983879.96546  -9315024.67847  20754733.785    20754733.8404   20754738.4904
        49.3004         46.6004
  -8136351.03045  -6324550.00046  22476825.830    22476824.2634   22476825.7554
        44.6004         41.9004
  -8069798.46644  -6265520.42946  22534079.896    22534080.9574   22534084.5834
        43.0004         40.2004
 -17778665.62046 -13838284.97347  21471842.912    21471842.5004   21471842.3684
        47.4004         44.5004
  -3529934.84443  -2730848.64446  23722063.088    23722060.6854   23722065.4744
        39.9004         37.4004
 -20681449.68847 -16092365.28348  20183133.402    20183133.5274   20183138.2044
        50.8004         48.2004
 16  6  8  2  2 30.0000000  0  8G19G30G 6G 2G 7G23G 3G 9
    615385.87742    501733.97345  25114556.075    25114555.3734   25114559.4164
        35.0004         33.6004
  -3453266.60242  -2672013.53445  24522100.746    24522100.6594   24522109.2024
        37.3004         35.3004
 -11956379.32546  -9293595.60947  20759966.436    20759966.7464   20759971.8204
        49.3004         46.5004
  -8202603.17845  -6376175.04146  22464217.762    22464217.2254   22464217.6544
        44.6004         41.8004
  -8162030.93844  -6337389.85846  22516529.416    22516529.3934   22516532.9734
        43.0004         40.6004
 -17720491.91246 -13792954.81347  21482912.187    21482911.8784   21482912.2674
        47.4004         44.4004
  -3436166.80243  -2657782.64846  23739902.463    23739904.6134   23739908.9494
        39.7004         37.3004
 -20667900.13147 -16081807.18648  20185711.729    20185711.8544   20185716.5304
        51.0004         48.2004
 16  6  8  2  3  0.0000000  0  8G19G30G 6G 2G 7G23G 3G 9
    715682.43242    579887.08245  25133642.222    25133639.6144   25133645.4404
        35.4004         34.0004
  -3567209.77342  -2760800.39345  24500417.438    24500415.4044   24500424.9864
        37.0004         35.0004
 -11928288.71246  -9271706.81947  20765311.562    20765312.0174   20765317.1994
        49.3004         46.5004
  -8268445.59245  -6427480.80046  22451688.618    22451688.3074   22451688.2374
        44.4004         41.4004
  -8253977.85144  -6409036.78546  22499032.783    22499033.7834   22499036.1164
        43.2004         40.7004
 -17662027.74146 -13747398.32147  21494038.072    21494037.4154   21494037.8504
        47.2004         44.4004
  -3342249.53043  -2584600.36146  23757774.665    23757774.9164   23757781.2664
        39.6004         37.3004
 -20653916.77147 -16070911.05748  20188372.780    20188372.5324   20188377.3574
        50.8004         48.2004
 16  6  8  2  3 30.0000000  0  8G19G30G 6G 2G 7G23G 3G 9
    816023.65442    658075.01945  25152738.658    25152736.1554   25152739.9154
        35.0004         33.6004
  -3681121.60042  -2849562.80545  24478737.009    24478738.3224   24478747.0984
        36.6004         34.6004
 -11899608.80346  -9249358.84547  20770769.337    20770769.8134   20770775.2764
        49.3004         46.6004
  -8333876.15445  -6478465.64346  22439237.901    22439236.6414   22439236.9454
        44.2004         41.4004
  -8345636.68445  -6480459.22546  22481591.649    22481591.5324   22481594.4334
        43.6004         41.1004
 -17603274.28246 -13701616.40647  21505218.733    21505217.7644   21505218.1824
        47.4004         44.5004
  -3248183.92743  -2511302.51746  23775672.936    23775675.2874   23775681.4144
        39.6004         37.3004
 -20639500.54947 -16059677.64248  20191115.630    20191115.9174   20191120.7364
        50.8004         48.0004
 16  6  8  2  4  0.0000000  0  8G19G30G 6G 2G 7G23G 3G 9
    916406.39442    736295.30545  25171838.279    25171838.8454   25171841.7124
        35.7004         34.3004
  -3794999.52642  -2938298.77345  24457066.807    24457068.8134   24457077.9014
        36.3004         34.5004
 -11870340.32346  -9226552.25247  20776339.060    20776339.3874   20776345.0444
        49.5004         46.6004
  -8398892.47645  -6529127.70446  22426865.142    22426864.7084   22426864.9124
        44.2004         41.6004
  -8437004.83145  -6551655.15446  22464203.998    22464204.6304   22464207.2074
        43.7004         41.2004
 -17544233.04146 -13655610.24647  21516453.113    21516453.1584   21516453.0894
        47.4004         44.5004
  -3153970.77943  -2437889.71046  23793604.486    23793603.8684   23793609.2954
        39.7004         37.3004
 -20624652.43347 -16048107.68948  20193941.589    20193941.7014   20193946.2834
        50.8004         48.2004
 16  6  8  2  4 30.0000000  0  8G19G30G 6G 2G 7G23G 3G 9
   1016827.68842    814545.66345  25190949.100    25190949.8074   25190951.5844
        36.6004         34.8004
  -3908841.11042  -3027006.47745  24435406.438    24435405.2434   24435410.4784
        36.1004         34.3004
 -11840484.03446  -9203287.62947  20782020.329    20782020.9694   20782026.4924
        49.5004         46.6004
  -8463492.35545  -6579465.26946  22414572.404    22414571.3774   22414571.5334
        44.2004         41.8004
  -8528079.64245  -6622622.53446  22446872.987    22446873.2864   22446876.0844
        43.9004         41.2004
 -17484905.53346 -13609381.03047  21527743.004    21527742.6004   21527743.3514
        47.2004         44.2004
  -3059610.97643  -2364362.60846  23811558.188    23811560.4874   23811566.4314
        39.7004         37.4004
 -20609373.40147 -16036201.95048  20196849.182    20196849.2984   20196853.7664
        50.8004         48.2004
 16  6  8  2  5  0.0000000  0  8G19G30G 6G 2G 7G23G 3G 9
   1117284.38342    892823.58545  25210065.936    25210064.5914   25210068.6114
        37.0004         35.0004
  -4022643.72942  -3115683.81445  24413750.586    24413749.0354   24413755.1584
        36.1004         34.5004
 -11810040.71146  -9179565.56747  20787813.542    20787813.8674   20787819.2694
        49.3004         46.5004
  -8527673.93645  -6629476.87846  22402358.710    22402358.3074   22402358.7744
        44.4004         41.8004
  -8618858.84245  -6693359.54546  22429599.116    22429599.2194   22429601.3974
        43.9004         41.2004
 -17425293.13546 -13562929.82047  21539087.049    21539086.6464   21539086.6234
        47.2004         44.4004
  -2965105.36343  -2290721.89246  23829546.023    23829544.6174   23829549.6404
        39.9004         37.6004
 -20593664.42047 -16023961.17948  20199838.359    20199838.4734   20199843.0534
        51.0004         48.2004
 16  6  8  2  5 30.0000000  0  8G19G30G 6G 2G 7G23G 3G 9
   1217773.69042    971126.93145  25229189.383    25229187.2884   25229189.5834
        37.0004         35.0004
  -4136404.87542  -3204328.83145  24392103.833    24392102.9144   24392107.1734
        36.4004         34.6004
 -11779011.15946  -9155386.70547  20793717.411    20793718.4704   20793724.1614
        49.3004         46.3004
  -8591434.97545  -6679160.79546  22390224.792    22390224.3364   22390225.1894
        44.4004         41.8004
  -8709339.93845  -6763864.26946  22412382.014    22412381.2934   22412383.8904
        44.1004         41.2004
 -17365397.21346 -13516257.69047  21550485.005    21550484.7884   21550484.7284
        47.2004         44.5004
  -2870454.78543  -2216968.21046  23847556.721    23847556.6084   23847560.9334
        40.1004         37.6004
 -20577526.46047 -16011386.13448  20202909.336    20202909.4394   20202914.2564
        51.0004         48.4004
 16  6  8  2  6  0.0000000  0  8G19G30G 6G 2G 7G23G 3G 9
   1318292.63042   1049453.34745  25248316.711    25248315.2914   25248318.3514
        37.3004         35.3004
  -4250122.03542  -3292939.60945  24370463.710    24370463.6134   24370464.7994
        36.3004         34.5004
 -11747396.17446  -9130751.66247  20799734.441    20799734.9704   20799740.1154
        49.1004         46.5004
  -8654773.20545  -6728515.24846  22378172.811    22378171.6864   22378172.3674
        44.6004         41.9004
  -8799520.83845  -6834135.08646  22395219.676    22395220.0154   22395223.3694
        43.9004         41.2004
 -17305219.14046 -13469365.69347  21561936.991    21561936.5444   21561935.8834
        47.4004         44.5004
  -2775660.18143  -2143102.33046  23865593.836    23865595.2894   23865599.6424
        39.7004         37.1004
 -20560960.57247 -15998477.64748  20206061.596    20206061.8984   20206066.4294
        51.0004         48.2004
 16  6  8  2  6 30.0000000  0  8G19G30G 6G 2G 7G23G 3G 9
   1418838.00042   1127800.35245  25267449.355    25267447.7844   25267452.5264
        37.5004         35.5004
  -4363792.67142  -3381514.08045  24348829.913    24348830.9614   24348835.4864
        36.1004         34.3004
 -11715196.62346  -9105661.10847  20805861.374    20805862.2204   20805867.4564
        49.1004         46.3004
  -8717686.57345  -6777538.64046  22366200.100    22366200.0134   22366200.3334
        44.8004         41.9004
  -8889398.41645  -6904169.53946  22378116.468    22378116.4654   22378119.5804
        43.9004         41.1004
 -17244760.39146 -13422254.98847  21573441.884    21573441.6044   21573441.3324
        47.4004         44.4004
  -2680722.38043  -2069124.81046  23883658.747    23883659.1294   23883664.6724
        39.4004         36.9004
 -20543967.72047 -15985236.45948  20209295.477    20209295.2594   20209300.2444
        51.0004         48.2004
 16  6  8  2  7  0.0000000  0  8G19G30G 6G 2G 7G23G 3G 9
   1519406.78743   1206165.59046  25286587.655    25286585.7404   25286589.8344
        37.8004         36.0004
  -4477414.23442  -3470050.29845  24327211.543    24327209.9214   24327214.2764
        36.4004         34.6004
 -11682413.34946  -9080115.71147  20812100.589    20812100.8634   20812105.9174
        49.1004         46.5004
  -8780172.99945  -6826229.35146  22354309.777    22354309.2594   22354309.7264
        44.8004         41.9004
  -8978970.31045  -6973965.79746  22361072.447    22361072.4314   22361074.2874
        43.9004         41.1004
 -17184022.39946 -13374926.68947  21584999.625    21584999.4534   21584999.2434
        47.4004         44.4004
  -2585642.21343  -1995036.39946  23901753.013    23901754.1904   23901758.7984
        39.2004         36.7004
 -20526548.95047 -15971663.38748  20212610.010    20212610.0284   20212614.8474
        51.0004         48.2004
 16  6  8  2  7 30.0000000  0  8G19G30G 6G 2G 7G23G 3G 9
   1619996.14243   1284546.85746  25305728.541    25305726.9344   25305731.3934
        38.2004         36.0004
  -4590984.18942  -3558546.32745  24305600.532    24305599.2664   24305605.6834
        36.6004         34.8004
 -11649047.24846  -9054116.15847  20818449.723    20818450.1334   20818455.7704
        49.3004         46.3004
  -8842230.44645  -6874585.78747  22342500.574    22342499.5354   22342501.0044
        44.8004         42.1004
  -9068234.14145  -7043522.02246  22344085.459    22344085.5214   22344087.7154
        43.9004         41.2004
 -17123006.60946 -13327381.92247  21596610.228    21596609.9164   21596610.8644
        47.2004         44.4004
  -2490420.62243  -1920837.74046  23919874.443    23919873.8474   23919878.1864
        39.0004         36.7004
 -20508705.26547 -15957759.21948  20216005.761    20216005.7414   20216010.0344
        51.0004         48.2004
 16  6  8  2  8  0.0000000  0  8G19G30G 6G 2G 7G23G 3G 9
   1720603.16943   1362941.91245  25324873.719    25324872.6564   25324875.1724
        38.0004         35.7004
  -4704499.93342  -3647000.12145  24283996.934    24283996.7824   24284004.5354
        37.0004         35.0004
 -11615099.23446  -9027663.16747  20824909.576    20824910.5464   20824915.4824
        49.3004         46.5004
  -8903856.67545  -6922606.20647  22330772.636    22330772.4604   22330773.9434
        44.9004         42.3004
  -9157187.51745  -7112836.33046  22327158.303    22327158.2914   22327160.8164
        44.1004         41.2004
 -17061714.45446 -13279621.81247  21608273.914    21608273.2054   21608274.0494
        47.2004         44.4004
  -2395058.47243  -1846529.59846  23938019.968    23938020.3484   23938024.3754
        39.0004         36.6004
 -20490437.65947 -15943524.72048  20219482.367    20219482.1234   20219486.0874
        51.0004         48.2004
 16  6  8  2  8 30.0000000  0  8G19G30G 6G 2G 7G23G 3G 9
   1821224.82143   1441348.33245  25344021.340    25344019.7364   25344024.0584
        37.8004         35.5004
  -4817958.96542  -3735409.72345  24262409.143    24262406.9824   24262415.0464
        37.1004         35.2004
 -11580570.23046  -9000757.45347  20831481.007    20831481.2644   20831485.9354
        49.3004         46.3004
  -8965049.75845  -6970289.11247  22319128.534    22319127.7054   22319128.5794
        45.1004         42.5004
  -9245827.96145  -7181906.78746  22310290.420    22310290.4944   22310293.7584
        44.2004         41.6004
 -17000147.36746 -13231647.46147  21619988.969    21619988.8864   21619989.9864
        47.0004         44.0004
  -2299556.58743  -1772112.52846  23956192.826    23956194.2954   23956200.0974
        38.9004         36.6004
 -20471747.18647 -15928960.71548  20223038.869    20223038.7654   20223042.8884
        51.0004         48.2004
 16  6  8  2  9  0.0000000  0  8G19G30G 6G 2G 7G23G 3G 9
   1921857.92443   1519763.68945  25363171.385    25363170.6894   25363173.4714
        37.8004         35.9004
  -4931358.69342  -3823773.12445  24240828.160    24240827.7074   24240837.6234
        37.3004         35.3004
 -11545461.21746  -8973399.79147  20838161.534    20838161.9034   20838167.0554
        49.1004         46.3004
  -9025807.29745  -7017632.63247  22307566.936    22307566.0644   22307566.4544
        45.3004         42.6004
  -9334153.01645  -7250731.48346  22293482.902    22293482.9794   22293486.4644
        44.4004         41.8004
 -16938306.46146 -13183459.75147  21631756.702    21631756.7774   21631757.3374
        46.9004         44.0004
  -2203915.82143  -1697587.31646  23974396.065    23974393.8334   23974400.7394
        38.9004         36.7004
 -20452634.87047 -15914068.00548  20226675.584    20226675.8014   20226679.6684
        51.0004         48.2004
 16  6  8  2  9 30.0000000  0  8G19G30G 6G 2G 7G23G 3G 9
   2022499.46143   1598185.65045  25382323.404    25382322.9004   25382324.9684
        37.6004         35.3004
  -5044696.60443  -3912088.34645  24219260.953    24219260.4954   24219269.8644
        37.6004         35.7004
 -11509773.15046  -8945590.91747  20844952.676    20844953.4114   20844958.4884
        49.1004         46.3004
  -9086127.31445  -7064635.22947  22296088.681    22296087.7984   22296088.6974
        45.3004         42.6004
  -9422160.30545  -7319308.57446  22276736.176    22276735.2784   22276738.6624
        44.4004         41.8004
 -16876193.41946 -13135059.97447  21643576.921    21643576.4174   21643577.6454
        46.9004         44.0004
  -2108137.14543  -1622954.62646  23992620.157    23992620.1154   23992626.6614
        39.2004         37.1004
 -20433101.76647 -15898847.40848  20230392.705    20230392.7604   20230396.8974
        51.0004         48.2004
 16  6  8  2 10  0.0000000  0  8G19G30G 6G 2G 7G23G 3G 9
   2123146.97942   1676612.30045  25401474.928    25401474.4804   25401478.0794
        36.8004         34.5004
  -5157970.12943  -4000353.39545  24197704.425    24197703.7524   24197711.9014
        37.6004         35.5004
 -11473507.03546  -8917331.61647  20851853.642    20851854.2584   20851859.7394
        49.1004         46.3004
  -9146007.80945  -7111295.34247  22284692.850    22284693.1044   22284693.6034
        45.3004         42.5004
  -9509847.35645  -7387636.12646  22260048.709    22260048.6414   22260052.4154
        44.6004         41.8004
 -16813809.71546 -13086449.29647  21655448.372    21655447.9574   21655448.7004
        46.9004         44.0004
  -2012221.40843  -1548215.12046  24010867.854    24010871.3764   24010877.9104
        39.2004         36.7004
 -20413148.92047 -15883299.74248  20234189.558    20234189.5504   20234193.6204
        51.0004         48.2004
 16  6  8  2 10 30.0000000  0  8G19G30G 6G 2G 7G23G 3G 9
   2223797.14642   1755040.97945  25420629.670    25420626.9274   25420629.7104
        36.4004         34.3004
  -5271176.72043  -4088566.28945  24176161.212    24176162.5554   24176169.5744
        37.6004         35.5004
 -11436663.92346  -8888622.70847  20858865.231    20858865.1034   20858870.5984
        49.1004         46.3004
  -9205446.90245  -7157611.48547  22273382.821    22273382.1484   22273383.0944
        45.3004         42.5004
  -9597212.10645  -7455712.54446  22243424.314    22243424.0814   22243426.9634
        44.8004         41.9004
 -16751156.50046 -13037628.62247  21667370.574    21667370.0314   21667371.0324
        46.7004         43.9004
  -1916169.48343  -1473369.46846  24029149.235    24029149.0624   24029155.9904
        38.9004         36.4004
 -20392777.39447 -15867425.82348  20238066.138    20238066.3874   20238070.1964
        51.0004         48.2004
 16  6  8  2 11  0.0000000  0  8G19G30G 6G 2G 7G23G 3G 9
   2324446.90942   1833469.34445  25439781.403    25439779.2354   25439784.1884
        35.7004         33.8004
  -5384313.75942  -4176725.00145  24154634.241    24154633.4204   24154640.6034
        37.5004         35.5004
 -11399244.81346  -8859464.97047  20865985.740    20865986.4024   20865991.2594
        49.1004         46.5004
  -9264442.27445  -7203581.88947  22262156.167    22262155.9264   22262156.7604
        45.5004         42.6004
  -9684251.72845  -7523535.61347  22226861.335    22226861.3304   22226864.1744
        44.8004         42.1004
 -16688235.23646 -12988599.06347  21679344.061    21679344.0084   21679344.7144
        46.7004         43.9004
  -1819982.23943  -1398418.40546  24047456.010    24047454.6704   24047457.9354
        38.9004         36.6004
 -20371988.23747 -15851226.47848  20242022.453    20242022.3854   20242026.5674
        51.0004         48.2004
 16  6  8  2 11 30.0000000  0  8G19G30G 6G 2G 7G23G 3G 9
   2425093.95542   1911895.61845  25458935.176    25458934.1694   25458936.0364
        35.0004         33.4004
  -5497378.71742  -4264827.52645  24133118.654    24133117.7744   24133125.3844
        37.5004         35.3004
 -11361250.81246  -8829859.25747  20873215.476    20873215.9044   20873221.1734
        49.1004         46.3004
  -9322991.99445  -7249205.01847  22251014.983    22251014.0424   22251013.9994
        45.5004         42.8004
  -9770963.72845  -7591103.39047  22210360.146    22210360.5404   22210362.9354
        44.8004         42.1004
 -16625047.57746 -12939361.93847  21691369.145    21691368.4064   21691368.7244
        46.7004         44.0004
  -1723660.54843  -1323362.58246  24065784.375    24065784.4404   24065788.2494
        38.9004         36.6004
 -20350782.53647 -15834702.55148  20246057.822    20246057.7654   20246061.7034
        51.0004         48.4004
 16  6  8  2 12  0.0000000  0  8G19G30G 6G 2G 7G23G 3G 9
   2525734.88341   1990317.05145  25478085.592    25478083.2944   25478082.5564
        34.0004         32.6004
  -5610369.08543  -4352871.94645  24111616.846    24111617.7784   24111623.1764
        37.8004         35.9004
 -11322682.99146  -8799806.41447  20880553.988    20880554.9354   20880560.5174
        48.9004         46.1004
  -9381093.92345  -7294479.22047  22239958.541    22239957.6834   22239958.0374
        45.6004         42.8004
  -9857346.08545  -7658414.29347  22193922.913    22193922.9894   22193925.7064
        44.9004         42.1004
 -16561594.54746 -12889918.02547  21703443.261    21703442.6794   21703443.0764
        46.7004         43.9004
  -1627205.38043  -1248202.74746  24084136.366    24084139.3704   24084144.0284
        38.9004         36.6004
 -20329161.34447 -15817854.87248  20250171.764    20250171.8264   20250176.3174
        51.0004         48.2004
 16  6  8  2 12 30.0000000  0  9G19G30G 6G 2G 7G23G 3G16G 9
   2626366.64641   2068731.41745  25497234.646    25497236.6194   25497239.5044
        33.3004         32.2004
  -5723282.21743  -4440856.17345  24090128.120    24090128.7354   24090138.7794
        38.0004         35.9004
 -11283542.49446  -8769307.34247  20888003.210    20888003.8424   20888008.8644
        48.9004         46.3004
  -9438746.19245  -7339403.05247  22228987.454    22228986.5724   22228986.8614
        45.6004         42.8004
  -9943396.05745  -7725466.21347  22177547.538    22177547.7994   22177550.1214
        45.1004         42.3004
 -16497877.76246 -12840268.58947  21715568.483    21715567.9614   21715568.5554
        46.7004         43.9004
  -1530617.54143  -1172939.51346  24102519.676    24102518.4954   24102524.5444
        38.7004         36.6004
                     -3203.79353  24614241.710
                        23.4004
 -20307125.77747 -15800684.29848  20254365.106    20254365.1894   20254369.7144
        51.0004         48.4004
 16  6  8  2 13  0.0000000  0  9G19G30G 6G 2G 7G23G 3G16G 9
   2726986.56051   2147136.45255  25516382.699    25516381.2534
        32.6004         31.9004
  -5836115.57143  -4528778.19146  24068657.006    24068657.3694   24068667.1534
        38.3004         36.2004
 -11243830.41246  -8738362.87047  20895560.039    20895560.2914   20895565.6414
        49.1004         46.1004
  -9495946.63745  -7383974.82447  22218102.588    22218101.9844   22218101.9044
        45.6004         42.8004
 -10029111.18445  -7792257.20047  22161237.034    22161236.9754   22161239.0524
        45.1004         42.5004
 -16433898.65346 -12790414.74047  21727742.869    21727742.6284   21727743.8654
        46.7004         43.9004
  -1433897.96143  -1097573.63946  24120923.668    24120923.2294   24120930.2064
        38.9004         36.6004
                    -45429.29545  24603929.052
                        33.3004
 -20284676.87047 -15783191.64448  20258636.965    20258637.1414   20258641.5094
        51.0004         48.4004
 16  6  8  2 13 30.0000000  0  8G19G30G 6G 2G 7G23G 3G 9
   2827591.0055    2225529.46255  25535527.015    25535519.5964
        31.4004         30.8004
  -5948866.49843  -4616636.00646  24047202.096    24047202.0604   24047210.7064
        38.7004         36.4004
 -11203547.94246  -8706973.94147  20903225.100    20903225.7984   20903230.8374
        48.9004         45.9004
  -9552693.34345  -7428193.01747  22207304.116    22207303.3934   22207304.2194
        45.6004         43.0004
 -10114489.23045  -7858785.53047  22144989.748    22144990.1614   22144992.0744
        45.3004         42.5004
 -16369658.40246 -12740357.39947  21739967.617    21739967.3444   21739967.5164
        46.7004         43.7004
  -1337047.58743  -1022105.81046  24139353.148    24139353.3404   24139360.5614
        38.9004         36.6004
 -20261815.81047 -15765377.82748  20262987.213    20262987.1024   20262991.7224
        51.0004         48.2004
 16  6  8  2 14  0.0000000  0  9G19G30G 6G 2G 7G23G 3G16G 9
                   2303908.20254  25554665.653
                        29.3004
  -6061532.51743  -4704427.65646  24025763.303    24025763.3264   24025769.8504
        38.7004         36.6004
 -11162696.22046  -8675141.44347  20910999.039    20910999.7414   20911004.7244
        48.8004         45.9004
  -9608984.31745  -7472056.09647  22196592.619    22196592.0614   22196592.1444
        45.8004         43.2004
 -10199527.88245  -7925049.39347  22128807.551    22128807.8634   22128809.3664
        45.1004         42.5004
 -16305158.71246 -12690097.90647  21752240.485    21752240.5524   21752241.8874
        46.5004         43.7004
  -1240067.18943   -946536.70446  24157809.617    24157808.0974   24157814.7224
        38.5004         36.4004
                   -128809.21045  24583564.380                    24583567.6934
                        34.5004
 -20238543.60047 -15747243.63748  20267415.390    20267415.5804   20267420.1324
        51.0004         48.2004
 16  6  8  2 14 30.0000000  0  9G19G30G 6G 2G 7G23G 3G16G 9
                   2382271.69455  25573807.725
                        30.0004
  -6174111.01443  -4792151.12346  24004341.987    24004341.2844   24004347.2964
        39.0004         36.7004
 -11121276.47646  -8642866.32247  20918881.337    20918881.5994   20918887.1834
        48.8004         45.9004
  -9664817.73945  -7515562.64347  22185967.228    22185966.4924   22185967.5674
        46.0004         43.3004
 -10284224.78345  -7991046.94447  22112690.651    22112689.8214   22112692.4384
        45.1004         42.3004
 -16240400.86146 -12639637.23947  21764564.232    21764563.8254   21764565.1284
        46.5004         43.7004
  -1142957.79543   -870867.04146  24176286.540    24176288.0424   24176293.5414
        38.5004         36.4004
   -231396.09642   -169959.44345  24573513.121    24573513.2404   24573518.5384
        35.7004         34.5004
 -20214861.35447 -15728789.93248  20271922.350    20271922.3454   20271926.7664
        50.8004         48.0004
 16  6  8  2 15  0.0000000  0  9G19G30G 6G 2G 7G23G 3G16G 9
                     37240.25053  25592940.317
                        23.4004
  -6286599.44443  -4879804.41046  23982936.035    23982935.5014   23982941.3764
        39.0004         36.6004
 -11079289.93346  -8610149.53547  20926870.557    20926870.9274   20926876.6084
        48.6004         45.8004
  -9720191.44345  -7558710.97647  22175429.992    22175430.1874   22175430.1384
        46.2004         43.3004
 -10368577.56045  -8056776.36347  22096637.885    22096637.9064   22096640.1414
        45.1004         42.3004
 -16175386.00346 -12588976.31547  21776936.367    21776935.9074   21776936.8924
        46.5004         43.5004
  -1045720.25443   -795097.54145  24194790.651    24194790.7284   24194796.0684
        38.3004         35.9004
   -283740.44542   -210747.23845  24563550.116    24563553.8814   24563558.4024
        35.9004         34.3004
 -20190770.21447 -15710017.61648  20276506.892    20276507.0854   20276511.1284
        51.0004         48.2004
 16  6  8  2 15 30.0000000  0  9G19G30G 6G 2G 7G23G 3G16G 9
                    115496.15255  25612064.898
                        30.0004
  -6398995.21543  -4967385.44846  23961544.921    23961546.0474   23961552.4104
        38.9004         36.7004
 -11036737.81246  -8576992.04447  20934967.651    20934968.3454   20934973.9734
        48.6004         45.6004
  -9775103.43345  -7601499.53647  22164981.006    22164980.1824   22164979.8494
        46.0004         43.0004
 -10452583.80045  -8122235.75147  22080651.155    22080652.0634   22080654.7324
        45.1004         42.3004
 -16110115.57846 -12538116.24347  21789357.501    21789356.8654   21789357.0774
        46.5004         43.7004
   -948355.46143   -719228.92145  24213320.359    24213318.8394   24213323.6174
        37.8004         35.3004
   -335616.64652   -251170.24055  24553683.673    24553681.2004   24553687.3574
        35.7004         34.1004
 -20166271.30047 -15690927.54448  20281169.242    20281169.1974   20281173.2524
        51.0004         48.2004
 16  6  8  2 16  0.0000000  0  9G19G30G 6G 2G 7G23G 3G16G 9
                    193689.39654  25631186.663
                        29.8004
  -6511295.72743  -5054892.27346  23940176.170    23940175.8074   23940182.9974
        38.7004         36.2004
 -10993621.40646  -8543394.84847  20943173.124    20943173.5514   20943179.0864
        48.6004         45.8004
  -9829551.77845  -7643926.81147  22154619.090    22154618.6224   22154619.3984
        46.0004         43.0004
 -10536241.21145  -8187423.32447  22064733.046    22064732.5734   22064734.9684
        45.1004         42.5004
 -16044591.50046 -12487058.52447  21801825.970    21801825.4434   21801826.4294
        46.5004         43.7004
   -850864.33343   -643261.86245  24231868.759    24231869.9134   24231877.2824
        37.6004         35.5004
   -387022.55242   -291226.77345  24543896.249    24543899.0054   24543903.8074
        35.2004         33.6004
 -20141365.69647 -15671520.58048  20285908.576    20285908.4054   20285912.5904
        51.0004         48.2004
 16  6  8  2 16 30.0000000  0  8G30G 6G 2G 7G23G 3G16G 9
  -6623498.40543  -5142322.87446  23918824.226    23918823.2754   23918831.2054
        38.7004         36.2004
 -10949941.97946  -8509358.94347  20951485.458    20951485.6854   20951491.0884
        48.6004         45.9004
  -9883534.56745  -7685991.31647  22144346.689    22144346.3754   22144346.5084
        45.8004         43.0004
 -10619547.49045  -8252337.29647  22048879.869    22048879.8254   22048882.9414
        45.3004         42.5004
 -15978814.66745 -12435803.85347  21814342.943    21814342.5274   21814342.6014
        46.3004         43.5004
   -753247.82942   -567197.09045  24250443.406    24250445.4244   24250451.5794
        37.5004         35.3004
   -437956.10942   -330915.30645  24534210.069    24534209.3204   24534210.7754
        35.0004         33.3004
 -20116054.59547 -15651797.63848  20290724.913    20290724.6954   20290729.1254
        50.8004         48.0004
 16  6  8  2 17  0.0000000  0  8G30G 6G 2G 7G23G 3G16G 9
  -6735600.60543  -5229675.17646  23897493.253    23897492.3064   23897497.6684
        38.5004         36.2004
 -10905700.87146  -8474885.36347  20959903.503    20959904.4674   20959909.8614
        48.8004         45.9004
  -9937049.87845  -7727691.54947  22134163.016    22134162.0374   22134163.1454
        45.8004         42.8004
 -10702500.31645  -8316975.83147  22033093.824    22033094.2094   22033096.8534
        45.3004         42.5004
 -15912786.27145 -12384353.17547  21826907.953    21826907.8184   21826908.0464
        46.3004         43.7004
   -655506.81442   -491035.31045  24269049.448    24269045.9534   24269054.0924
        37.5004         35.5004
   -488414.56042   -370233.56745  24524606.296    24524605.9264   24524606.4054
        35.4004         34.0004
 -20090339.07247 -15631759.57248  20295617.903    20295617.9714   20295622.7394
        50.8004         48.0004
 16  6  8  2 17 30.0000000  0  8G30G 6G 2G 7G23G 3G16G 9
  -6847599.82043  -5316947.22646  23876180.549    23876179.7934   23876184.7274
        38.5004         36.4004
 -10860899.39746  -8439975.12647  20968429.268    20968429.7484   20968435.3714
        48.8004         45.9004
  -9990095.86145  -7769026.07747  22124068.545    22124067.9614   22124068.4204
        45.8004         43.0004
 -10785097.52645  -8381337.28347  22017376.417    22017377.1044   22017379.6094
        45.3004         42.6004
 -15846507.95145 -12332707.73447  21839520.469    21839520.4334   21839519.8414
        46.3004         43.5004
   -557642.19543   -414777.25045  24287671.393    24287668.7714   24287675.5014
        37.6004         35.7004
   -538395.26542   -409179.54545  24515094.838    24515093.9834   24515098.3124
        35.9004         34.1004
 -20064220.28447 -15611407.26548  20300588.664    20300588.5214   20300592.9864
        50.8004         48.2004
 16  6  8  2 18  0.0000000  0  8G30G 6G 2G 7G23G 3G16G 9
  -6959493.42243  -5404136.99746  23854887.126    23854886.1564   23854890.8044
        38.5004         36.4004
 -10815538.86246  -8404629.26147  20977060.959    20977061.6184   20977067.1734
        48.8004         45.9004
 -10042670.90245  -7809993.63747  22114064.139    22114063.3464   22114064.3384
        45.8004         43.2004
 -10867336.30545  -8445419.42247  22001727.106    22001727.7704   22001729.3984
        45.5004         42.8004
 -15779981.09145 -12280868.62447  21852180.296    21852179.6764   21852178.9914
        46.2004         43.3004
   -459654.96543   -338423.56745  24306310.379    24306315.1544   24306320.9914
        37.8004         35.7004
   -587895.53242   -447751.18445  24505675.450    24505674.4134   24505673.9334
        35.9004         34.1004
 -20037699.38147 -15590741.62548  20305635.426    20305635.5774   20305639.6634
        51.0004         48.2004
 16  6  8  2 18 30.0000000  0  8G30G 6G 2G 7G23G 3G16G 9
  -7071278.82643  -5491242.44546  23833614.231    23833613.9894   23833618.8544
        38.7004         36.4004
 -10769620.70746  -8368848.89047  20985799.073    20985799.8044   20985804.2244
        48.8004         45.9004
 -10094772.67645  -7850592.41547  22104149.113    22104148.4214   22104149.5434
        45.8004         42.8004
 -10949214.82745  -8509220.86447  21986144.834    21986146.3524   21986148.6694
        45.5004         42.6004
 -15713207.13445 -12228836.97047  21864886.767    21864885.6894   21864886.3264
        46.2004         43.3004
   -361545.87743   -261974.92745  24324986.107    24324985.2734   24324990.8974
        38.2004         35.9004
   -636913.36842   -485946.82445  24496347.931    24496345.7284   24496349.2804
        35.9004         34.0004
 -20010777.48647 -15569763.52348  20310758.368    20310758.3584   20310762.5464
        51.0004         48.2004
 16  6  8  2 19  0.0000000  0  8G30G 6G 2G 7G23G 3G16G 9
  -7182953.44743  -5578261.57346  23812363.904    23812362.9214   23812368.5274
        38.9004         36.6004
 -10723146.29546  -8332635.07147  20994643.224    20994643.4964   20994648.6974
        48.8004         46.1004
 -10146399.41845  -7890821.03847  22094324.822    22094324.2654   22094325.5734
        45.8004         43.2004
 -11030730.63145  -8572739.66347  21970633.482    21970633.8574   21970636.8304
        45.6004         42.8004
 -15646187.51045 -12176613.89147  21877639.243    21877638.7144   21877639.9384
        46.2004         43.2004
   -263315.94443   -185432.17845  24343681.987    24343679.0044   24343682.4194
        38.0004         35.7004
   -685445.99942   -523764.46345  24487112.564    24487110.7164   24487115.2524
        35.9004         34.3004
 -19983455.76947 -15548473.86048  20315957.447    20315957.2804   20315961.7354
        51.0004         48.2004
 16  6  8  2 19 30.0000000  0  8G30G 6G 2G 7G23G 3G16G 9
  -7294514.69843  -5665192.36346  23791136.985    23791135.3894   23791138.6214
        39.2004         36.7004
 -10676117.05846  -8295988.91547  21003592.105    21003592.6244   21003598.3494
        48.9004         46.1004
 -10197549.22245  -7930678.01747  22084592.052    22084590.8024   22084592.1844
        46.0004         43.2004
 -11111881.57345  -8635974.14647  21955190.650    21955191.7904   21955195.5414
        45.8004         42.8004
 -15578923.43145 -12124200.33147  21890439.449    21890438.7974   21890439.7114
        46.0004         43.2004
   -164966.06543   -108795.93345  24362396.104    24362393.3354   24362397.4634
        37.6004         35.5004
   -733491.00342   -561202.14645  24477969.761    24477968.4634   24477975.3324
        36.1004         34.3004
 -19955735.40847 -15526873.57648  20321232.282    20321232.5694   20321236.9894
        51.0004         48.2004
 16  6  8  2 20  0.0000000  0  8G30G 6G 2G 7G23G 3G16G 9
  -7405959.97843  -5752032.76646  23769930.059    23769928.7174   23769933.2924
        39.4004         37.1004
 -10628534.39446  -8258911.51647  21012646.500    21012647.2494   21012652.7354
        48.8004         45.8004
 -10248220.35245  -7970162.01947  22074949.718    22074948.8144   22074949.9824
        46.2004         43.3004
 -11192665.25945  -8698922.45447  21939820.067    21939819.5544   21939822.0534
        45.8004         43.0004
 -15511416.25245 -12071597.34047  21903285.203    21903284.9064   21903285.8014
        45.8004         43.0004
    -66497.22643    -32066.97545  24381126.153    24381130.9224   24381136.8484
        37.6004         35.3004
   -781045.85242   -598257.87245  24468924.110    24468920.9784   24468922.3464
        36.4004         34.6004
 -19927617.55947 -15504963.56448  20326582.796    20326583.0754   20326587.6274
        51.0004         48.2004
 16  6  8  2 20 30.0000000  0  8G30G 6G 2G 7G23G 3G16G 9
  -7517286.72843  -5838780.81246  23748743.497    23748742.4104   23748747.9294
        39.6004         37.3004
 -10580399.78546  -8221404.03547  21021806.416    21021806.7614   21021811.9924
        48.6004         45.8004
 -10298411.02745  -8009271.63547  22065398.663    22065398.0774   22065398.8884
        46.0004         43.2004
 -11273079.47545  -8761582.86147  21924517.122    21924516.9084   21924519.8294
        46.0004         43.2004
 -15443667.18245 -12018805.86747  21916177.499    21916176.7364   21916177.9354
        45.8004         43.0004
     32089.66342     44753.97345  24399886.334    24399889.5694   24399898.3144
        37.3004         35.2004
   -828108.44642   -634929.97245  24459961.633    24459963.5354   24459966.5404
        36.1004         34.1004
 -19899103.37047 -15482744.71248  20332009.552    20332009.5394   20332013.6354
        51.0004         48.2004
 16  6  8  2 21  0.0000000  0  8G30G 6G 2G 7G23G 3G16G 9
  -7628492.29243  -5925434.43446  23727579.713    23727579.8734   23727586.0384
        39.6004         37.1004
 -10531714.70746  -8183467.62647  21031071.396    21031071.7374   21031077.1714
        48.6004         45.8004
 -10348119.19545  -8048005.27647  22055939.585    22055938.6154   22055939.3834
        45.8004         42.8004
 -11353121.85845  -8823953.54047  21909284.064    21909285.5374   21909288.1724
        46.0004         43.3004
 -15375677.67545 -11965827.03547  21929115.258    21929115.1514   21929116.2374
        45.8004         43.2004
    130793.71442    121666.20045  24418670.297    24418672.1434   24418680.0264
        37.1004         35.0004
   -874676.39242   -671216.68245  24451102.850    24451102.9734   24451106.8564
        36.1004         34.3004
 -19870193.99347 -15460217.91948  20337510.639    20337510.5874   20337514.8144
        51.0004         48.2004
 16  6  8  2 21 30.0000000  0  8G30G 6G 2G 7G23G 3G16G 9
  -7739574.11743  -6011991.64046  23706442.283    23706441.4844   23706448.8184
        39.7004         37.3004
 -10482480.64246  -8145103.41847  21040440.196    21040440.4364   21040445.8624
        48.6004         45.8004
 -10397343.24045  -8086361.67447  22046572.677    22046571.3974   22046572.3514
        45.6004         42.6004
 -11432790.34745  -8886032.87047  21894124.479    21894125.1704   21894127.7354
        46.0004         43.2004
 -15307449.23845 -11912662.02547  21942098.725    21942098.7094   21942099.7934
        45.8004         43.2004
    229614.03442    198669.02845  24437482.501    24437479.4734   24437485.2674
        37.1004         35.3004
   -920747.62342   -707116.28745  24442339.558    24442333.9524   24442339.3084
        36.1004         34.3004
 -19840890.64047 -15437384.13948  20343086.829    20343086.9404   20343091.1774
        51.0004         48.2004
 16  6  8  2 22  0.0000000  0  8G30G 6G 2G 7G23G 3G16G 9
  -7850529.57343  -6098450.38546  23685328.253    23685327.5444   23685333.4114
        39.6004         37.1004
 -10432699.13546  -8106312.63847  21049912.898    21049913.4544   21049919.0664
        48.6004         45.6004
 -10446081.34445  -8124339.41047  22037297.934    22037297.2514   22037297.8244
        45.5004         42.5004
 -11512082.58345  -8947819.01847  21879035.349    21879035.9894   21879038.8104
        46.0004         43.3004
 -15238983.50645 -11859312.12147  21955128.224    21955127.9104   21955127.6814
        46.0004         43.3004
    328549.55442    275761.58245  24456307.282    24456305.2224   24456312.1534
        37.1004         35.2004
   -966319.48342   -742626.77745  24433660.147    24433663.2994   24433668.1044
        35.6004         33.8004
 -19811194.50147 -15414244.29048  20348737.864    20348737.8734   20348742.0114
        51.0004         48.2004
 16  6  8  2 22 30.0000000  0  8G30G 6G 2G 7G23G 3G16G 9
  -7961356.08143  -6184808.65246  23664238.916    23664238.7694   23664242.5714
        39.4004         36.9004
 -10382371.68146  -8067096.45147  21059490.526    21059491.0284   21059495.9664
        48.6004         45.8004
 -10494331.67445  -8161937.05647  22028115.908    22028115.6244   22028115.8924
        45.5004         42.6004
 -11590996.46745  -9009310.33747  21864019.112    21864019.6054   21864022.1194
        46.2004         43.3004
 -15170281.36345 -11805777.98747  21968201.195    21968201.0574   21968201.4004
        45.8004         43.0004
    427599.38742    352943.26345  24475151.871    24475154.9144   24475159.7414
        37.1004         35.2004
  -1011389.50842   -777746.28145  24425089.011    24425085.8454   24425090.7424
        35.6004         33.8004
 -19781106.72847 -15390799.26548  20354462.969    20354463.1894   20354467.6414
        51.0004         48.0004
 16  6  8  2 23  0.0000000  0  8G30G 6G 2G 7G23G 3G16G 9
  -8072051.06743  -6271064.44046  23643173.769    23643174.3394   23643179.7104
        39.2004         36.7004
 -10331499.86146  -8027456.08047  21069170.673    21069171.3344   21069176.5044
        48.6004         45.8004
 -10542092.48945  -8199153.28847  22019027.709    22019026.7644   22019027.1784
        45.3004         42.3004
 -11669529.83945  -9070505.16147  21849076.422    21849075.6744   21849077.2194
        46.3004         43.7004
 -15101343.72445 -11752060.34247  21981320.670    21981320.6994   21981319.7364
        45.8004         43.2004
    526762.58042    430213.28145  24494020.999    24494025.6394   24494030.1174
        37.3004         35.3004
  -1055955.59742   -812473.08745  24416605.423    24416605.1454   24416608.3014
        35.0004         33.6004
 -19750628.53447 -15367050.01548  20360262.588    20360262.8294   20360267.3554
        50.8004         48.0004
 16  6  8  2 23 30.0000000  0  8G30G 6G 2G 7G23G 3G16G 9
  -8182611.88043  -6357215.68346  23622135.582    23622134.3244   23622140.3464
        39.0004         36.7004
 -10280085.24846  -7987392.74447  21078954.079    21078954.5984   21078960.2344
        48.4004         45.4004
 -10589362.03145  -8235986.69647  22010032.201    22010032.1864   22010031.7914
        44.9004         42.1004
 -11747680.13546  -9131401.47447  21834203.727    21834203.5814   21834205.8794
        46.5004         43.7004
 -15032172.71945 -11698160.86547  21994482.393    21994481.7384   21994482.7144
        45.8004         43.0004
    626038.28742    507570.92745  24512917.173    24512916.3804   24512921.8454
        37.3004         35.2004
  -1100015.47342   -846805.50145  24408223.328    24408223.9234   24408227.0444
        35.4004         34.1004
 -19719761.10447 -15342997.47748  20366137.104    20366136.8664   20366141.3984
        50.8004         48.0004
 16  6  8  2 24  0.0000000  0  8G30G 6G 2G 7G23G 3G16G 9
  -8293035.92043  -6443260.35546  23601121.335    23601121.4964   23601126.3194
        39.0004         36.6004
 -10228129.43546  -7946907.70847  21088841.519    21088841.7914   21088847.1824
        48.2004         45.4004
 -10636138.54345  -8272435.92047  22001131.022    22001130.1054   22001130.7874
        45.1004         42.5004
 -11825445.62846  -9191997.94447  21819405.724    21819405.5274   21819407.9664
        46.5004         43.7004
 -14962769.52045 -11644080.46147  22007690.648    22007690.0294   22007689.1944
        45.8004         42.8004
    725425.52842    585015.49745  24531835.347    24531831.2034   24531835.5494
        37.1004         35.2004
  -1143566.98642   -880741.67945  24399937.407    24399936.3674   24399937.6244
        35.6004         34.0004
 -19688505.62647 -15318642.56048  20372084.286    20372084.2684   20372089.0734
        50.8004         48.0004
 16  6  8  2 24 30.0000000  0  8G30G 6G 2G 7G23G 3G16G 9
  -8403320.64643  -6529196.46846  23580134.876    23580134.6654   23580140.2894
        39.0004         36.9004
 -10175634.04446  -7906002.21447  21098830.609    21098831.1714   21098836.6764
        48.2004         45.4004
 -10682420.26145  -8308499.59847  21992324.318    21992323.7034   21992323.8484
        45.3004         42.6004
 -11902823.79446  -9252292.59947  21804680.985    21804680.8764   21804682.8324
        46.5004         43.9004
 -14893135.31745 -11589820.05747  22020940.866    22020940.4064   22020940.5744
        45.8004         43.0004
    824923.32442    662546.19545  24550765.115    24550763.4194   24550769.1124
        37.5004         35.2004
  -1186607.95342   -914280.04545  24391750.821    24391745.9654   24391746.5084
        35.9004         34.1004
 -19656863.31147 -15293986.21148  20378105.610    20378105.7534   20378110.2194
        50.8004         48.0004
 16  6  8  2 25  0.0000000  0  8G30G 6G 2G 7G23G 3G16G 9
  -8513463.40543  -6615021.93746  23559176.681    23559175.7654   23559181.2124
        39.2004         36.9004
 -10122600.69946  -7864677.53047  21108922.806    21108923.0404   21108928.6184
        48.2004         45.4004
 -10728205.52945  -8344176.42847  21983610.475    21983609.9544   21983611.0954
        45.3004         42.3004
 -11979812.37746  -9312283.68647  21790029.160    21790030.3784   21790032.3454
        46.5004         43.7004
 -14823271.54845 -11535380.76947  22034235.495    22034235.1194   22034235.7134
        45.8004         43.0004
    924530.64442    740162.30145  24569711.257    24569716.8874   24569724.0314
        37.5004         35.3004
  -1229135.80142   -947418.57645  24383652.499    24383651.9474   24383657.5474
        36.1004         34.5004
 -19624835.35447 -15269029.35547  20384200.873    20384200.6174   20384205.2124
        50.7004         47.8004
 16  6  8  2 25 30.0000000  0  8G30G 6G 2G 7G23G 3G16G 9
  -8623461.64543  -6700734.78946  23538243.905    23538243.7554   23538249.4404
        39.4004         37.1004
 -10069031.06446  -7822934.96547  21119116.654    21119117.2014   21119122.4724
        48.1004         45.2004
 -10773492.55145  -8379465.01847  21974993.757    21974992.4354   21974993.2474
        45.5004         42.6004
 -12056409.32346  -9371969.59447  21775454.236    21775454.5654   21775456.8844
        46.5004         43.7004
 -14753179.54645 -11480763.63447  22047573.769    22047573.3664   22047574.1544
        45.8004         42.8004
   1024246.72742    817863.13145  24588690.384    24588691.8124   24588700.0644
        37.1004         35.0004
  -1271148.20442   -980155.51845  24375655.760    24375655.9934   24375659.3224
        36.1004         34.3004
 -19592422.96247 -15243772.93847  20390368.492    20390368.5044   20390372.7624
        50.7004         47.8004
 16  6  8  2 26  0.0000000  0  8G30G 6G 2G 7G23G 3G16G 9
  -8733312.68743  -6786332.95746  23517339.990    23517339.3924   23517344.0064
        39.6004         37.1004
 -10014926.80746  -7780775.80847  21129412.423    21129412.7294   21129418.1554
        48.1004         45.2004
 -10818279.92245  -8414364.25747  21966469.849    21966469.7214   21966471.0524
        45.5004         42.8004
 -12132612.76446  -9431348.86947  21760954.397    21760953.2774   21760956.0134
        46.5004         43.7004
 -14682860.67945 -11425969.72447  22060954.483    22060954.6684   22060954.9184
        45.6004         42.8004
   1124070.53442    895647.84045  24607688.258    24607689.1184   24607695.4004
        37.5004         35.5004
  -1312643.73442  -1012489.63945  24367755.156    24367758.0334   24367764.0754
        35.9004         34.3004
 -19559627.37147 -15218217.92948  20396609.505    20396609.6424   20396613.6624
        50.8004         48.0004
 16  6  8  2 26 30.0000000  0  8G30G 6G 2G 7G23G 3G16G 9
  -8843013.99343  -6871814.40946  23496464.174    23496463.2744   23496468.8704
        39.6004         37.3004
  -9960289.64146  -7738201.40147  21139809.693    21139810.1054   21139815.4134
        48.1004         45.2004
 -10862565.66845  -8448872.63947  21958043.589    21958042.6884   21958043.0364
        45.5004         42.8004
 -12208420.30746  -9490419.66647  21746527.345    21746527.1424   21746530.2474
        46.5004         43.7004
 -14612316.10445 -11370999.92647  22074380.475    22074379.4314   22074379.5484
        45.6004         42.8004
   1224001.08942    973515.75745  24626707.541    24626704.5264   24626710.7154
        37.5004         35.3004
  -1353619.92942  -1044419.10445  24359959.366    24359960.9234   24359961.8204
        35.6004         33.8004
 -19526449.78047 -15192365.25847  20402923.004    20402923.1184   20402927.0114
        50.7004         47.8004
