     2.11           OBSERVATION DATA    M (MIXED)           RINEX VERSION / TYPE
teqc  2015Nov6      anonyme             20160627 12:33:17UTCPGM / RUN BY / DATE
Linux 2.4.21-27.ELsmp|Opteron|gcc|Linux x86_64|=+           COMMENT
-Unknown-                                                   MARKER NAME
-Unknown-           -Unknown-                               OBSERVER / AGENCY
-Unknown-           U-BLOX              -Unknown-           REC # / TYPE / VERS
-Unknown-           UBLOX           NONE                    ANT # / TYPE
        0.0000        0.0000        0.0000                  APPROX POSITION XYZ
        0.0000        0.0000        0.0000                  ANTENNA: DELTA H/E/N
     1     0                                                WAVELENGTH FACT L1/2
     4    L1    C1    S1    D1                              # / TYPES OF OBSERV
 SNR is mapped to RINEX snr flag value [0-9]                COMMENT
  L1 & L2: min(max(int(snr_dBHz/6), 0), 9)                  COMMENT
  2016     6     8     0     1    0.0000000     GPS         TIME OF FIRST OBS
    17                                                      LEAP SECONDS
                                                            END OF HEADER
 16  6  8  0  1  0.0000000  0 11G09G22G17S20G23G03G06G11G31G01G19
 -11405502.380 7  22043478.284          47.000        4245.068
 -21475402.992 7  21847177.915          44.000       -1095.860
 -10421536.041 8  22012149.865          49.000        -305.988
         0.87517  38375696.879          42.000        1104.139
 -21900133.777 8  20906888.244          49.000        2625.106
 -26356190.969 8  20527231.273          49.000          -8.566
 -10232035.087 7  22462815.532          42.000        4118.937
 -16794692.486 7  24680919.733          43.000       -2811.596
 -10284193.479 7  23546482.465          43.000         216.447
 -26681359.378 7  22591564.426          42.000       -2001.999
 -18355741.660 6  22062049.897          36.000        1049.626
 16  6  8  0  2  0.0000000  0 11G09G22G17S20G23G03G06G11G31G01G19
 -11659562.090 7  21995131.584          47.000        4223.454
 -21409247.960 7  21859763.893          42.000       -1109.395
 -10402105.330 8  22015846.929          48.000        -341.563
    -66219.465 7  38363093.930          42.000        1103.458
 -22056704.236 8  20877093.699          48.000        2594.142
 -26355030.831 8  20527453.188          49.000         -30.330
 -10478689.090 7  22415879.848          43.000        4102.883
 -16625888.922 7  24713044.432          44.000       -2815.150
 -10296019.383 7  23544231.736          43.000         178.000
 -26560721.753 7  22614522.508          44.000       -2018.928
 -18417526.324 6  22050298.397          41.000        1007.922
 16  6  8  0  3  0.0000000  0 11G09G22G17S20G23G03G06G11G31G01G19
 -11912330.521 7  21947032.746          47.000        4202.313
 -21342272.240 7  21872510.396          43.000       -1122.679
 -10380561.607 8  22019945.846          48.000        -376.431
   -132445.573 7  38350491.514          42.000        1103.839
 -22211429.215 8  20847649.030          48.000        2563.655
 -26352574.254 8  20527920.025          49.000         -51.471
 -10724354.294 7  22369129.501          44.000        4086.620
 -16456930.759 7  24745197.497          44.000       -2816.775
 -10305544.702 7  23542418.021          42.000         140.125
 -26439077.484 7  22637672.342          44.000       -2034.981
 -18476769.012 6  22039025.478          39.000         967.210
 16  6  8  0  4  0.0000000  0 11G09G22G17S20G23G03G06G11G31G01G19
 -12163789.481 7  21899181.387          47.000        4179.377
 -21274478.466 6  21885407.293          40.000       -1137.195
 -10356917.737 8  22024446.964          49.000        -411.875
   -198666.073 7  38337890.886          42.000        1103.510
 -22364299.717 8  20818559.151          48.000        2532.083
 -26348823.136 8  20528634.986          49.000         -73.531
 -10969009.288 7  22322574.676          45.000        4068.460
 -16287831.674 7  24777375.410          43.000       -2819.978
 -10312773.604 7  23541043.965          42.000         101.015
 -26316435.192 7  22661010.551          42.000       -2052.138
 -18533469.018 6  22028235.153          40.000         924.079
 16  6  8  0  5  0.0000000  0 11G09G22G17S20G23G03G06G11G31G01G19
 -12413897.406 7  21851586.930          46.000        4157.517
 -21205845.563 7  21898470.064          44.000       -1150.855
 -10331159.653 8  22029350.527          50.000        -446.552
   -264860.098 7  38325294.054          42.000        1103.611
 -22515283.275 8  20789828.310          48.000        2500.522
 -26343755.994 8  20529597.531          48.000         -95.191
 -11212609.194 7  22276218.723          44.000        4050.740
 -16118581.290 7  24809581.253          42.000       -2822.422
 -10317685.823 6  23540108.607          41.000          62.801
 -26192780.455 7  22684542.545          45.000       -2069.036
 -18587602.927 7  22017935.476          42.000         880.422
 16  6  8  0  6  0.0000000  0 11G09G22G17S20G23G03G06G11G31G01G19
 -12662662.098 7  21804249.576          47.000        4134.684
 -21136402.036 7  21911683.953          44.000       -1163.839
 -10303325.212 8  22034645.691          48.000        -481.238
   -331044.023 7  38312699.987          42.000        1103.093
 -22664397.145 8  20761452.074          48.000        2469.307
 -26337400.458 8  20530809.135          50.000        -116.620
 -11455158.211 7  22230061.387          42.000        4033.812
 -15949218.654 6  24841808.969          41.000       -2823.055
 -10320312.166 6  23539609.828          41.000          24.551
 -26068147.896 7  22708256.414          43.000       -2084.651
 -18639197.210 6  22008115.034          40.000         839.012
 16  6  8  0  7  0.0000000  0 11G09G22G17S20G23G03G06G11G31G01G19
 -12910064.843 7  21757169.499          47.000        4112.309
 -21066149.342 7  21925055.767          45.000       -1177.731
 -10273425.819 8  22040335.099          48.000        -515.181
   -397219.708 7  38300105.895          42.000        1103.078
 -22811632.834 8  20733435.549          48.000        2438.520
 -26329757.658 8  20532262.537          49.000        -137.808
 -11696633.979 7  22184112.652          43.000        4015.689
 -15779756.562 6  24874056.091          38.000       -2824.577
 -10320656.590 6  23539544.433          40.000         -13.157
 -25942545.562 6  22732157.453          41.000       -2101.145
 -18688251.698 6  21998775.966          38.000         797.009
 16  6  8  0  8  0.0000000  0 11G09G22G17S20G23G03G06G11G31G01G19
 -13156089.593 7  21710352.502          47.000        4088.791
 -20995091.581 7  21938574.774          44.000       -1190.726
 -10241474.720 7  22046414.781          47.000        -549.582
   -463379.962 7  38287516.470          42.000        1102.842
 -22956983.471 8  20705775.567          48.000        2407.122
 -26320831.220 8  20533961.909          49.000        -159.133
 -11937016.437 7  22138370.728          45.000        3997.469
 -15610209.849 6  24906318.760          37.000       -2826.806
 -10318726.426 6  23539910.643          40.000         -51.201
 -25815984.270 7  22756243.413          45.000       -2117.381
 -18734768.924 6  21989925.730          38.000         754.139
 16  6  8  0  8 59.9990000  0 11G09G22G17S20G23G03G06G11G31G01G19
 -13400732.463 8  21663799.789          48.000        4066.042
 -20923250.069 7  21952249.017          46.000       -1203.746
 -10207503.037 7  22052878.228          46.000        -582.270
   -529525.728 7  38274930.256          42.000        1103.257
 -23100456.696 8  20678474.038          49.000        2375.867
 -26310640.936 8  20535901.239          49.000        -179.746
 -12176297.677 7  22092834.934          45.000        3979.148
 -15440611.774 6  24938598.068          38.000       -2826.889
 -10314544.753 6  23540701.478          38.000         -88.115
 -25688493.019 7  22780504.067          43.000       -2131.635
 -18778767.939 6  21981552.880          39.000         712.955
 16  6  8  0  9 59.9990000  0 11G09G22G17S20G23G03G06G11G31G01G19
 -13644001.355 8  21617507.205          48.000        4042.203
 -20850642.025 7  21966062.819          45.000       -1216.406
 -10171539.096 7  22059723.512          47.000        -616.671
   -595682.123 7  38262339.915          42.000        1102.047
 -23242066.698 8  20651527.386          49.000        2344.381
 -26299205.680 8  20538074.926          49.000        -201.167
 -12414481.137 7  22047511.152          45.000        3960.280
 -15270987.200 6  24970878.720          40.000       -2827.242
 -10308134.932 6  23541926.545          41.000        -125.986
 -25560093.801 6  22804936.370          41.000       -2147.544
 -18820269.144 6  21973657.974          41.000         670.978
 16  6  8  0 10 59.9990000  0 11G09G22G17S20G23G03G06G11G31G01G19
 -13885846.656 7  21571483.163          47.000        4018.878
 -20777242.746 7  21980032.233          46.000       -1229.052
 -10133568.477 7  22066949.045          46.000        -649.175
   -661825.062 7  38249753.239          42.000        1102.835
 -23381775.766 8  20624941.036          49.000        2312.671
 -26286499.410 8  20540494.625          49.000        -222.125
 -12651512.945 7  22002403.857          44.000        3940.954
 -15101323.880 6  25003165.435          39.000       -2827.586
 -10299475.140 6  23543574.535          41.000        -162.960
 -25430770.084 7  22829547.372          44.000       -2161.894
 -18859246.524 6  21966241.501          41.000         628.690
 16  6  8  0 11 59.9990000  0 11G09G22G17S20G23G03G06G11G31G01G19
 -14126267.495 7  21525734.495          47.000        3994.776
 -20703071.007 7  21994147.531          47.000       -1242.609
 -10093621.361 7  22074550.055          46.000        -682.140
   -727962.692 7  38237168.430          42.000        1102.363
 -23519592.767 8  20598715.287          49.000        2281.164
 -26272540.369 8  20543148.280          48.000        -243.126
 -12887387.522 7  21957520.711          45.000        3921.530
 -14931651.463 6  25035452.718          37.000       -2828.371
 -10288588.032 6  23545643.895          40.000        -199.799
 -25300547.436 7  22854328.722          43.000       -2178.144
 -18895718.914 6  21959299.874          41.000         586.759
 16  6  8  0 12 59.9990000  0 11G09G22G17S20G23G03G06G11G31G01G19
 -14365261.205 7  21480255.851          47.000        3971.193
 -20628143.501 8  22008405.860          48.000       -1255.271
 -10051725.208 7  22082523.478          46.000        -714.596
   -794109.074 7  38224579.651          42.000        1102.353
 -23655525.317 8  20572847.800          49.000        2249.581
 -26257344.842 8  20546041.945          48.000        -264.115
 -13122097.345 7  21912856.966          45.000        3902.015
 -14761996.621 6  25067736.755          36.000       -2826.371
 -10275495.423 6  23548136.432          40.000        -236.449
 -25169449.547 7  22879276.801          43.000       -2192.153
 -18929704.171 7  21952832.099          42.000         545.870
 16  6  8  0 13 59.9990000  0 11G09G22G17S20G23G03G06G11G31G01G19
 -14602789.249 7  21435054.953          47.000        3946.511
 -20552440.297 7  22022809.671          46.000       -1268.023
 -10007871.892 7  22090867.125          46.000        -747.182
   -860235.113 7  38211995.863          42.000        1101.751
 -23789545.670 8  20547342.710          48.000        2217.744
 -26240893.197 8  20549173.238          49.000        -284.544
 -13355598.884 7  21868423.799          46.000        3881.684
 -14592351.19315  25100018.018          34.000       -2827.105
 -10260182.728 6  23551050.487          40.000        -273.851
 -25037464.383 7  22904391.870          44.000       -2206.802
 -18961184.476 7  21946845.566          43.000         503.671
 16  6  8  0 14 59.9990000  0 11G09G22G17S20G23G03G06G11G31G01G19
 -14838860.246 8  21390131.941          48.000        3922.730
 -20475989.723 7  22037358.109          45.000       -1279.917
  -9962101.645 7  22099576.922          45.000        -778.296
   -926351.284 7  38199415.399          42.000        1101.760
 -23921671.868 8  20522201.990          48.000        2186.626
 -26223212.805 8  20552537.684          48.000        -304.710
 -13587895.614 7  21824216.421          44.000        3861.129
 -14422752.84815  25132292.780          32.000       -2826.248
 -10242683.577 6  23554380.050          40.000        -309.262
 -24904626.902 7  22929669.723          45.000       -2220.745
 -18990189.229 7  21941323.349          42.000         463.190
 16  6  8  0 15 59.9990000  0 10G09G22G17S20G23G03G06G31G01G19
 -15073473.200 8  21345487.165          48.000        3897.944
 -20398808.975 7  22052045.390          46.000       -1292.974
  -9914443.404 7  22108647.196          45.000        -810.323
   -992478.206 7  38186831.157          42.000        1102.137
 -24051913.643 8  20497416.756          48.000        2154.670
 -26204321.170 8  20556132.280          48.000        -324.913
 -13818981.128 7  21780243.312          45.000        3840.899
 -10223021.211 6  23558120.399          39.000        -345.075
 -24770962.204 7  22955105.405          43.000       -2234.420
 -19016738.470 7  21936271.432          42.000         421.748
 16  6  8  0 16 59.9990000  0 11G09G22G17S20G23G03G06G11G31G01G19
 -15306596.914 8  21301125.003          48.000        3872.379
 -20320885.737 7  22066874.472          46.000       -1305.272
  -9864898.257 7  22118073.873          44.000        -841.434
  -1058606.606 7  38174247.744          42.000        1101.786
 -24180250.359 8  20472995.150          48.000        2122.438
 -26184205.570 8  20559960.657          48.000        -346.100
 -14048818.717 7  21736506.871          44.000        3819.798
 -14083780.42414  25196794.151          27.000       -2823.960
 -10201188.912 6  23562278.664          41.000        -382.197
 -24636465.287 7  22980699.683          44.000       -2249.533
 -19040822.917 7  21931688.647          42.000         380.502
 16  6  8  0 17 59.9990000  0 11G09G22G17S20G23G03G06G11G31G01G19
 -15538216.563 8  21257048.257          48.000        3847.953
 -20242223.754 7  22081841.855          46.000       -1316.447
  -9813482.346 7  22127859.231          45.000        -872.831
  -1124728.487 7  38161664.426          42.000        1102.787
 -24306677.676 8  20448938.140          49.000        2091.309
 -26162869.511 7  20564019.150          47.000        -365.371
 -14277387.935 7  21693012.160          45.000        3799.050
 -13914454.06414  25229026.675          27.000       -2821.942
 -10177197.341 6  23566843.990          41.000        -417.894
 -24501147.364 7  23006449.512          45.000       -2261.659
 -19062449.253 6  21927571.338          40.000         339.876
 16  6  8  0 18 59.9990000  0 11G09G22G17S20G23G03G06G11G31G01G19
 -15768331.945 8  21213259.623          48.000        3822.943
 -20162840.867 7  22096949.547          46.000       -1329.120
  -9760226.092 7  22137995.373          46.000        -903.043
  -1190862.013 7  38149078.858          42.000        1102.237
 -24431205.988 8  20425239.907          49.000        2059.854
 -26140330.896 8  20568309.452          48.000        -386.074
 -14504682.601 7  21649759.832          46.000        3777.871
 -13745207.09914  25261230.406          25.000       -2819.344
 -10151071.057 6  23571815.967          41.000        -453.167
 -24365034.237 7  23032350.740          45.000       -2274.601
 -19081639.033 6  21923919.636          40.000         299.515
 16  6  8  0 19 59.9990000  0 11G09G22G17S20G23G03G06G11G31G01G19
 -15996917.269 8  21169761.483          49.000        3797.236
 -20082729.611 7  22112192.304          46.000       -1341.027
  -9705135.276 7  22148476.271          44.000        -932.998
  -1256986.991 7  38136495.733          42.000        1102.234
 -24553820.410 8  20401907.587          49.000        2027.787
 -26116581.817 8  20572829.024          48.000        -405.474
 -14730670.932 7  21606754.887          45.000        3755.345
 -13576082.76414  25293417.237          26.000       -2817.977
 -10122809.524 6  23577191.079          40.000        -488.336
 -24228125.823 7  23058404.935          44.000       -2288.519
 -19098388.756 6  21920734.090          41.000         259.498
 16  6  8  0 20 59.9990000  0 11G09G22G17S20G23G03G06G11G31G01G19
 -16223974.619 8  21126553.601          49.000        3771.345
 -20001910.045 7  22127573.414          47.000       -1352.812
  -9648243.584 7  22159304.349          45.000        -963.147
  -1323108.587 6  38123913.245          41.000        1101.876
 -24674533.954 8  20378936.173          49.000        1996.218
 -26091642.332 8  20577575.963          48.000        -425.360
 -14955348.839 7  21563999.210          45.000        3733.917
 -13407104.21213  25325568.530          23.000       -2814.898
 -10092440.552 6  23582974.046          40.000        -524.003
 -24090450.159 7  23084601.159          44.000       -2300.956
 -19112723.070 7  21918007.781          42.000         218.932
 16  6  8  0 21 59.9990000  0 10G09G22G17S20G23G03G06G31G01G19
 -16449490.916 8  21083638.795          49.000        3744.605
 -19920386.426 7  22143084.843          46.000       -1365.583
  -9589569.809 7  22170468.335          44.000        -993.357
  -1389233.264 7  38111330.486          42.000        1101.631
 -24793344.289 8  20356327.182          49.000        1963.968
 -26065516.853 7  20582545.078          47.000        -445.878
 -15178696.847 7  21521498.577          45.000        3710.288
 -10059976.019 6  23589148.274          38.000        -558.830
 -23952019.703 7  23110945.726          46.000       -2314.000
 -19124651.647 6  21915737.272          41.000         178.158
 16  6  8  0 23  0.0000000  0 11G09G22G17S20G23G03G06G11G31G01G19
 -16673441.930 8  21340812.574          48.000        3719.112
 -19838152.616 7  22458527.953          46.000       -1376.342
  -9529121.196 7  22481762.656          45.000       -1021.764
  -1455359.150 6  38398539.955          41.000        1102.437
 -24910237.987 8  20633874.667          48.000        1931.949
 -26038198.700 7  20887537.488          47.000        -465.063
 -15400684.177 7  21779048.181          46.000        3688.179
 -13069566.33013  25689568.738          19.000       -2809.469
 -10025417.647 6  23895513.807          36.000        -594.006
 -23812835.832 7  23437223.572          46.000       -2326.052
 -19134172.121 7  22213716.519          42.000         138.048
 16  6  8  0 24  0.0000000  0 10G09G22G17S20G23G03G06G31G01G19
 -16895823.778 8  21298496.398          49.000        3693.448
 -19755221.526 7  22474308.673          44.000       -1387.839
  -9466925.378 7  22493598.371          45.000       -1050.768
  -1521485.707 7  38385955.548          42.000        1101.908
 -25025222.121 8  20611995.191          49.000        1900.990
 -26009701.305 7  20892960.711          47.000        -484.425
 -15621300.171 7  21737065.784          46.000        3665.478
  -9988787.641 6  23902487.839          38.000        -628.346
 -23672919.977 7  23463848.974          44.000       -2337.973
 -19141305.345 6  22212359.049          41.000          99.455
 16  6  8  0 25  0.0000000  0 10G09G22G17S20G23G03G06G31G01G19
 -17116628.400 8  21256479.476          49.000        3666.374
 -19671602.485 7  22490222.932          44.000       -1400.114
  -9403005.880 7  22505762.385          45.000       -1079.780
  -1587623.805 6  38373369.936          41.000        1102.311
 -25138299.423 8  20590476.656          49.000        1868.614
 -25980033.794 7  20898605.891          46.000        -504.122
 -15840530.035 7  21695345.620          46.000        3641.922
  -9950103.726 6  23909850.033          38.000        -662.048
 -23532289.447 7  23490609.904          44.000       -2349.884
 -19146065.658 6  22211453.679          41.000          59.593
 16  6  8  0 26  0.0000000  0 11G09G22G17S20G23G03G06G11G31G01G19
 -17335820.450 8  21214768.788          50.000        3639.999
 -19587277.140 7  22506268.006          44.000       -1411.473
  -9337358.906 7  22518254.665          46.000       -1107.765
  -1653742.717 6  38360787.517          41.000        1102.068
 -25249446.647 8  20569326.713          49.000        1836.440
 -25949177.823 7  20904476.197          46.000        -524.049
 -16058331.378 7  21653900.140          46.000        3618.079
 -12564419.63213  25785622.641          21.000       -2801.849
  -9909356.317 6  23917606.437          39.000        -695.368
 -23390934.126 7  23517509.659          45.000       -2361.821
 -19148441.394 6  22210999.694          39.000          19.540
 16  6  8  0 27  0.0000000  0 11G09G22G17S20G23G03G06G11G31G01G19
 -17553407.323 8  21173362.039          49.000        3613.200
 -19502269.541 7  22522445.291          45.000       -1422.490
  -9270024.438 7  22531067.461          46.000       -1136.080
  -1719852.162 6  38348206.984          41.000        1101.001
 -25358681.535 8  20548538.940          49.000        1804.477
 -25917157.531 7  20910571.715          46.000        -543.345
 -16274704.297 7  21612725.968          47.000        3593.967
 -12396534.30614  25817554.629          24.000       -2801.444
  -9866578.788 6  23925743.063          37.000        -729.313
 -23248886.442 7  23544539.697          45.000       -2373.251
 -19148463.455 6  22210998.115          40.000         -19.940
 16  6  8  0 28  0.0000000  0 11G09G22G17S20G23G03G06G11G31G01G19
 -17769375.850 8  21132264.760          49.000        3585.052
 -19416583.269 7  22538752.170          46.000       -1433.912
  -9201020.438 7  22544198.767          46.000       -1164.683
  -1785956.043 6  38335627.942          41.000        1101.291
 -25466002.332 8  20528117.299          49.000        1772.021
 -25883976.364 7  20916883.973          45.000        -563.569
 -16489628.374 7  21571826.514          46.000        3569.468
 -12228867.34213  25849439.911          20.000       -2787.083
  -9821784.553 6  23934267.844          37.000        -763.931
 -23106158.116 7  23571699.243          43.000       -2385.654
 -19146143.184 6  22211438.663          40.000         -59.168
 16  6  8  0 29  0.0000000  0 10G09G22G17S20G23G03G06G31G01G19
 -17983701.133 8  21091480.766          49.000        3557.838
 -19330209.810 7  22555186.733          45.000       -1444.934
  -9130354.019 7  22557647.214          47.000       -1191.530
  -1852034.750 6  38323055.522          41.000        1100.327
 -25571395.451 8  20508060.150          49.000        1740.728
 -25849625.936 7  20923420.938          45.000        -582.354
 -16703071.249 7  21531210.635          47.000        3544.734
  -9774974.832 6  23943174.033          37.000        -796.260
 -22962749.068 7  23598990.938          43.000       -2396.403
 -19141479.626 6  22212326.268          41.000         -96.688
 16  6  8  0 30  0.0000000  0 10G09G22G17S20G23G03G06G31G01G19
 -18196388.795 8  21051006.251          48.000        3531.736
 -19243170.444 7  22571749.450          45.000       -1455.456
  -9058062.549 7  22571402.566          47.000       -1217.906
  -1918111.815 6  38310481.637          41.000        1102.112
 -25674877.805 8  20488369.228          50.000        1709.242
 -25814128.146 7  20930176.694          46.000        -600.246
 -16915030.870 7  21490875.059          46.000        3520.905
  -9726181.001 6  23952459.093          38.000        -828.659
 -22818689.624 7  23626402.909          42.000       -2405.972
 -19134502.223 6  22213652.092          40.000        -134.442
 16  6  8  0 31  0.0000000  0 10G09G22G17S20G23G03G06G31G01G19
 -18407434.632 8  21010847.960          48.000        3503.741
 -19155477.591 7  22588435.933          44.000       -1467.261
  -8984174.136 7  22585463.524          47.000       -1244.941
  -1984203.544 6  38297903.703          41.000        1101.467
 -25776456.814 8  20469040.660          50.000        1677.102
 -25777494.869 7  20937146.320          45.000        -619.815
 -17125495.294 7  21450826.015          47.000        3494.882
  -9675426.244 6  23962119.604          37.000        -862.426
 -22674000.167 7  23653937.058          42.000       -2416.888
 -19125231.686 6  22215416.877          40.000        -174.256
 16  6  8  0 31 59.9990000  0 11G09G22G17S20G23G03G06G11G31G01G19
 -18616795.160 8  20971007.403          48.000        3475.469
 -19067108.398 7  22605251.844          44.000       -1478.350
  -8908681.230 7  22599828.901          47.000       -1271.548
  -2050271.535 6  38285331.903          41.000        1100.810
 -25876101.839 8  20450078.181          50.000        1644.542
 -25739702.568 7  20944339.989          46.000        -639.844
 -17334413.080 7  21411070.754          47.000        3469.000
 -11560701.43711  25976444.463           8.000       -2756.050
  -9622697.298 6  23972154.264          38.000        -894.599
 -22528667.401 7  23681593.524          44.000       -2427.767
 -19113652.657 6  22217618.858          40.000        -212.464
 16  6  8  0 32 59.9990000  0 10G09G22G17S20G23G03G06G31G01G19
 -18824482.322 7  20931482.817          46.000        3447.786
 -18978080.229 7  22622193.030          43.000       -1488.903
  -8831618.592 8  22614493.724          48.000       -1296.932
  -2116338.200 6  38272759.004          41.000        1101.504
 -25973833.119 8  20431480.463          50.000        1613.486
 -25700770.665 7  20951748.322          46.000        -657.906
 -17541788.045 7  21371607.767          46.000        3443.972
  -9568024.055 6  23982563.110          41.000        -926.864
 -22382715.734 7  23709366.436          43.000       -2437.257
 -19099794.931 6  22220259.364          41.000        -249.623
 16  6  8  0 33 59.9990000  0 10G09G22G17S20G23G03G06G31G01G19
 -19030483.766 7  20892283.058          47.000        3418.926
 -18888401.174 7  22639259.273          44.000       -1500.454
  -8753009.812 8  22629453.167          48.000       -1323.211
  -2182398.974 7  38260187.998          42.000        1100.154
 -26069651.176 8  20413246.128          50.000        1580.667
 -25660706.563 7  20959371.711          47.000        -677.317
 -17747599.770 7  21332443.136          46.000        3416.808
  -9511425.007 6  23993330.522          37.000        -959.693
 -22236162.858 6  23737253.856          41.000       -2447.604
 -19083674.096 7  22223326.711          42.000        -287.958
 16  6  8  0 34 59.9990000  0 10G09G22G17S20G23G03G06G31G01G19
 -19234774.957 7  20853408.920          47.000        3390.489
 -18798062.052 7  22656448.497          44.000       -1511.099
  -8672862.805 8  22644706.132          48.000       -1348.477
  -2248429.200 6  38247624.103          41.000        1100.779
 -26163543.393 8  20395379.836          50.000        1548.983
 -25619501.014 7  20967213.158          47.000        -696.421
 -17951815.302 7  21293583.193          47.000        3390.265
  -9452902.263 6  24004465.332          36.000        -990.972
 -22089008.216 6  23765257.808          40.000       -2456.469
 -19065291.170 6  22226822.574          41.000        -325.516
 16  6  8  0 35 59.9990000  0 10G09G22G17S20G23G03G06G31G01G19
 -19437357.993 7  20814856.930          46.000        3362.375
 -18707079.484 7  22673764.374          44.000       -1522.098
  -8591211.334 7  22660241.459          47.000       -1373.251
  -2314447.309 7  38235059.676          42.000        1100.568
 -26255523.036 8  20377874.921          49.000        1517.228
 -25577171.235 8  20975268.903          48.000        -714.892
 -18154428.212 7  21255027.740          47.000        3363.222
  -9392484.608 5  24015960.881          35.000       -1022.270
 -21941277.688 6  23793370.152          40.000       -2465.867
 -19044673.880 7  22230747.922          43.000        -362.079
 16  6  8  0 36 59.9990000  0 10G09G22G17S20G23G03G06G31G01G19
 -19638212.276 7  20776637.420          47.000        3333.057
 -18615447.829 7  22691200.702          44.000       -1532.328
  -8508066.259 7  22676064.505          47.000       -1397.862
  -2380439.527 6  38222503.468          41.000        1100.014
 -26345580.915 8  20360738.868          50.000        1485.064
 -25533711.604 7  20983537.636          47.000        -733.922
 -18355409.396 7  21216781.880          47.000        3336.371
  -9330178.118 6  24027817.737          36.000       -1053.765
 -21792974.314 6  23821592.512          41.000       -2476.882
 -19021826.462 7  22235095.051          42.000        -399.104
 16  6  8  0 37 59.9990000  0 10G09G22G17S20G23G03G06G31G01G19
 -19837364.359 7  20738739.578          47.000        3304.893
 -18523208.462 7  22708752.584          44.000       -1542.360
  -8423486.451 7  22692160.376          47.000       -1421.234
  -2446446.201 7  38209942.897          42.000        1100.027
 -26433755.713 8  20343958.215          50.000        1454.051
 -25489163.425 8  20992015.615          48.000        -751.502
 -18554776.691 7  21178842.733          47.000        3309.057
  -9266036.261 6  24040024.618          37.000       -1083.976
 -21644148.200 6  23849912.584          41.000       -2484.563
 -18996801.154 7  22239858.533          43.000        -434.931
 16  6  8  0 38 59.9990000  0 10G09G22G17S20G23G03G06G31G01G19
 -20034803.726 7  20701167.985          47.000        3275.409
 -18430364.444 7  22726421.183          45.000       -1553.146
  -8337492.262 7  22708523.664          46.000       -1445.744
  -2512472.948 7  38197378.286          42.000        1100.078
 -26520048.482 8  20327537.674          50.000        1421.419
 -25443530.656 8  21000699.227          48.000        -770.212
 -18752510.584 7  21141214.925          46.000        3280.810
  -9200074.546 5  24052576.769          35.000       -1115.611
 -21494812.076 6  23878329.024          41.000       -2494.582
 -18969613.306 7  22245031.580          42.000        -471.346
 16  6  8  0 39 59.9990000  0 10G09G22G17S20G23G03G06G31G01G19
 -20230491.021 7  20663930.581          47.000        3247.428
 -18336891.551 7  22744206.078          45.000       -1563.287
  -8250076.026 7  22725158.424          45.000       -1468.407
  -2578482.851 7  38184816.904          42.000        1099.822
 -26604431.448 8  20311480.812          50.000        1390.650
 -25396788.445 8  21009594.345          48.000        -788.382
 -18948562.919 7  21103908.584          47.000        3253.778
  -9132280.739 5  24065467.637          30.000       -1144.700
 -21344949.971 6  23906848.081          41.000       -2501.482
 -18940249.189 6  22250614.960          40.000        -507.023
 16  6  8  0 40 59.9990000  0 10G09G22G17S20G23G03G06G31G01G19
 -20424438.465 7  20627023.188          47.000        3218.105
 -18242815.485 7  22762110.290          46.000       -1572.678
  -8161281.662 7  22742054.309          44.000       -1491.125
  -2644488.257 7  38172256.490          42.000        1099.913
 -26686927.797 8  20295782.910          50.000        1359.460
 -25348963.072 8  21018696.239          49.000        -806.190
 -19142936.682 7  21066920.300          47.000        3225.802
  -9062693.55915  24078719.463          34.000       -1176.292
 -21194596.857 6  23935460.199          41.000       -2509.368
 -18908746.736 7  22256613.045          43.000        -542.763
 16  6  8  0 41 59.9990000  0 10G09G22G17S20G23G03G06G31G01G19
 -20616617.692 7  20590453.648          47.000        3188.479
 -18148121.059 7  22780128.573          46.000       -1583.559
  -8071112.321 7  22759215.822          45.000       -1513.844
  -2710474.962 7  38159701.146          42.000        1100.375
 -26767521.771 8  20280445.539          50.000        1327.745
 -25300040.193 8  21028005.136          48.000        -824.036
 -19335594.453 7  21030259.896          47.000        3196.515
  -8991311.560 5  24092308.279          34.000       -1203.414
 -21043747.298 6  23964166.043          41.000       -2517.490
 -18875103.832 7  22263014.370          42.000        -577.879
 16  6  8  0 42 59.9990000  0 10G09G22G17S20G23G03G06G31G01G19
 -20807026.289 8  20554218.009          48.000        3158.882
 -18052820.181 7  22798264.593          47.000       -1593.562
  -7979596.747 7  22776626.768          42.000       -1535.934
  -2776443.135 7  38147148.245          42.000        1099.341
 -26846222.429 8  20265469.404          50.000        1295.999
 -25250031.012 8  21037523.104          49.000        -842.345
 -19526524.379 7  20993925.332          47.000        3167.384
  -8918158.607 5  24106227.707          34.000       -1233.274
 -20892421.474 6  23992961.930          41.000       -2525.896
 -18839343.971 7  22269820.792          42.000        -613.126
 16  6  8  0 43 59.9990000  0 10G09G22G17S20G23G03G06G31G01G19
 -20995665.405 8  20518325.546          49.000        3128.639
 -17956926.644 8  22816514.842          48.000       -1604.151
  -7886767.406 7  22794294.189          44.000       -1558.359
  -2842409.049 7  38134595.204          42.000        1098.847
 -26923042.141 8  20250851.322          50.000        1263.845
 -25198950.380 8  21047241.331          49.000        -860.662
 -19715718.310 7  20957923.509          47.000        3138.016
  -8843263.04815  24120476.028          32.000       -1263.616
 -20740643.192 6  24021844.693          39.000       -2534.200
 -18801494.576 7  22277021.633          42.000        -648.595
 16  6  8  0 45  0.0000000  0 10G09G22G17S20G23G03G06G31G01G19
 -21182495.702 8  20782561.245          48.000        3099.381
 -17860414.512 7  23134672.142          47.000       -1613.161
  -7792616.493 7  23112002.477          44.000       -1579.575
  -2908350.712 7  38421839.460          42.000        1099.664
 -26997953.362 8  20536388.092          50.000        1233.036
 -25146772.272 8  21356963.449          49.000        -878.515
 -19903127.298 7  21222051.749          47.000        3108.956
  -8766611.82114  24434851.237          29.000       -1289.370
 -20588395.277 6  24350607.554          38.000       -2541.291
 -18761542.526 7  22584415.220          42.000        -682.528
 16  6  8  0 46  0.0000000  0 10G09G22G17S20G23G03G06G31G01G19
 -21367538.255 8  20747351.199          49.000        3068.303
 -17763317.592 7  23153147.080          46.000       -1623.455
  -7697196.028 7  23130160.911          43.000       -1600.902
  -2974289.158 7  38409290.677          42.000        1098.192
 -27070989.176 8  20522489.953          50.000        1201.663
 -25093530.904 8  21367094.653          48.000        -896.007
 -20088762.919 7  21186726.820          46.000        3079.241
  -8688252.44915  24449768.076          34.000       -1320.579
 -20435720.939 6  24379662.228          40.000       -2548.193
 -18719535.213 7  22592410.936          43.000        -717.237
 16  6  8  0 47  0.0000000  0 10G09G22G17S20G23G03G06G31G01G19
 -21550781.868 8  20712478.501          48.000        3039.971
 -17665637.285 7  23171735.357          46.000       -1632.184
  -7600525.616 7  23148556.303          43.000       -1621.538
  -3040211.657 7  38396746.370          42.000        1099.138
 -27142149.805 8  20508948.427          50.000        1170.712
 -25039227.905 8  21377429.273          49.000        -913.535
 -20272604.191 7  21151743.278          46.000        3048.677
  -8608200.341 5  24465007.866          33.000       -1348.347
 -20282630.778 6  24408793.770          41.000       -2555.265
 -18675488.112 7  22600792.075          44.000        -751.008
 16  6  8  0 48  0.0000000  0 10G09G22G17S20G23G03G06G31G01G19
 -21732205.706 8  20677957.878          49.000        3008.143
 -17567365.122 7  23190437.305          46.000       -1642.884
  -7502614.518 7  23167188.555          43.000       -1642.286
  -3106109.688 7  38384207.245          42.000        1097.496
 -27211426.081 8  20495766.419          51.000        1138.438
 -24983855.169 8  21387965.200          48.000        -932.163
 -20454620.499 7  21117107.388          46.000        3018.592
  -8526459.72814  24480549.353          26.000       -1376.874
 -20129125.804 6  24438003.846          41.000       -2562.177
 -18629406.163 7  22609563.243          45.000        -785.564
 16  6  8  0 49  0.0000000  0 10G09G22G17S20G23G03G06G31G01G19
 -21911806.120 8  20643779.916          49.000        2978.536
 -17468509.684 7  23209249.940          46.000       -1652.343
  -7403490.862 7  23186051.830          44.000       -1661.683
  -3171981.645 7  38371671.881          42.000        1098.063
 -27278825.749 8  20482940.972          50.000        1108.292
 -24927421.468 8  21398704.945          48.000        -949.100
 -20634798.328 7  21082818.914          45.000        2987.631
  -8443073.57214  24496428.877          26.000       -1403.549
 -19975223.953 7  24467291.646          42.000       -2567.519
 -18581312.667 7  22618714.190          45.000        -817.878
 16  6  8  0 50  0.0000000  0 10G09G22G17S20G23G03G06G31G01G19
 -22089585.278 8  20609949.118          49.000        2947.787
 -17369085.151 7  23228169.422          45.000       -1661.617
  -7303187.140 7  23205137.473          44.000       -1681.400
  -3237843.455 7  38359138.751          42.000        1098.453
 -27344362.827 8  20470468.673          50.000        1077.226
 -24869941.415 8  21409641.590          48.000        -966.680
 -20813129.862 7  21048882.821          45.000        2956.848
  -8358033.72314  24512618.456          25.000       -1430.478
 -19820948.835 7  24496649.971          43.000       -2574.719
 -18531235.867 7  22628243.396          45.000        -850.767
 16  6  8  0 51  0.0000000  0 10G09G22G17S20G23G03G06G31G01G19
 -22265519.338 8  20576470.038          49.000        2917.103
 -17269079.505 7  23247197.768          44.000       -1671.247
  -7201709.912 7  23224448.565          45.000       -1701.313
  -3303687.788 6  38346608.256          41.000        1097.950
 -27408024.747 8  20458355.325          50.000        1045.203
 -24811403.194 8  21420781.722          48.000        -984.256
 -20989581.277 7  21015306.002          45.000        2924.960
  -8271362.46514  24529104.933          25.000       -1457.928
 -19666297.753 7  24526077.931          42.000       -2580.250
 -18479179.237 7  22638151.612          47.000        -883.941
 16  6  8  0 52  0.0000000  0 10G09G22G17S20G23G03G06G31G01G19
 -22439625.042 8  20543339.473          50.000        2886.243
 -17168520.904 7  23266335.160          44.000       -1680.782
  -7099106.215 7  23243972.723          44.000       -1719.720
  -3369529.941 7  38334079.017          42.000        1096.779
 -27469839.869 8  20446590.493          49.000        1014.683
 -24751835.434 8  21432117.663          48.000       -1001.715
 -21164159.218 7  20982085.499          44.000        2893.442
  -8183098.71114  24545914.326          29.000       -1483.924
 -19511308.398 7  24555570.509          42.000       -2586.018
 -18425185.006 7  22648425.341          46.000        -916.061
 16  6  8  0 53  0.0000000  0 10G09G22G17S20G23G03G06G31G01G19
 -22611889.659 8  20510557.913          50.000        2855.795
 -17067407.737 7  23285577.463          43.000       -1689.886
  -6995394.077 7  23263706.704          44.000       -1737.645
  -3435352.980 6  38321552.779          41.000        1097.138
 -27529807.457 8  20435180.930          50.000         984.337
 -24691237.081 8  21443648.330          49.000       -1018.416
 -21336840.812 7  20949225.884          45.000        2861.857
  -8093258.07515  24562998.962          31.000       -1510.169
 -19355988.844 6  24585124.669          40.000       -2591.354
 -18369268.727 7  22659066.431          47.000        -947.887
 16  6  8  0 53 59.9990000  0 10G09G22G17S20G23G03G06G31G01G19
 -22782324.654 8  20478127.137          50.000        2825.365
 -16965767.641 6  23304915.079          39.000       -1698.384
  -6890619.262 7  23283646.614          44.000       -1755.129
  -3501183.950 6  38309024.884          41.000        1097.399
 -27587952.100 8  20424115.363          50.000         953.946
 -24629634.798 8  21455372.032          48.000       -1034.966
 -21507627.223 7  20916725.569          45.000        2830.805
  -8001897.65114  24580384.596          28.000       -1535.219
 -19200376.418 6  24614738.474          39.000       -2595.294
 -18311471.293 7  22670064.501          47.000        -979.119
 16  6  8  0 54 59.9990000  0 10G09G22G17S20G23G03G06G31G01G19
 -22950919.724 8  20446042.643          50.000        2793.892
 -16863591.871 6  23324360.921          39.000       -1707.987
  -6784792.352 7  23303787.079          45.000       -1773.041
  -3567008.651 6  38296500.043          41.000        1096.651
 -27644271.261 8  20413397.893          49.000         922.988
 -24567021.850 8  21467286.988          48.000       -1052.207
 -21676497.848 7  20884589.737          44.000        2797.993
  -7908993.40314  24598057.985          28.000       -1560.863
 -19044470.222 6  24644408.328          38.000       -2600.613
 -18251801.763 7  22681418.467          46.000       -1010.165
 16  6  8  0 55 59.9990000  0 10G09G22G17S20G23G03G06G31G01G19
 -23117644.316 8  20414316.001          49.000        2762.959
 -16760864.682 6  23343912.406          38.000       -1717.276
  -6677916.982 7  23324121.172          44.000       -1790.029
  -3632809.696 6  38283978.622          41.000        1095.988
 -27698747.422 8  20403032.271          50.000         892.312
 -24503382.602 8  21479397.963          48.000       -1069.517
 -21843411.871 7  20852827.513          44.000        2765.731
  -7814559.61714  24616027.992          25.000       -1586.012
 -18888265.545 6  24674132.802          36.000       -2605.822
 -18190259.623 7  22693131.315          47.000       -1041.441
 16  6  8  0 56 59.9990000  0 10G09G22G17S20G23G03G06G31G01G19
 -23282504.347 8  20382944.767          50.000        2732.514
 -16657602.779 6  23363560.392          38.000       -1725.373
  -6570028.649 7  23344654.599          46.000       -1806.111
  -3698599.564 6  38271459.417          41.000        1096.545
 -27751397.973 8  20393013.194          50.000         862.761
 -24438733.420 7  21491699.756          47.000       -1085.403
 -22008364.731 7  20821437.678          45.000        2733.394
  -7718628.89715  24634297.934          30.000       -1612.338
 -18731788.202 5  24703910.604          34.000       -2609.179
 -18126877.918 7  22705191.859          47.000       -1071.141
 16  6  8  0 57 59.9990000  0 10G09G22G17S20G23G03G06G31G01G19
 -23445473.671 8  20351931.996          50.000        2700.879
 -16553790.065 6  23383316.761          39.000       -1734.538
  -6461130.307 7  23365376.017          46.000       -1822.902
  -3764356.877 7  38258946.494          42.000        1095.976
 -27802207.793 8  20383343.941          49.000         831.879
 -24373059.121 7  21504197.392          47.000       -1102.796
 -22171319.834 7  20790428.903          46.000        2699.239
  -7621201.23114  24652838.023          24.000       -1635.292
 -18575031.744 5  24733743.409          34.000       -2615.357
 -18061656.383 8  22717604.408          48.000       -1101.873
 16  6  8  0 58 59.9990000  0  9G09G17S20G23G03G06G31G01G19
 -23606536.938 8  20321280.723          48.000        2668.327
  -6351236.456 7  23386287.782          46.000       -1840.418
  -3830079.321 6  38246438.108          41.000        1094.861
 -27851173.640 8  20374025.647          49.000         800.468
 -24306354.649 7  21516891.326          47.000       -1120.893
 -22332251.422 7  20759803.997          45.000        2664.581
  -7522287.83014  24671658.396          26.000       -1661.091
 -18418000.305 5  24763625.197          34.000       -2620.390
 -17994607.081 7  22730362.437          47.000       -1133.584
 16  6  8  1  0 59.9990000  0 10G09G22G17S20G23G03G06G31G01G19
 -23923099.147 8  20261042.467          49.000        2606.595
    210044.996 6  23443178.790          39.000       -1760.389
  -6128731.587 7  23428630.038          45.000       -1869.821
  -3961564.007 6  38221418.526          41.000        1095.108
 -27943770.126 8  20356405.604          50.000         741.951
 -24170049.165 7  21542827.253          45.000       -1152.331
 -22648155.810 7  20699689.166          46.000        2599.114
  -7320245.89215  24710099.551          31.000       -1707.871
 -18103343.36915  24823494.818          30.000       -2623.233
 -17855285.275 7  22756874.046          46.000       -1189.974
 16  6  8  1  1 59.9990000  0 10G09G22G17S20G23G03G06G31G01G19
 -24078522.375 8  20231467.035          50.000        2574.384
    315945.994 6  23463331.645          38.000       -1769.396
  -6016102.145 7  23450061.383          44.000       -1884.600
  -4027254.676 6  38208918.761          41.000        1094.842
 -27987347.509 8  20348113.470          50.000         711.409
 -24100392.067 7  21556081.165          44.000       -1169.408
 -22803031.754 7  20670216.150          46.000        2564.128
  -7217095.67015  24729732.861          30.000       -1731.898
 -17945681.03215  24853502.805          32.000       -2629.735
 -17782989.761 7  22770632.356          46.000       -1219.323
 16  6  8  1  2 59.9990000  0 10G09G22G17S20G23G03G06G31G01G19
 -24232039.461 8  20202254.149          50.000        2542.912
    422365.018 6  23483583.007          36.000       -1778.205
  -5902592.385 7  23471662.327          44.000       -1898.640
  -4092913.541 6  38196425.452          41.000        1094.240
 -28029125.129 8  20340163.482          49.000         681.784
 -24029743.867 7  21569526.750          44.000       -1185.495
 -22955841.941 7  20641138.852          46.000        2529.708
  -7112558.57914  24749622.776          24.000       -1753.591
 -17787818.30815  24883546.967          30.000       -2632.681
 -17708973.027 7  22784715.973          46.000       -1247.265
 16  6  8  1  3 59.9990000  0 10G09G22G17S20G23G03G06G31G01G19
 -24383698.070 8  20173393.339          50.000        2511.938
    529246.69314  23503903.785          28.000       -1785.326
  -5788277.662 7  23493416.431          45.000       -1911.708
  -4158596.075 6  38183925.791          41.000        1094.991
 -28069161.349 8  20332544.071          49.000         652.765
 -23958161.559 7  21583150.745          45.000       -1200.605
 -23106623.382 7  20612447.815          47.000        2496.242
  -7006696.91913  24769758.024          20.000       -1773.974
 -17629822.86015  24913613.902          30.000       -2631.798
 -17633308.023 7  22799117.080          47.000       -1274.746
 16  6  8  1  4 59.9990000  0 10G09G22G17S20G23G03G06G31G01G19
 -24533462.718 8  20144894.219          50.000        2479.894
    636616.06715  23524347.222          31.000       -1794.527
  -5673151.224 7  23515324.534          44.000       -1926.052
  -4224281.612 6  38171425.310          41.000        1094.251
 -28107431.969 8  20325261.799          49.000         623.126
 -23885618.661 7  21596951.529          43.000       -1217.461
 -23255330.095 7  20584148.605          47.000        2461.180
  -6899511.45214  24790156.892          27.000       -1796.832
 -17471677.48814  24943706.645          29.000       -2639.494
 -17555986.437 7  22813831.714          46.000       -1302.682
 16  6  8  1  5 59.9990000  0 11G09G22G12G17S20G23G03G06G31G01G19
 -24681323.553 8  20116757.349          50.000        2448.491
    744474.645 5  23544879.671          35.000       -1802.789
    479144.24311  25558968.447           7.000        -874.218
  -5557230.690 7  23537383.285          43.000       -1938.218
  -4289956.047 6  38158928.634          41.000        1094.311
 -28143937.548 8  20318315.338          49.000         593.701
 -23812114.259 7  21610939.031          43.000       -1233.134
 -23401941.547 7  20556250.453          47.000        2425.917
  -6791018.68514  24810799.679          27.000       -1819.023
 -17313389.73314  24973832.631          29.000       -2640.254
 -17477024.888 7  22828856.404          46.000       -1329.609
 16  6  8  1  6 59.9990000  0  9G09G22G17S20G23G03G06G31G19
 -24827284.038 8  20088981.296          50.000        2416.481
    852812.233 5  23565497.383          34.000       -1809.516
  -5440547.249 7  23559586.156          42.000       -1950.787
  -4355615.230 6  38146434.854          41.000        1094.018
 -28178692.306 8  20311701.758          49.000         564.502
 -23737660.315 7  21625106.461          43.000       -1248.971
 -23546450.614 7  20528750.358          47.000        2390.419
  -6681240.65613  24831685.165          22.000       -1845.022
 -17396452.728 7  22844188.933          44.000       -1356.550
 16  6  8  1  8  0.0000000  0  9G09G22G17S20G23G03G06G31G19
 -24971326.840 8  20361363.751          50.000        2384.019
    961637.29715  23885985.168          32.000       -1818.782
  -5323111.212 7  23881728.833          44.000       -1964.001
  -4421253.146 6  38433736.512          41.000        1093.097
 -28211690.094 8  20605213.862          49.000         534.935
 -23662247.970 7  21939252.226          45.000       -1265.453
 -23688829.421 7  20801448.942          47.000        2354.700
  -6570266.07513  25152613.550          21.000       -1859.420
 -17314278.741 6  23159613.328          41.000       -1383.254
 16  6  8  1  9  0.0000000  0  8G09G22G17S20G23G03G06G19
 -25113454.768 8  20334318.357          50.000        2352.573
   1070939.13615  23906792.964          35.000       -1826.305
  -5204952.543 7  23904212.531          43.000       -1975.667
  -4486868.290 6  38421250.114          41.000        1092.885
 -28242943.808 8  20599267.927          49.000         505.747
 -23585888.205 7  21953783.441          44.000       -1281.158
 -23829070.157 8  20774764.366          48.000        2318.580
 -17230532.312 6  23175551.257          41.000       -1409.662
 16  6  8  1 10  0.0000000  0  8G09G22G17S20G23G03G06G19
 -25253651.109 8  20307638.771          49.000        2320.927
   1180727.010 6  23927686.354          36.000       -1833.321
  -5086081.283 7  23926836.389          44.000       -1986.356
  -4552451.693 6  38408769.264          41.000        1092.457
 -28272447.612 8  20593652.534          49.000         477.861
 -23508572.282 7  21968493.975          45.000       -1296.306
 -23967145.571 8  20748488.648          48.000        2283.433
 -17145222.563 7  23191786.504          42.000       -1434.802
 16  6  8  1 11  0.0000000  0  9G09G22G17S20G23G03G06G01G19
 -25391937.568 8  20281323.965          50.000        2288.857
   1290971.975 5  23948667.048          33.000       -1841.350
  -4966546.753 7  23949581.003          43.000       -1997.796
  -4618039.195 6  38396288.851          41.000        1093.067
 -28300233.571 8  20588365.869          49.000         448.734
 -23430329.636 7  21983383.896          45.000       -1311.888
 -24103066.835 8  20722623.412          48.000        2247.195
     51641.52314  25424538.792          25.000       -2644.918
 -17058397.242 7  23208312.279          42.000       -1459.995
 16  6  8  1 12  0.0000000  0  9G09G22G17S20G23G03G06G01G19
 -25528304.577 8  20255374.497          50.000        2256.292
   1401674.54214  23969730.752          26.000       -1844.398
  -4846365.583 7  23972450.543          42.000       -2008.530
  -4683615.060 6  38383811.247          41.000        1092.617
 -28326302.744 8  20583403.917          49.000         419.752
 -23351158.345 7  21998448.687          45.000       -1327.387
 -24236813.936 8  20697173.107          49.000        2210.852
    210514.55413  25454768.921          21.000       -2646.433
 -16970072.377 7  23225120.259          42.000       -1484.733
 16  6  8  1 13  0.0000000  0  8G09G17S20G23G03G06G31G19
 -25662748.680 8  20229790.663          49.000        2224.835
  -4725560.415 6  23995437.069          39.000       -2018.017
  -4749168.492 6  38371337.378          41.000        1092.339
 -28350661.523 8  20578768.825          48.000         391.507
 -23271062.234 7  22013693.686          47.000       -1342.900
 -24368372.930 8  20672137.890          49.000        2174.516
  -5999835.46214  25261770.926          24.000       -1962.580
 -16880270.816 6  23242206.901          40.000       -1509.394
 16  6  8  1 14  0.0000000  0  9G09G22G17S20G23G03G06G31G19
 -25795263.893 8  20204574.505          49.000        2192.727
   1623596.25315  24012130.314          30.000       -1864.280
  -4604151.429 6  24018541.524          39.000       -2028.278
  -4814699.958 6  38358866.702          41.000        1091.978
 -28373314.444 8  20574458.638          49.000         363.200
 -23190042.391 7  22029108.719          47.000       -1357.617
 -24497727.384 8  20647521.322          48.000        2137.667
  -5881594.11813  25284277.415          22.000       -1984.353
 -16789011.951 6  23259570.705          38.000       -1532.792
 16  6  8  1 15  0.0000000  0  7G09G17S20G23G03G06G19
 -25925854.639 8  20179722.428          49.000        2160.009
  -4482169.526 7  24041756.560          42.000       -2037.336
  -4880227.212 6  38346397.789          41.000        1091.945
 -28394275.449 8  20570469.484          48.000         335.169
 -23108110.251 7  22044700.594          47.000       -1373.466
 -24624871.413 8  20623326.699          48.000        2100.400
 -16696325.728 6  23277208.687          39.000       -1556.608
 16  6  8  1 16  0.0000000  0  7G09G17S20G23G03G06G19
 -26054536.736 8  20155235.096          49.000        2128.975
  -4359656.016 6  24065068.306          41.000       -2045.542
  -4945759.241 6  38333926.694          41.000        1092.132
 -28413571.113 8  20566797.173          48.000         307.854
 -23025288.264 7  22060460.182          47.000       -1387.785
 -24749810.407 8  20599552.662          49.000        2063.896
 -16602253.432 7  23295112.820          42.000       -1578.991
 16  6  8  1 16 59.9990000  0  8G09G22G17S20G23G03G06G19
 -26181289.078 8  20131115.248          49.000        2096.054
   1960298.01514  24076349.017          25.000       -1885.245
  -4236619.213 7  24088482.956          42.000       -2055.326
  -5011283.110 6  38321456.873          41.000        1091.923
 -28431191.641 8  20563445.684          49.000         279.320
 -22941565.329 8  22076393.260          48.000       -1402.922
 -24872513.126 8  20576202.421          48.000        2026.129
 -16506802.712 7  23313277.240          42.000       -1602.654
 16  6  8  1 17 59.9990000  0  7G09G17S20G23G03G06G19
 -26306125.181 8  20107360.336          49.000        2064.659
  -4113088.892 6  24111987.579          41.000       -2062.864
  -5076804.267 6  38308989.373          41.000        1092.190
 -28447156.502 8  20560407.322          49.000         252.218
 -22856954.221 8  22092494.105          48.000       -1417.628
 -24992982.772 8  20553277.791          49.000        1988.956
 -16410005.310 6  23331695.858          41.000       -1624.538
 16  6  8  1 18 59.9990000  0  8G09G22G17S20G23G03G06G19
 -26429043.242 8  20083969.053          49.000        2032.497
     96424.53215  24119557.135          31.000       -1900.675
  -3989093.171 6  24135580.658          41.000       -2072.231
  -5142312.472 6  38296524.421          41.000        1091.219
 -28461475.798 8  20557681.737          48.000         224.251
 -22771462.859 7  22108762.280          47.000       -1432.796
 -25111207.369 8  20530778.964          48.000        1951.186
 -16311888.432 6  23350363.019          40.000       -1646.522
 16  6  8  1 19 59.9990000  0  8G09G22G17S20G23G03G06G19
 -26550042.167 8  20060942.810          48.000        2000.909
    210581.29015  24141287.420          31.000       -1904.567
  -3864655.440 6  24159259.853          40.000       -2077.531
  -5207814.760 6  38284059.399          41.000        1091.444
 -28474158.011 8  20555268.215          48.000         197.959
 -22685095.906 8  22125198.309          48.000       -1446.214
 -25227175.907 8  20508711.174          48.000        1914.437
 -16212475.632 6  23369282.929          41.000       -1666.810
 16  6  8  1 20 59.9990000  0  8G09G22G17S20G23G03G06G19
 -26669119.098 8  20038284.540          49.000        1968.996
    325144.50415  24163100.506          32.000       -1913.596
  -3739797.141 6  24183020.209          40.000       -2084.417
  -5273317.394 6  38271593.469          41.000        1091.573
 -28485209.561 8  20553166.843          49.000         170.659
 -22597856.209 8  22141797.968          48.000       -1461.067
 -25340875.429 8  20487075.783          49.000        1876.149
 -16111788.880 7  23388443.949          42.000       -1688.444
 16  6  8  1 21 59.9990000  0  8G09G22G17S20G23G03G06G19
 -26786285.921 8  20015987.628          49.000        1937.122
    440097.18115  24184971.684          33.000       -1919.884
  -3614554.074 7  24206855.636          42.000       -2090.231
  -5338825.607 6  38259127.313          41.000        1092.272
 -28494651.476 8  20551369.365          49.000         144.556
 -22509761.154 7  22158561.834          47.000       -1475.222
 -25452307.948 8  20465871.465          50.000        1838.617
 -16009864.022 7  23407839.534          42.000       -1709.128
 16  6  8  1 22 59.9990000  0  7G09G17S20G23G03G06G19
 -26901525.385 8  19994058.516          49.000        1904.705
  -3488933.480 7  24230760.672          42.000       -2096.352
  -5404328.543 6  38246663.407          41.000        1092.113
 -28502476.088 8  20549880.687          49.000         117.049
 -22420798.830 8  22175492.192          48.000       -1490.041
 -25561446.465 8  20445102.513          49.000        1799.875
 -15906709.243 7  23427466.632          42.000       -1729.334
 16  6  8  1 23 59.9990000  0  8G09G22G17S20G23G03G06G19
 -27014840.570 8  19972496.451          49.000        1872.147
    670975.56616  24228942.586          37.000       -1933.706
  -3362961.598 6  24254732.751          41.000       -2102.713
  -5469820.737 6  38234199.031          41.000        1091.260
 -28508695.632 8  20548695.713          49.000          89.741
 -22330977.267 8  22192583.581          48.000       -1504.403
 -25668284.300 8  20424771.857          49.000        1761.084
 -15802351.943 7  23447325.433          42.000       -1749.859
 16  6  8  1 24 59.9990000  0  8G09G22G17S20G23G03G06G19
 -27126220.406 8  19951300.788          49.000        1840.120
    787124.313 5  24251048.591          34.000       -1938.043
  -3236650.968 6  24278765.540          39.000       -2107.940
  -5535297.368 6  38221738.563          41.000        1091.304
 -28513307.649 8  20547818.106          48.000          63.566
 -22240290.414 8  22209841.532          48.000       -1518.562
 -25772800.811 8  20404882.797          49.000        1722.486
 -15696805.402 7  23467412.030          43.000       -1768.500
 16  6  8  1 25 59.9990000  0  8G09G22G17S20G23G03G06G19
 -27235682.808 8  19930469.870          49.000        1807.964
    903651.67314  24273221.728          28.000       -1946.071
  -3110042.324 6  24302860.783          39.000       -2112.406
  -5600768.143 7  38209281.289          42.000        1090.219
 -28516339.398 8  20547242.075          48.000          36.821
 -22148760.775 7  22227259.921          47.000       -1533.091
 -25875004.408 8  20385433.849          49.000        1683.539
 -15590111.123 7  23487715.358          44.000       -1788.166
 16  6  8  1 26 59.9990000  0  7G09G17S20G23G03G06G19
 -27343216.442 8  19910007.465          49.000        1776.320
  -2983147.072 6  24327004.468          39.000       -2116.731
  -5666211.515 6  38196827.296          41.000        1090.575
 -28517788.425 8  20546965.559          48.000          10.987
 -22056381.558 7  22244838.310          46.000       -1546.833
 -25974874.340 8  20366429.393          49.000        1644.967
 -15482281.657 7  23508235.819          45.000       -1806.475
 16  6  8  1 27 59.9990000  0  8G09G22G17S20G23G03G06G19
 -27448840.139 8  19889908.915          50.000        1744.452
   1137515.78315  24317787.734          34.000       -1957.154
  -2856006.795 6  24351202.266          41.000       -2121.162
  -5731650.903 6  38184374.663          41.000        1090.344
 -28517681.685 8  20546985.801          48.000         -14.808
 -21963175.805 7  22262574.868          46.000       -1560.865
 -26072420.093 8  20347867.509          49.000        1606.172
 -15373359.548 7  23528961.426          44.000       -1824.627
 16  6  8  1 28 59.9990000  0  8G09G22G17S20G23G03G06G19
 -27552525.973 8  19870177.117          50.000        1712.487
   1255177.57614  24340173.484          29.000       -1963.804
  -2728616.794 7  24375445.836          43.000       -2124.788
  -5797067.328 6  38171926.114          41.000        1091.251
 -28515999.962 8  20547306.065          49.000         -40.604
 -21869119.841 7  22280471.829          46.000       -1573.967
 -26167604.733 8  20329753.607          48.000        1567.209
 -15263341.810 7  23549896.993          45.000       -1842.510
 16  6  8  1 29 59.9990000  0  8G09G22G17S20G23G03G06G19
 -27654314.445 8  19850807.427          50.000        1680.668
   1373181.79014  24362613.068          26.000       -1970.456
  -2601038.679 7  24399725.179          44.000       -2128.249
  -5862492.460 6  38159475.838          41.000        1090.424
 -28512792.173 8  20547917.451          50.000         -66.365
 -21774258.038 7  22298526.714          46.000       -1587.735
 -26260459.650 8  20312083.586          48.000        1527.819
 -15152290.951 7  23571031.213          46.000       -1859.843
 16  6  8  1 31  0.0000000  0  8G09G22G17S20G23G03G06G19
 -27754197.194 8  20131592.773          50.000        1648.736
   1491479.14512  24684967.957          15.000       -1976.832
  -2473285.434 7  24723828.527          43.000       -2130.730
  -5927922.040 6  38446816.131          41.000        1089.904
 -28508058.487 8  20848609.796          49.000         -91.448
 -21678585.757 7  22616523.987          45.000       -1602.021
 -26350967.596 7  20594653.077          47.000        1488.923
 -15040221.263 7  23892150.085          46.000       -1876.086
 16  6  8  1 32  0.0000000  0  8G09G22G17S20G23G03G06G19
 -27852186.794 8  20112946.204          50.000        1617.401
   1610125.44214  24707535.503          29.000       -1981.236
  -2345391.768 6  24748164.165          40.000       -2132.697
  -5993359.716 6  38434364.266          41.000        1090.586
 -28501818.453 8  20849797.527          48.000        -116.412
 -21582119.182 7  22634879.696          44.000       -1613.631
 -26439132.415 7  20577875.932          47.000        1450.260
 -14927170.202 7  23913663.359          46.000       -1892.579
 16  6  8  1 33  0.0000000  0  8G09G22G17S20G23G03G06G19
 -27948279.704 8  20094660.906          51.000        1585.663
   1729140.99815  24730189.236          31.000       -1987.963
  -2217375.437 6  24772522.941          37.000       -2135.479
  -6058789.914 6  38421913.623          41.000        1090.688
 -28494078.089 8  20851269.383          48.000        -141.303
 -21484858.113 7  22653388.741          43.000       -1627.702
 -26524941.931 7  20561546.716          47.000        1410.407
 -14813156.024 7  23935360.629          46.000       -1908.083
 16  6  8  1 34  0.0000000  0  8G09G22G17S20G23G03G06G19
 -28042477.605 8  20076733.355          49.000        1554.651
   1848484.44815  24752889.369          32.000       -1990.748
  -2089258.827 5  24796898.592          33.000       -2135.942
  -6124218.145 6  38409462.387          41.000        1090.563
 -28484846.302 8  20853027.353          49.000        -165.826
 -21386807.398 7  22672050.318          44.000       -1639.929
 -26608389.330 8  20545667.856          48.000        1371.114
 -14698203.374 7  23957234.162          46.000       -1923.656
 16  6  8  1 35  0.0000000  0  8G09G22G17S20G23G03G06G19
 -28134790.103 8  20059169.204          51.000        1523.283
   1968143.48614  24775663.369          27.000       -1997.558
  -1961072.01115  24821296.736          33.000       -2137.070
  -6189661.393 6  38397007.608          41.000        1091.031
 -28474140.516 8  20855063.986          49.000        -190.609
 -21287979.703 7  22690853.050          42.000       -1653.576
 -26689475.940 8  20530238.181          48.000        1331.913
 -14582343.804 7  23979280.750          45.000       -1938.308
 16  6  8  1 36  0.0000000  0  9G09G22G17S20G23G03G06G02G19
 -28225212.406 8  20041960.899          50.000        1491.656
   2088119.73114  24798493.577          28.000       -2002.124
  -1832830.50014  24845699.783          26.000       -2137.046
  -6255105.247 6  38384556.215          41.000        1091.322
 -28461963.497 8  20857381.968          49.000        -214.636
 -21188373.169 6  22709804.928          40.000       -1665.985
 -26768188.840 8  20515260.398          48.000        1292.682
   -239671.39917  23114474.029          43.000        3977.465
 -14465595.958 7  24001496.797          44.000       -1952.521
 16  6  8  1 37  0.0000000  0  9G09G22G17S20G23G03G06G02G19
 -28313762.897 8  20025111.719          51.000        1459.938
   2208393.98014  24821379.555          25.000       -2006.608
  -1704573.47014  24870110.823          28.000       -2135.105
  -6320569.874 6  38372096.899          41.000        1090.627
 -28448340.832 8  20859973.395          49.000        -238.885
 -21088008.628 7  22728907.978          42.000       -1679.453
 -26844538.326 7  20500730.631          47.000        1252.704
   -477715.467 7  23069173.037          43.000        3958.222
 -14347999.834 7  24023874.712          43.000       -1967.343
 16  6  8  1 38  0.0000000  0  8G09G17S20G23G03G06G02G19
 -28400422.531 8  20008620.007          50.000        1428.741
  -1576301.72515  24894518.792          31.000       -2139.065
  -6386027.122 6  38359641.021          41.000        1090.852
 -28433261.505 8  20862843.834          49.000        -263.006
 -20986869.791 7  22748153.475          44.000       -1691.168
 -26918497.666 7  20486656.978          47.000        1213.053
   -714583.646 7  23024099.195          42.000        3938.418
 -14229557.865 7  24046415.210          43.000       -1980.210
 16  6  8  1 38 59.9990000  0  9G09G22G17S20G23G03G06G02G19
 -28485215.404 8  19992485.134          51.000        1397.560
   2449566.46012  24867328.124          16.000       -2018.434
  -1448061.04514  24918922.520          28.000       -2136.588
  -6451487.203 6  38347185.020          41.000        1090.380
 -28416758.001 8  20865983.581          48.000        -287.467
 -20884986.157 7  22767539.881          44.000       -1704.437
 -26990083.433 7  20473034.832          47.000        1173.155
   -950274.515 7  22979249.797          43.000        3917.738
 -14110320.223 6  24069105.501          41.000       -1994.693
 16  6  8  1 39 59.9990000  0  7G09S20G23G03G06G02G19
 -28568123.394 8  19976706.298          50.000        1365.858
  -6516935.479 6  38334729.299          41.000        1090.614
 -28398815.548 8  20869398.676          48.000        -310.989
 -20782335.479 7  22787072.922          44.000       -1717.575
 -27059269.558 7  20459868.974          47.000        1132.488
  -1184752.156 7  22934630.794          43.000        3897.849
 -13990282.430 7  24091948.814          43.000       -2006.880
 16  6  8  1 40 59.9990000  0  9G09G17G07S20G23G03G06G02G19
 -28649161.508 8  19961287.356          51.000        1335.197
  -1191975.10414  24967700.136          26.000       -2135.470
   -378132.76617  23111879.828          43.000        4548.440
  -6582392.364 6  38322273.892          41.000        1091.488
 -28379458.615 7  20873081.353          47.000        -334.250
 -20678937.895 7  22806750.765          45.000       -1729.114
 -27126064.020 7  20447157.712          47.000        1093.280
  -1418005.900 7  22890244.525          43.000        3877.352
 -13869485.354 7  24114933.298          42.000       -2019.290
 16  6  8  1 41 59.9990000  0  9G09G07S20G23G03G06G11G02G19
 -28728337.433 8  19946220.314          51.000        1304.356
   -650711.572 7  23060011.254          46.000        4537.344
  -6647853.100 6  38309817.054          41.000        1091.052
 -28358701.078 7  20877032.972          47.000        -357.363
 -20574802.971 7  22826565.260          45.000       -1741.416
 -27190467.345 7  20434902.075          47.000        1053.552
    802539.57411  28786462.527           6.000       -1843.859
  -1650020.153 7  22846093.275          42.000        3856.111
 -13747958.001 7  24138060.944          43.000       -2031.384
 16  6  8  1 42 59.9990000  0  9G09G17G07S20G23G03G06G02G19
 -28805656.577 8  19931506.989          51.000        1272.821
   -936071.21414  25016425.751          28.000       -2133.012
   -922568.259 7  23008278.740          45.000        4524.637
  -6713327.232 6  38297355.522          41.000        1091.068
 -28336554.856 7  20881245.228          46.000        -380.561
 -20469937.825 7  22846519.061          45.000       -1753.892
 -27252478.010 7  20423101.994          47.000        1013.318
  -1880777.270 6  22802176.906          41.000        3834.942
 -13625725.880 7  24161320.235          43.000       -2043.110
 16  6  8  1 43 59.9990000  0  9G09G17G07S20G23G03G06G02G19
 -28881148.460 8  19917140.678          51.000        1242.792
   -808285.78013  25040738.825          21.000       -2128.291
  -1193707.003 7  22956684.257          46.000        4512.731
  -6778832.334 6  38284892.263          41.000        1091.517
 -28313056.272 7  20885718.748          47.000        -403.116
 -20364373.599 7  22866610.578          47.000       -1765.560
 -27312118.865 7  20411751.028          46.000         974.141
  -2110283.202 7  22758506.776          44.000        3814.422
 -13502839.334 7  24184704.207          43.000       -2053.407
 16  6  8  1 44 59.9990000  0  9G09G17G07S20G23G03G06G02G19
 -28954812.311 8  19903123.320          51.000        1212.465
   -680680.96814  25065019.948          26.000       -2125.437
  -1464101.346 7  22905226.968          45.000        4499.827
  -6844353.320 6  38272424.431          41.000        1091.049
 -28288210.976 7  20890446.030          47.000        -425.680
 -20258110.801 7  22886831.332          47.000       -1777.671
 -27369382.569 7  20400854.362          46.000         934.184
  -2338512.923 7  22715075.296          43.000        3793.173
 -13379318.942 7  24208210.104          43.000       -2064.240
 16  6  8  1 45 59.9990000  0  8G09G07S20G23G03G06G02G19
 -29026666.123 8  19889450.079          51.000        1182.758
  -1733742.983 7  22853915.492          43.000        4487.401
  -6909909.802 6  38259949.846          41.000        1092.080
 -28262043.071 7  20895426.566          47.000        -447.122
 -20151168.779 7  22907180.886          47.000       -1787.880
 -27424280.707 7  20390409.726          47.000         895.337
  -2565461.258 7  22671890.805          44.000        3771.896
 -13255202.178 7  24231829.253          43.000       -2073.596
 16  6  8  1 46 59.9990000  0  8G09G07S20G23G03G06G02G19
 -29096684.462 8  19876126.088          51.000        1151.576
  -2002580.721 7  22802757.980          46.000        4473.209
  -6975465.956 6  38247474.860          41.000        1092.145
 -28234533.099 7  20900658.874          45.000        -469.350
 -20043523.163 8  22927664.754          48.000       -1800.255
 -27476781.738 7  20380418.063          46.000         854.772
  -2791078.628 7  22628953.916          43.000        3748.979
 -13130484.409 7  24255561.968          43.000       -2084.165
 16  6  8  1 47 59.9990000  0  9G09G17G07S20G23G03G06G02G19
 -29164903.044 8  19863144.155          51.000        1121.849
   -299507.70114  25137622.940          27.000       -2112.529
  -2270623.602 6  22751747.487          41.000        4460.299
  -7041058.047 6  38234992.841          41.000        1093.525
 -28205723.129 7  20906142.047          46.000        -491.537
 -19935210.702 8  22948276.149          48.000       -1810.943
 -27526915.523 7  20370878.221          47.000         815.481
  -3015376.610 7  22586271.923          44.000        3727.204
 -13005221.760 7  24279400.152          43.000       -2091.984
 16  6  8  1 48 59.9990000  0  8G09G07S20G23G03G06G02G19
 -29231308.772 8  19850507.947          51.000        1092.376
  -2537832.339 7  22700901.321          45.000        4446.649
  -7106677.101 6  38222506.635          41.000        1094.118
 -28175605.410 7  20911874.792          46.000        -512.240
 -19826218.927 8  22969016.797          49.000       -1821.750
 -27574663.134 7  20361792.503          47.000         776.254
  -3238317.609 7  22543847.198          44.000        3705.073
 -12879420.107 6  24303336.092          40.000       -2100.956
 16  6  8  1 49 59.9990000  0  8G09G07S20G23G03G06G02G19
 -29295919.439 8  19838213.710          51.000        1061.390
  -2804197.493 7  22650216.152          43.000        4431.797
  -7172328.298 6  38210012.471          40.000        1093.923
 -28144203.512 7  20917850.026          45.000        -534.351
 -19716566.470 8  22989882.476          48.000       -1833.396
 -27620036.825 7  20353158.066          46.000         736.248
  -3459895.645 7  22501682.952          43.000        3680.629
 -12753116.799 6  24327373.662          39.000       -2110.593
 16  6  8  1 50 59.9990000  0 10G09G22G17G07S20G23G03G06G02G19
 -29358712.940 8  19826263.138          50.000        1031.404
   3918788.18412  25147220.735          17.000       -2063.638
     79505.17213  25209772.785          22.000       -2097.549
  -3069670.624 7  22599697.178          45.000        4416.905
  -7237974.041 6  38197521.622          41.000        1094.179
 -28111500.816 7  20924070.872          44.000        -556.130
 -19606231.770 8  23010878.945          48.000       -1844.536
 -27663009.269 7  20344979.184          46.000         696.569
  -3680063.755 7  22459786.777          44.000        3657.172
 -12626308.811 6  24351503.544          38.000       -2117.430
 16  6  8  1 51 59.9990000  0  8G09G07S20G23G03G06G02G19
 -29419721.010 8  19814654.258          50.000        1002.047
  -3334256.684 7  22549347.123          45.000        4402.161
  -7303646.183 6  38185024.405          41.000        1094.840
 -28077534.519 7  20930537.556          45.000        -577.078
 -19495246.976 8  23031999.990          48.000       -1855.453
 -27703607.173 7  20337255.630          47.000         656.587
  -3898829.165 7  22418156.961          44.000        3634.036
 -12499047.796 6  24375717.222          38.000       -2125.041
 16  6  8  1 53  0.0000000  0  8G09G07S20G23G03G06G02G19
 -29478930.631 8  20103179.544          51.000         971.869
  -3597916.349 7  22798966.764          45.000        4386.659
  -7369320.696 6  38472319.258          41.000        1094.581
 -28042296.837 7  21237032.011          45.000        -598.104
 -19383599.367 7  23353036.846          47.000       -1865.957
 -27741812.533 7  20629777.556          47.000         616.775
  -4116154.130 7  22676593.412          45.000        3609.753
 -12371339.448 6  24699815.335          40.000       -2132.514
 16  6  8  1 54  0.0000000  0  8G09G07S20G23G03G06G02G19
 -29536333.700 8  20092255.934          51.000         941.535
  -3860612.977 7  22748977.858          46.000        4369.721
  -7434989.045 6  38459822.651          41.000        1094.500
 -28005784.850 7  21243981.316          46.000        -619.132
 -19271281.020 7  23374410.920          47.000       -1877.753
 -27777612.702 7  20622965.515          47.000         576.325
  -4332006.055 7  22635517.432          45.000        3585.013
 -12243194.108 6  24724196.971          38.000       -2138.608
 16  6  8  1 55  0.0000000  0  8G09G07S20G23G03G06G02G19
 -29591952.406 8  20081671.487          51.000         911.943
  -4122342.474 7  22699170.923          44.000        4354.057
  -7500677.932 6  38447321.455          41.000        1095.154
 -27968025.333 7  21251167.577          46.000        -639.586
 -19158314.185 7  23395907.616          46.000       -1888.301
 -27811025.514 7  20616605.783          46.000         536.752
  -4546382.055 7  22594721.283          45.000        3560.156
 -12114652.880 6  24748658.791          39.000       -2145.823
 16  6  8  1 56  0.0000000  0  8G09G07S20G23G03G06G02G19
 -29645775.259 8  20071430.129          52.000         882.357
  -4383066.104 7  22649557.633          44.000        4337.182
  -7566361.049 6  38434824.167          41.000        1095.274
 -27929011.677 7  21258592.575          47.000        -660.462
 -19044687.260 7  23417529.064          45.000       -1899.135
 -27842035.253 7  20610704.451          46.000         496.925
  -4759245.967 7  22554216.815          45.000        3535.340
 -11985722.693 6  24773196.642          40.000       -2151.691
 16  6  8  1 57  0.0000000  0  8G09G07S20G23G03G06G02G19
 -29697822.919 8  20061525.211          52.000         852.592
  -4642777.699 7  22600136.592          45.000        4320.045
  -7632059.502 7  38422319.550          42.000        1095.134
 -27888769.694 7  21266249.940          47.000        -681.287
 -18930420.768 7  23439272.070          44.000       -1909.436
 -27870658.680 7  20605258.692          47.000         457.035
  -4970593.566 7  22513998.199          45.000        3509.932
 -11856441.686 6  24797798.116          41.000       -2158.366
 16  6  8  1 58  0.0000000  0  8G09G07S20G23G03G06G02G19
 -29748079.173 8  20051962.195          51.000         823.112
  -4901432.892 7  22550916.141          46.000        4302.122
  -7697742.580 6  38409821.408          41.000        1094.893
 -27847287.227 7  21274144.611          46.000        -701.184
 -18815498.319 7  23461141.992          43.000       -1920.295
 -27896876.024 7  20600269.570          47.000         417.254
  -5180383.564 7  22474075.608          44.000        3483.740
 -11726811.832 6  24822460.927          38.000       -2162.245
 16  6  8  1 59  0.0000000  0  8G09G07S20G23G03G06G02G19
 -29796587.509 8  20042731.169          51.000         793.885
  -5159047.728 7  22501893.192          46.000        4284.586
  -7763438.563 6  38397320.613          41.000        1094.699
 -27804611.986 7  21282262.120          45.000        -721.384
 -18699962.864 7  23483130.034          43.000       -1930.781
 -27920727.036 7  20595731.134          46.000         377.877
  -5388634.173 7  22434448.136          45.000        3458.016
 -11596894.266 6  24847188.008          40.000       -2167.742
 16  6  8  2  1  0.0000000  0  8G09G07S20G23G03G06G02G19
 -29888328.032 8  20025274.146          51.000         735.210
  -5671014.823 7  22404469.744          47.000        4248.108
  -7894820.127 7  38372320.139          42.000        1094.543
 -27715669.302 7  21299189.495          47.000        -761.362
 -18467018.560 6  23527458.177          39.000       -1951.810
 -27961285.867 7  20588012.641          46.000         298.230
  -5800385.212 7  22356095.332          46.000        3404.553
 -11336233.403 6  24896787.826          38.000       -2175.771
 16  6  8  2  1 59.9990000  0  8G09G07S20G23G03G06G02G19
 -29931595.864 8  20017040.505          51.000         706.727
  -5925343.832 7  22356073.187          46.000        4229.695
  -7960526.615 7  38359816.640          42.000        1095.573
 -27669446.218 7  21307984.596          46.000        -779.870
 -18349646.673 6  23549793.426          38.000       -1960.581
 -27978023.922 7  20584828.291          46.000         258.972
  -6003868.054 7  22317373.840          46.000        3377.969
 -11205562.832 6  24921657.248          40.000       -2178.817
 16  6  8  2  2 59.9990000  0  8G09G07S20G23G03G06G02G19
 -29973173.251 8  20009127.756          50.000         678.692
  -6178582.825 7  22307882.439          47.000        4210.959
  -8026291.813 6  38347301.884          41.000        1096.296
 -27622103.243 7  21316996.290          47.000        -798.460
 -18231714.077 5  23572228.281          34.000       -1969.115
 -27992441.494 7  20582084.087          46.000         220.768
  -6205771.583 7  22278952.282          46.000        3351.653
 -11074727.885 6  24946552.846          40.000       -2181.982
 16  6  8  2  3 59.9990000  0  9G09G30G07S20G23G03G06G02G19
 -30013027.550 8  20001543.682          50.000         650.522
   -296392.23516  24250657.392          37.000        4951.264
  -6430668.405 7  22259912.733          47.000        4192.114
  -8092067.038 6  38334785.454          41.000        1096.799
 -27573612.352 7  21326224.349          47.000        -816.970
 -18113189.735 6  23594790.767          37.000       -1980.523
 -28004504.181 7  20579790.483          46.000         181.937
  -6406035.013 7  22240844.322          47.000        3324.495
 -10943715.123 6  24971483.361          41.000       -2184.341
 16  6  8  2  4 59.9990000  0  9G09G30G07S20G23G03G06G02G19
 -30051161.269 8  19994287.480          51.000         620.687
   -593338.005 6  24194154.634          40.000        4946.716
  -6681574.817 7  22212166.826          47.000        4171.652
  -8157836.932 6  38322268.849          41.000        1094.574
 -27523979.793 7  21335666.505          46.000        -837.265
 -17994075.217 6  23617460.571          36.000       -1990.487
 -28014212.505 7  20577940.550          45.000         142.068
  -6604635.251 7  22203051.233          46.000        3295.687
 -10812543.775 7  24996445.322          42.000       -2187.806
 16  6  8  2  5 59.9990000  0  9G09G30G07S20G23G03G06G02G19
 -30087626.394 8  19987348.331          51.000         593.962
   -890156.031 7  24137676.952          43.000        4945.600
  -6931327.029 8  22164640.582          48.000        4152.813
  -8223653.205 6  38309745.142          41.000        1096.313
 -27473260.822 7  21345318.395          46.000        -854.060
 -17874421.625 5  23640228.307          34.000       -1999.444
 -28021616.775 7  20576532.475          46.000         104.539
  -6801599.591 7  22165571.411          47.000        3268.992
 -10681281.738 6  25021420.335          40.000       -2188.469
 16  6  8  2  6 59.9990000  0  8G09G30G07S20G23G06G02G19
 -30122393.434 8  19980733.128          51.000         565.767
  -1186788.336 7  24081229.005          45.000        4942.234
  -7179867.133 8  22117345.868          48.000        4131.988
  -8289471.308 6  38297220.789          41.000        1095.985
 -27421429.160 7  21355182.200          46.000        -872.743
 -28026685.978 7  20575567.966          46.000          64.734
  -6996873.193 7  22128409.463          46.000        3240.170
 -10549915.866 6  25046419.482          41.000       -2190.441
 16  6  8  2  7 59.9990000  0  9G09G30G07S20G23G03G06G02G19
 -30155438.139 8  19974444.471          50.000         536.083
  -1483182.084 7  24024827.546          46.000        4937.309
  -7427142.862 8  22070290.116          49.000        4110.250
  -8355266.906 6  38284700.048          41.000        1096.512
 -27368463.999 7  21365261.481          47.000        -892.650
    120640.28915  23686095.611          35.000       -2018.921
 -28029394.623 7  20575050.951          45.000          25.357
  -7190406.933 7  22091583.623          46.000        3210.546
 -10418437.392 6  25071441.087          41.000       -2192.819
 16  6  8  2  8 59.9990000  0  9G09G30G07S20G23G03G06G02G19
 -30186827.140 8  19968471.279          50.000         509.373
  -1779375.259 7  23968462.610          45.000        4935.061
  -7673193.287 7  22023467.902          47.000        4090.111
  -8421106.299 6  38272171.228          41.000        1097.929
 -27314434.883 7  21375543.306          47.000        -909.034
    241988.955 6  23709187.728          36.000       -2028.281
 -28029808.442 7  20574974.257          46.000         -11.733
  -7382242.270 7  22055078.866          46.000        3183.032
 -10286928.670 6  25096462.623          39.000       -2191.207
 16  6  8  2  9 59.9990000  0  9G09G30G07S20G23G03G06G02G19
 -30216559.951 8  19962812.906          50.000         481.927
  -2075338.525 6  23912136.186          41.000        4931.097
  -7917990.109 8  21976884.004          48.000        4069.891
  -8486975.374 6  38259635.219          41.000        1098.520
 -27259344.218 7  21386023.087          46.000        -926.549
    363869.527 6  23732383.465          36.000       -2036.007
 -28027926.284 7  20575331.516          46.000         -50.208
  -7572353.235 7  22018900.918          45.000        3154.277
 -10155404.887 6  25121494.332          41.000       -2192.898
 16  6  8  2 10 59.9990000  0  9G09G30G07S20G23G03G06G02G19
 -30244625.816 8  19957471.953          50.000         453.950
  -2371032.243 6  23855867.401          41.000        4926.167
  -8161495.300 8  21930547.482          48.000        4047.755
  -8552844.230 6  38247102.228          41.000        1097.777
 -27203183.837 7  21396712.689          47.000        -944.741
    486294.07915  23755679.733          30.000       -2044.344
 -28023736.879 7  20576130.701          47.000         -89.031
  -7760704.680 7  21983057.734          45.000        3124.274
 -10023870.219 6  25146523.267          40.000       -2192.215
 16  6  8  2 11 59.9990000  0  9G09G30G07S20G23G03G06G02G19
 -30271059.563 8  19952441.736          50.000         426.916
  -2666462.221 7  23799654.491          44.000        4921.372
  -8403715.180 8  21884455.244          48.000        4025.969
  -8618745.764 6  38234562.432          41.000        1098.523
 -27145991.480 7  21407596.407          47.000        -961.715
    609229.36614  23779060.407          29.000       -2052.695
 -28017274.934 7  20577356.753          46.000        -126.914
  -7947305.987 7  21947551.218          46.000        3095.126
  -9892374.017 7  25171547.595          42.000       -2191.209
 16  6  8  2 12 59.9990000  0  9G09G30G07S20G23G03G06G02G19
 -30295850.516 8  19947725.029          50.000         399.440
  -2961588.579 7  23743495.694          45.000        4915.993
  -8644611.154 8  21838613.121          48.000        4003.959
  -8684655.770 6  38222021.711          41.000        1099.755
 -27087758.790 7  21418675.498          47.000        -978.968
    732687.50815  23802556.008          30.000       -2062.759
 -28008529.855 7  20579023.197          47.000        -164.748
  -8132121.737 7  21912380.339          46.000        3065.533
  -9760921.146 6  25196561.923          40.000       -2190.385
 16  6  8  2 13 59.9990000  0  9G09G30G07S20G23G03G06G02G19
 -30318989.695 8  19943321.345          50.000         372.719
  -3256372.744 7  23687400.468          45.000        4910.584
  -8884146.191 7  21793029.383          47.000        3981.646
  -8750562.374 6  38209479.210          41.000        1099.697
 -27028479.101 7  21429958.024          47.000        -996.620
    856679.39816  23826163.308          37.000       -2069.768
 -27997492.882 7  20581122.772          47.000        -202.541
  -8315117.926 7  21877558.272          47.000        3034.482
  -9629516.805 6  25221566.393          39.000       -2188.393
 16  6  8  2 14 59.9990000  0  9G09G30G07S20G23G03G06G02G19
 -30340505.367 8  19939228.064          50.000         345.000
  -3550813.820 7  23631366.580          42.000        4904.700
  -9122321.389 7  21747706.683          47.000        3958.411
  -8816494.734 6  38196932.276          41.000        1099.063
 -26968183.256 7  21441431.804          45.000       -1013.535
    981178.310 6  23849853.986          38.000       -2078.718
 -27984193.064 7  20583653.298          46.000        -240.697
  -8496298.580 7  21843078.038          45.000        3004.201
  -9498203.511 6  25246558.961          40.000       -2188.096
 16  6  8  2 16  0.0000000  0  9G09G30G07S20G23G03G06G02G19
 -30360386.399 8  20235235.811          49.000         317.995
  -3844870.898 7  23875200.584          42.000        4897.666
  -9359097.550 8  22002442.309          48.000        3934.712
  -8882426.028 6  38484177.693          41.000        1098.389
 -26906862.109 7  21752892.626          45.000       -1029.931
   1106197.036 5  24173436.008          35.000       -2087.210
 -27968620.011 7  20886409.463          47.000        -278.338
  -8675627.319 7  22108745.912          43.000        2973.230
  -9366984.553 6  25571321.107          38.000       -2185.665
 16  6  8  2 17  0.0000000  0  9G09G30G17G07S20G23G06G02G19
 -30378655.039 8  20231759.571          50.000         290.470
  -4138536.541 6  23819318.443          41.000        4891.229
   1267490.24711  26399766.128           8.000       -1839.028
  -9594469.445 8  21957653.760          49.000        3910.767
  -8948358.981 6  38471631.911          41.000        1098.571
 -26844539.849 7  21764752.945          45.000       -1047.783
 -27950797.130 8  20889800.982          48.000        -315.788
  -8853101.816 7  22074972.411          42.000        2942.420
  -9235895.806 6  25596265.111          37.000       -2183.270
 16  6  8  2 18  0.0000000  0  8G09G30G07S20G23G06G02G19
 -30395302.220 8  20228590.873          49.000         263.993
  -4431771.900 6  23763518.248          41.000        4883.818
  -9828400.314 7  21913137.085          47.000        3886.913
  -9014283.222 6  38459086.932          41.000        1099.662
 -26781209.044 7  21776804.991          46.000       -1063.930
 -27930716.645 8  20893624.290          49.000        -353.574
  -9028689.005 7  22041561.928          43.000        2910.458
  -9104942.226 5  25621190.531          35.000       -2180.338
 16  6  8  2 19  0.0000000  0  9G09G30G07S20G23G03G06G02G19
 -30410352.722 8  20225728.165          50.000         237.631
  -4724571.907 6  23707799.162          41.000        4876.398
 -10060887.355 8  21868896.473          48.000        3862.581
  -9080207.635 6  38446543.855          41.000        1099.342
 -26716896.986 7  21789041.485          46.000       -1079.886
   1483655.15115  24245375.560          33.000       -2113.010
 -27908405.086 8  20897869.317          49.000        -390.286
  -9202389.026 7  22008506.835          43.000        2879.569
  -8974170.63413  25646058.836          23.000       -2178.016
 16  6  8  2 20  0.0000000  0  9G09G30G07S20G23G03G06G02G19
 -30423821.306 8  20223165.426          50.000         211.222
  -5016921.120 6  23652164.413          41.000        4867.876
 -10291917.932 7  21824931.679          47.000        3838.186
  -9146144.568 6  38433996.189          41.000        1099.392
 -26651619.684 7  21801463.352          45.000       -1096.413
   1610645.46416  24269544.827          36.000       -2119.895
 -27883878.957 8  20902535.715          49.000        -427.421
  -9374192.193 7  21975815.999          44.000        2848.135
  -8843637.44315  25670921.261          30.000       -2174.342
 16  6  8  2 21  0.0000000  0  8G09G30G07S20G23G03G06G02
 -30435708.379 8  20220903.110          50.000         184.766
  -5308789.952 7  23596623.633          42.000        4860.678
 -10521464.819 7  21781250.940          47.000        3813.171
  -9212094.260 6  38421444.631          41.000        1099.980
 -26585378.595 7  21814071.082          45.000       -1112.193
   1738112.49716  24293801.852          36.000       -2128.908
 -27857140.938 8  20907624.303          49.000        -464.243
  -9544075.112 7  21943484.706          43.000        2815.527
 16  6  8  2 22  0.0000000  0  9G09G30G07S20G23G03G06G02G19
 -30446024.600 8  20218939.960          49.000         158.788
  -5600158.995 7  23541181.010          44.000        4852.097
 -10749511.552 7  21737854.517          47.000        3788.137
  -9278052.147 6  38408894.662          41.000        1099.625
 -26518186.757 7  21826854.658          44.000       -1127.472
   1866046.947 6  24318147.610          36.000       -2137.148
 -27828204.090 8  20913130.562          49.000        -500.620
  -9712024.328 7  21911524.284          44.000        2782.231
  -8583553.59513  25720490.262          22.000       -2160.049
 16  6  8  2 23  0.0000000  0  8G09G30G07S20G23G03G06G02
 -30454766.911 8  20217277.216          49.000         131.884
  -5890994.820 7  23485838.186          45.000        4842.150
 -10976027.975 8  21694750.873          48.000        3761.836
  -9344011.590 6  38396340.957          41.000        1100.009
 -26450041.496 7  21839825.527          45.000       -1144.185
   1994454.62614  24342582.871          29.000       -2146.825
 -27797067.987 8  20919055.749          49.000        -537.599
  -9878012.951 7  21879940.140          45.000        2749.853
 16  6  8  2 24  0.0000000  0  9G09G30G07S20G23G03G06G04G02
 -30461953.293 8  20215908.404          49.000         106.590
  -6181285.028 7  23430595.543          44.000        4833.555
 -11201004.558 8  21651938.771          48.000        3736.650
  -9409974.710 6  38383787.951          41.000        1099.783
 -26380962.386 7  21852966.187          42.000       -1159.689
   2123292.64415  24367111.665          32.000       -2150.426
 -27763753.525 8  20925395.326          49.000        -573.452
   -104672.29115  24980573.877          34.000          78.886
 -10042035.252 7  21848728.646          46.000        2717.162
 16  6  8  2 24 59.9990000  0  9G09G30G07S20G23G03G06G04G02
 -30467583.848 8  20214836.472          49.000          80.397
  -6470994.538 7  23375463.412          42.000        4823.803
 -11424410.545 7  21609425.329          47.000        3709.763
  -9475920.798 6  38371240.529          41.000        1098.139
 -26310951.873 7  21866292.517          45.000       -1174.724
   2252612.469 6  24391713.889          37.000       -2159.736
 -27728264.647 8  20932147.548          48.000        -610.136
   -108259.064 5  24979893.319          33.000          41.052
 -10204065.077 7  21817894.076          45.000        2683.365
 16  6  8  2 25 59.9990000  0  9G09G30G07S20G23G03G06G04G02
 -30471674.790 8  20214059.710          49.000          55.698
  -6760118.646 7  23320446.488          44.000        4813.748
 -11646242.572 8  21567213.549          48.000        3684.032
  -9541867.336 6  38358691.694          41.000        1100.034
 -26240024.830 7  21879788.759          45.000       -1189.716
   2382379.752 5  24416403.801          33.000       -2166.029
 -27690619.638 8  20939312.328          49.000        -644.995
   -109562.964 5  24979644.531          33.000           1.438
 -10364100.676 7  21787439.729          44.000        2650.649
 16  6  8  2 26 59.9990000  0  9G09G30G07S20G23G03G06G04G02
 -30474237.903 8  20213571.523          49.000          29.451
  -7048633.730 7  23265544.508          45.000        4802.862
 -11866482.199 7  21525301.651          47.000        3656.927
  -9607823.128 6  38346141.567          41.000        1099.057
 -26168195.057 7  21893458.038          45.000       -1204.956
   2512582.26414  24441164.892          27.000       -2174.406
 -27650834.661 8  20946882.459          49.000        -681.295
   -108595.51615  24979827.671          33.000         -35.917
 -10522127.831 7  21757367.402          44.000        2616.843
 16  6  8  2 27 59.9990000  0 10G09G30G07S20G23G03G06G04G02G19
 -30475273.348 8  20213373.376          49.000           4.119
  -7336509.467 7  23210764.279          44.000        4791.853
 -12085102.681 7  21483700.593          47.000        3629.381
  -9673772.299 6  38333590.987          41.000        1098.578
 -26095463.505 7  21907296.968          45.000       -1219.972
   2643221.72915  24466052.201          33.000       -2180.912
 -27608913.783 8  20954861.257          50.000        -717.190
   -105357.07215  24980439.493          30.000         -74.221
 -10678123.892 7  21727684.111          46.000        2582.292
  -7810405.10813  25867925.424          19.000       -2131.888
 16  6  8  2 28 59.9990000  0  9G09G30G07S20G23G03G06G04G02
 -30474802.844 8  20213463.698          49.000         -20.052
  -7623736.864 7  23156106.392          46.000        4781.889
 -12302098.984 7  21442406.625          47.000        3603.210
  -9739733.502 6  38321038.155          41.000        1099.345
 -26021852.143 7  21921305.881          46.000       -1234.124
   2774278.218 6  24490983.868          37.000       -2187.368
 -27564882.964 8  20963238.199          49.000        -751.082
    -99869.38414  24981483.924          29.000        -109.991
 -10832087.901 7  21698383.887          45.000        2549.511
 16  6  8  2 29 59.9990000  0  9G09G30G07S20G23G03G06G04G02
 -30472819.285 8  20213840.815          49.000         -45.354
  -7910278.118 7  23101580.186          46.000        4770.204
 -12517437.561 7  21401430.460          47.000        3575.652
  -9805683.266 6  38308489.354          41.000        1098.765
 -25947355.211 7  21935479.349          44.000       -1248.581
   2905761.822 6  24516009.277          41.000       -2194.508
 -27518739.535 8  20972019.376          49.000        -786.321
    -92125.34415  24982959.811          34.000        -147.691
 -10983989.900 7  21669478.753          46.000        2515.180
 16  6  8  2 30 59.9990000  0  9G09G30G07S20G23G03G06G04G02
 -30469353.813 8  20214499.892          48.000         -70.301
  -8196133.585 7  23047181.941          46.000        4758.314
 -12731123.266 7  21360766.375          47.000        3547.410
  -9871631.800 6  38295939.088          41.000        1098.888
 -25872003.649 7  21949819.537          45.000       -1263.379
   3037643.503 6  24541106.198          40.000       -2201.319
 -27470519.235 8  20981195.904          49.000        -821.321
    -82157.77115  24984856.213          32.000        -184.872
 -11133838.741 7  21640963.805          45.000        2479.980
 16  6  8  2 31 59.9990000  0  9G09G30G07S20G23G03G06G04G02
 -30464403.356 8  20215442.117          49.000         -94.511
  -8481269.466 7  22992922.880          47.000        4746.611
 -12943127.445 7  21320422.414          46.000        3519.999
  -9937574.360 6  38283391.143          41.000        1099.815
 -25795794.854 7  21964321.959          46.000       -1276.734
   3169928.187 6  24566278.975          39.000       -2207.695
 -27420223.982 8  20990767.105          49.000        -854.908
    -69964.93315  24987175.853          34.000        -221.050
 -11281608.450 7  21612842.518          45.000        2446.112
 16  6  8  2 32 59.9990000  0  9G09G30G07S20G23G03G06G04G02
 -30457988.431 8  20216662.742          49.000        -119.144
  -8765675.474 7  22938802.879          46.000        4734.126
 -13153443.622 7  21280401.683          47.000        3491.119
 -10003514.461 6  38270842.831          41.000        1098.722
 -25718749.931 7  21978980.683          45.000       -1290.530
   3302597.795 6  24591523.158          37.000       -2214.099
 -27367879.428 8  21000727.410          49.000        -889.249
    -55567.946 5  24989915.345          34.000        -257.396
 -11427298.574 7  21585117.769          45.000        2410.866
 16  6  8  2 33 59.9990000  0  9G09G30G07S20G23G03G06G04G02
 -30450102.831 8  20218163.618          49.000        -143.507
  -9049314.597 7  22884826.826          46.000        4721.188
 -13362040.110 7  21240707.289          47.000        3462.278
 -10069444.166 6  38258297.921          41.000        1098.688
 -25640862.239 7  21993804.346          46.000       -1304.964
   3435660.564 6  24616842.568          36.000       -2221.077
 -27313484.813 8  21011077.657          48.000        -923.477
    -38963.37215  24993074.655          35.000        -296.840
 -11570880.789 7  21557796.015          46.000        2375.534
 16  6  8  2 34 59.9990000  0  9G09G30G07S20G23G03G06G04G02
 -30440752.565 8  20219943.575          50.000        -167.651
  -9332161.986 7  22831001.804          45.000        4707.503
 -13568897.024 7  21201344.309          47.000        3433.383
 -10135367.844 6  38245752.803          41.000        1098.809
 -25562138.515 7  22008784.364          47.000       -1319.043
   3569112.692 5  24642230.524          33.000       -2226.530
 -27257051.780 8  21021815.788          48.000        -957.283
    -20158.85315  24996651.793          32.000        -330.927
 -11712339.667 7  21530878.199          46.000        2340.142
 16  6  8  2 35 59.9990000  0  9G09G30G07S20G23G03G06G04G02
 -30429945.647 8  20221999.280          49.000        -191.875
  -9614194.717 7  22777333.502          46.000        4693.729
 -13773996.976 7  21162313.948          47.000        3404.025
 -10201275.580 6  38233210.633          41.000        1097.891
 -25482586.341 7  22023921.764          45.000       -1332.325
   3702949.12115  24667700.233          32.000       -2236.698
 -27198594.181 7  21032939.255          47.000        -990.784
       834.28715  25000647.212          32.000        -368.309
 -11851662.128 7  21504366.363          46.000        2304.146
 16  6  8  2 36 59.9990000  0  9G09G30G07S20G23G03G06G04G02
 -30417687.397 8  20224331.851          49.000        -216.451
  -9895387.389 7  22723823.980          45.000        4679.633
 -13977320.094 7  21123622.959          47.000        3374.195
 -10267154.636 6  38220674.257          41.000        1097.975
 -25402211.144 7  22039217.020          45.000       -1346.249
   3837165.19116  24693249.708          36.000       -2240.544
 -27138123.567 8  21044447.778          48.000       -1024.653
     24008.80415  25005056.952          31.000        -404.122
 -11988831.881 7  21478265.025          46.000        2268.090
 16  6  8  2 37 59.9990000  0  9G09G30G07S20G23G03G06G04G02
 -30403999.421 8  20226935.057          49.000        -238.855
 -10175730.668 7  22670476.500          45.000        4665.845
 -14178862.512 7  21085271.010          47.000        3344.887
 -10333022.616 6  38208139.766          41.000        1099.087
 -25321034.205 7  22054665.523          46.000       -1358.775
   3971742.86615  24718854.988          35.000       -2244.209
 -27075667.845 8  21056332.685          48.000       -1057.180
     49339.87715  25009880.558          31.000        -437.513
 -12123849.851 7  21452572.424          47.000        2232.928
 16  6  8  2 39  0.0000000  0  9G09G30G07S20G23G03G06G04G02
 -30388893.457 8  20529604.285          50.000        -263.460
 -10455205.315 7  22917086.781          46.000        4650.422
 -14378611.197 8  21347053.191          48.000        3314.027
 -10398874.414 6  38495401.813          41.000        1096.795
 -25239066.856 7  22370056.431          46.000       -1372.742
   4106672.23716  25044321.495          36.000       -2251.705
 -27011245.260 8  21368385.820          48.000       -1090.067
     76812.44915  25314900.278          31.000        -476.995
 -12256707.670 7  21727081.485          46.000        2196.413
 16  6  8  2 40  0.0000000  0  9G09G30G07S20G23G03G06G04G02
 -30372378.813 8  20532746.650          49.000        -286.838
 -10733790.036 7  22864073.770          45.000        4636.116
 -14576550.803 8  21309386.425          48.000        3283.908
 -10464716.150 6  38482871.544          41.000        1097.046
 -25156318.641 7  22385801.239          45.000       -1386.280
   4241946.143 5  25070061.508          35.000       -2257.651
 -26944872.168 8  21381015.642          48.000       -1122.490
    106412.90514  25320528.008          27.000        -511.337
 -12387394.182 7  21702212.517          46.000        2159.869
 16  6  8  2 41  0.0000000  0  9G09G30G07S20G23G03G06G04G02
 -30354478.643 8  20536153.159          49.000        -309.934
 -11011477.061 7  22811231.230          46.000        4620.757
 -14772679.426 8  21272064.004          48.000        3253.830
 -10530570.298 6  38470339.251          41.000        1097.339
 -25072811.473 7  22401694.007          47.000       -1397.839
   4377543.716 6  25095868.478          36.000       -2263.443
 -26876578.656 7  21394009.755          47.000       -1154.115
    138115.35014  25326563.184          27.000        -545.652
 -12515913.098 7  21677756.176          46.000        2124.025
 16  6  8  2 42  0.0000000  0  9G09G30G07S20G23G03G06G04G02
 -30335193.341 8  20539822.731          49.000        -333.059
 -11288235.892 7  22758566.351          45.000        4604.742
 -14966973.394 8  21235091.791          49.000        3222.805
 -10596420.298 6  38457808.372          41.000        1097.349
 -24988545.921 7  22417729.763          47.000       -1411.304
   4513466.557 5  25121739.578          35.000       -2267.349
 -26806372.338 8  21407371.788          48.000       -1185.810
    171914.08214  25332994.252          26.000        -580.871
 -12642244.330 7  21653716.110          47.000        2086.937
 16  6  8  2 43  0.0000000  0  9G09G30G07S20G23G03G06G04G02
 -30314538.021 8  20543752.799          48.000        -355.595
 -11564050.838 7  22706078.400          45.000        4589.064
 -15159423.138 8  21198469.403          48.000        3191.990
 -10662260.891 6  38445280.652          41.000        1097.484
 -24903536.046 7  22433904.038          45.000       -1423.030
   4649701.932 5  25147672.591          34.000       -2272.929
 -26734275.854 8  21421091.516          48.000       -1217.481
    207790.13914  25339823.552          26.000        -614.918
 -12766383.843 7  21630093.140          47.000        2050.625
 16  6  8  2 44  0.0000000  0  9G09G30G07S20G23G03G06G04G02
 -30292527.552 8  20547941.584          49.000        -378.558
 -11838906.090 7  22653775.525          45.000        4572.895
 -15350020.374 8  21162200.120          48.000        3160.639
 -10728103.044 6  38432751.605          41.000        1097.151
 -24817796.223 7  22450219.398          45.000       -1435.812
   4786237.039 5  25173656.139          33.000       -2279.991
 -26660311.830 8  21435165.867          48.000       -1248.676
    245724.13013  25347044.906          23.000        -645.292
 -12888328.096 7  21606887.212          47.000        2013.708
 16  6  8  2 45  0.0000000  0  8G09G30G07S20G23G06G04G02
 -30269161.145 8  20552387.638          49.000        -400.341
 -12112770.101 7  22601661.706          45.000        4555.841
 -15538739.869 8  21126287.206          48.000        3129.640
 -10793930.410 6  38420224.739          41.000        1097.074
 -24731324.811 7  22466676.192          47.000       -1446.978
 -26584487.353 8  21449594.666          48.000       -1278.819
    285708.17814  25354650.182          25.000        -684.316
 -13008056.959 7  21584105.831          47.000        1977.092
 16  6  8  2 46  0.0000000  0  9G09G30G07S20G23G03G06G04G02
 -30244460.815 8  20557088.604          50.000        -423.037
 -12385634.193 7  22549736.856          46.000        4539.257
 -15725580.582 8  21090732.212          48.000        3098.309
 -10859761.520 6  38407698.449          41.000        1097.188
 -24644143.260 7  22483264.561          46.000       -1459.195
   5060175.77214  25225774.390          27.000       -2287.232
 -26506832.643 8  21464372.034          49.000       -1309.641
    327737.71413  25362650.373          23.000        -717.546
 -13125574.037 7  21561741.789          47.000        1940.290
 16  6  8  2 47  0.0000000  0 10G09G26G30G07S20G23G03G06G04G02
 -30218436.209 8  20562041.500          49.000        -444.286
  -5570894.13412  24818076.577          16.000        1158.724
 -12657477.324 7  22498005.772          45.000        4522.422
 -15910528.667 8  21055538.544          48.000        3067.015
 -10925604.840 6  38395167.622          40.000        1097.978
 -24556259.798 7  22499990.944          47.000       -1470.307
   5197572.33014  25251924.746          28.000       -2292.913
 -26427365.664 8  21479493.049          48.000       -1339.508
    371714.59311  25371017.386          10.000        -753.226
 -13240870.703 7  21539803.288          47.000        1903.142
 16  6  8  2 47 59.9990000  0 10G09G26G30G07S20G23G03G06G04G02
 -30191091.788 8  20567243.794          48.000        -466.990
  -5640457.73611  24804860.550           9.000        1159.258
 -12928268.487 7  22446478.037          46.000        4503.965
 -16093562.235 8  21020707.403          48.000        3034.458
 -10991447.349 6  38382638.279          41.000        1097.759
 -24467679.547 7  22516846.563          47.000       -1481.896
   5335240.19714  25278129.703          29.000       -2297.469
 -26346100.462 8  21494958.636          48.000       -1369.590
    417700.44812  25379787.936          15.000        -782.726
 -13353931.716 7  21518287.466          47.000        1865.823
 16  6  8  2 48 59.9990000  0  9G09G26G30G07S20G23G03G06G02
 -30162432.487 8  20572699.133          49.000        -488.365
  -5709903.03311  24791648.327          10.000        1156.912
 -13197991.913 7  22395152.200          47.000        4486.393
 -16274670.349 8  20986244.340          48.000        3002.456
 -11057290.770 6  38370108.516          40.000        1097.131
 -24378403.742 7  22533834.350          46.000       -1493.468
   5473179.94314  25304378.739          27.000       -2301.641
 -26263048.739 8  21510762.513          48.000       -1398.715
 -13464748.626 8  21497200.064          48.000        1828.362
 16  6  8  2 49 59.9990000  0 11G09G26G30G07S20G23G03G06G04G05G02
 -30132472.069 8  20578399.788          48.000        -510.165
  -5779378.06211  24778430.119          10.000        1161.804
 -13466626.048 7  22344031.316          47.000        4468.105
 -16453840.778 8  20952148.743          48.000        2969.759
 -11123132.159 6  38357578.196          41.000        1096.797
 -24288446.568 7  22550951.024          46.000       -1504.679
   5611385.16014  25330676.409          24.000       -2310.559
 -26178234.332 8  21526903.145          48.000       -1428.560
    515158.51712  25398426.374          14.000        -845.392
   -265979.51816  23549133.284          38.000        4426.303
 -13573315.810 7  21476539.513          47.000        1790.333
 16  6  8  2 50 59.9990000  0  9G09G30G07S20G23G03G06G05G02
 -30101223.862 7  20584346.211          47.000        -531.709
 -13734153.766 7  22293123.778          47.000        4449.819
 -16631065.222 8  20918424.348          48.000        2937.491
 -11188964.513 6  38345051.051          40.000        1097.398
 -24197819.984 7  22568199.814          47.000       -1515.716
   5749824.98613  25357031.595          18.000       -2304.094
 -26091679.652 8  21543373.550          48.000       -1457.034
   -531375.741 6  23498618.847          37.000        4419.895
 -13679629.779 8  21456308.620          48.000        1753.442
 16  6  8  2 51 59.9990000  0  8G09G30G07S20G23G06G05G02
 -30068693.893 7  20590537.409          47.000        -553.119
 -14000550.797 8  22242429.151          48.000        4430.000
 -16806326.414 8  20885075.202          49.000        2904.406
 -11254790.373 6  38332524.848          40.000        1097.157
 -24106528.323 8  22585570.511          48.000       -1527.651
 -26003400.101 8  21560172.177          48.000       -1485.916
   -796327.357 6  23448204.505          40.000        4411.840
 -13783680.530 7  21436507.823          47.000        1714.787
 16  6  8  2 52 59.9990000  0  8G09G30G07S20G23G06G05G02
 -30034896.009 8  20596969.035          48.000        -574.139
 -14265800.693 7  22191953.139          47.000        4411.356
 -16979617.367 8  20852096.663          48.000        2871.482
 -11320622.973 6  38319997.110          40.000        1097.006
 -24014584.875 8  22603068.979          48.000       -1538.007
 -25913419.039 8  21577295.622          48.000       -1513.976
  -1060824.41816  23397865.042          38.000        4402.568
 -13885464.974 7  21417138.954          47.000        1677.098
 16  6  8  2 53 59.9990000  0  8G09G30G07S20G23G06G05G02
 -29999844.148 7  20603638.142          47.000        -594.543
 -14529887.287 7  22141699.409          47.000        4391.104
 -17150929.938 8  20819497.109          48.000        2838.199
 -11386460.864 6  38307469.389          41.000        1096.919
 -23922002.015 8  22620685.410          48.000       -1548.702
 -25821760.269 7  21594736.224          47.000       -1542.054
  -1324859.789 6  23347626.563          41.000        4397.390
 -13984981.693 7  21398201.350          47.000        1639.521
 16  6  8  2 54 59.9990000  0  8G09G30G07S20G23G06G05G02
 -29963546.159 7  20610545.933          47.000        -615.073
 -14792788.343 8  22091671.188          48.000        4371.244
 -17320251.469 8  20787277.271          49.000        2805.074
 -11452305.740 6  38294936.678          40.000        1097.023
 -23828785.979 8  22638425.179          48.000       -1558.799
 -25728441.598 7  21612494.456          47.000       -1569.474
  -1588415.678 6  23297469.158          40.000        4387.893
 -14082223.179 7  21379696.912          47.000        1601.352
 16  6  8  2 55 59.9990000  0  8G09G30G07S20G23G06G05G02
 -29925996.992 7  20617691.623          47.000        -635.764
 -15054468.882 8  22041876.416          49.000        4351.266
 -17487555.714 8  20755439.436          48.000        2771.837
 -11518136.311 6  38282410.719          40.000        1097.164
 -23734930.324 7  22656282.929          47.000       -1569.402
 -25633468.061 7  21630567.751          47.000       -1596.186
  -1851464.423 6  23247414.116          41.000        4379.889
 -14177169.177 7  21361629.881          47.000        1563.462
 16  6  8  2 56 59.9990000  0  9G09G30G07S20G23G06G05G02G19
 -29887229.716 7  20625068.737          47.000        -655.813
 -15314932.007 7  21992309.927          47.000        4331.067
 -17652855.267 8  20723984.389          49.000        2738.601
 -11583967.009 6  38269883.313          40.000        1096.775
 -23640466.675 7  22674261.051          47.000       -1579.289
 -25536883.014 7  21648947.716          47.000       -1622.709
  -2114015.861 6  23197448.052          40.000        4371.622
 -14269838.186 7  21343994.080          46.000        1525.893
  -4338965.20412  26828126.535          13.000       -1849.672
 16  6  8  2 57 59.9990000  0  8G09G30G07S20G23G06G05G02
 -29847239.406 7  20632678.271          46.000        -676.897
 -15574143.123 8  21942984.496          48.000        4309.743
 -17816124.626 8  20692914.992          48.000        2704.202
 -11649787.914 6  38257357.372          41.000        1097.361
 -23545388.528 7  22692352.460          47.000       -1589.697
 -25438692.100 7  21667630.775          46.000       -1650.216
  -2376041.195 7  23147593.600          43.000        4362.929
 -14360211.055 7  21326800.067          47.000        1486.979
 16  6  8  2 58 59.9990000  0  8G09G30G07S20G23G06G05G02
 -29806032.011 7  20640519.788          46.000        -696.942
 -15832078.564 7  21893901.065          47.000        4288.263
 -17977349.882 8  20662234.124          48.000        2670.198
 -11715605.221 6  38244832.932          40.000        1096.676
 -23449700.044 7  22710560.261          46.000       -1599.849
 -25338911.922 7  21686619.735          47.000       -1675.690
  -2637522.566 6  23097830.047          41.000        4353.948
 -14448279.335 7  21310039.185          47.000        1449.019
 16  6  8  3  1  0.0000000  0  9G09G30G16G07S20G23G06G05G02
 -29720021.746 7  20956679.029          45.000        -737.087
 -16344059.987 7  22096266.371          47.000        4244.080
   -247132.76016  24041282.490          37.000        1173.917
 -18293645.420 8  20901838.509          49.000        2601.138
 -11847231.052 6  38519577.030          40.000        1096.658
 -23256541.673 7  23047110.483          47.000       -1619.738
 -25134683.006 7  22025276.023          47.000       -1727.765
  -3158815.535 7  23298425.465          43.000        4334.335
 -14617504.776 7  21577628.519          46.000        1371.118
 16  6  8  3  2  0.0000000  0  9G09G30G16G07S20G23G06G05G02
 -29675240.366 7  20965201.785          46.000        -756.691
 -16598068.715 8  22047929.687          48.000        4222.075
   -316351.90415  24028108.483          32.000        1132.797
 -18448698.554 8  20872332.337          48.000        2566.659
 -11913039.383 6  38507054.510          40.000        1095.998
 -23159089.427 8  23065658.808          48.000       -1629.522
 -25030277.972 7  22045144.108          47.000       -1753.069
  -3418599.543 7  23248987.637          42.000        4324.885
 -14698657.673 7  21562185.321          46.000        1332.732
 16  6  8  3  3  0.0000000  0  9G09G30G16G07S20G23G06G05G02
 -29629296.977 7  20973943.699          46.000        -775.502
 -16850739.377 8  21999848.421          48.000        4199.717
   -383113.96215  24015402.107          32.000        1091.238
 -18601685.724 8  20843220.313          49.000        2532.373
 -11978842.566 6  38494533.158          40.000        1096.543
 -23061075.209 7  23084306.337          46.000       -1638.354
 -24924383.091 7  22065294.660          47.000       -1777.269
  -3677799.634 7  23199669.482          44.000        4314.797
 -14777509.047 7  21547180.821          46.000        1294.836
 16  6  8  3  4  0.0000000  0  9G09G30G16G07S20G23G06G05G02
 -29582196.223 7  20982905.851          45.000        -794.775
 -17102047.661 8  21952026.955          48.000        4177.062
   -447411.33615  24003163.101          32.000        1051.951
 -18752592.564 8  20814503.903          49.000        2497.931
 -12044641.053 6  38482011.580          40.000        1096.951
 -22962501.382 7  23103066.054          46.000       -1647.342
 -24817014.533 7  22085724.886          46.000       -1801.869
  -3936396.329 7  23150454.040          42.000        4304.615
 -14854051.420 7  21532615.142          46.000        1256.517
 16  6  8  3  5  0.0000000  0  9G09G30G16G07S20G23G06G05G02
 -29533952.558 7  20992087.720          46.000        -813.686
 -17351979.130 7  21904464.816          47.000        4153.255
   -509246.979 6  23991403.346          36.000        1009.166
 -18901416.001 8  20786183.788          49.000        2462.591
 -12110450.948 6  38469488.309          40.000        1096.597
 -22863381.146 7  23121925.656          46.000       -1657.051
 -24708198.359 7  22106433.496          47.000       -1826.201
  -4194378.681 7  23101362.581          42.000        4293.777
 -14928288.324 7  21518488.981          47.000        1217.762
 16  6  8  3  6  0.0000000  0  9G09G30G16G07S20G23G06G05G02
 -29484555.518 7  21001486.703          46.000        -833.364
 -17600494.505 7  21857173.487          47.000        4130.440
   -568596.99414  23980105.343          29.000         968.984
 -19048127.513 8  20758265.010          49.000        2427.257
 -12176244.325 6  38456969.121          40.000        1096.309
 -22763701.382 7  23140896.399          47.000       -1666.401
 -24597935.827 7  22127415.516          47.000       -1849.829
  -4451713.140 7  23052395.089          42.000        4283.044
 -15000197.515 7  21504806.196          47.000        1179.323
 16  6  8  3  7  0.0000000  0  9G09G30G16G07S20G23G06G05G02
 -29434023.844 7  21011102.506          46.000        -851.501
 -17847584.215 7  21810153.927          46.000        4106.318
   -625470.17215  23969285.318          34.000         927.920
 -19192728.300 8  20730749.751          50.000        2392.342
 -12242034.103 6  38444448.835          40.000        1096.614
 -22663479.462 7  23159968.405          47.000       -1674.903
 -24486257.847 7  22148666.182          47.000       -1872.520
  -4708393.392 6  23003546.293          40.000        4272.866
 -15069787.145 7  21491561.986          46.000        1140.449
 16  6  8  3  8  0.0000000  0  9G09G30G16G07S20G23G06G05G02
 -29382365.757 7  21020932.563          46.000        -869.781
 -18093227.852 7  21763409.261          47.000        4081.657
   -679862.953 5  23958932.976          35.000         885.835
 -19335209.227 8  20703635.114          49.000        2356.875
 -12307812.705 6  38431930.938          41.000        1096.080
 -22562721.293 7  23179141.954          47.000       -1683.439
 -24373184.601 7  22170184.603          47.000       -1895.584
  -4964403.762 7  22954836.907          42.000        4261.407
 -15137054.879 7  21478762.199          47.000        1102.090
 16  6  8  3  9  0.0000000  0  9G09G30G16G07S20G23G06G05G02
 -29329591.103 7  21030976.071          45.000        -888.466
 -18337407.164 7  21716942.490          46.000        4057.584
   -731775.113 6  23949055.106          37.000         844.524
 -19475563.610 8  20676927.242          49.000        2321.997
 -12373571.542 6  38419419.377          40.000        1096.347
 -22461434.611 7  23198415.423          47.000       -1692.207
 -24258738.272 7  22191963.662          47.000       -1917.814
  -5219729.728 6  22906249.097          41.000        4250.027
 -15202001.020 7  21466403.309          47.000        1062.930
 16  6  8  3  9 59.9990000  0  9G09G30G16G07S20G23G06G05G02
 -29275714.755 7  21041227.166          45.000        -906.897
 -18580103.765 7  21670760.646          47.000        4032.544
   -781209.186 5  23939646.768          33.000         803.352
 -19613786.562 8  20650624.581          49.000        2286.184
 -12439319.737 6  38406906.715          40.000        1096.410
 -22359633.193 7  23217787.921          47.000       -1700.879
 -24142946.937 7  22213997.266          47.000       -1940.910
  -5474355.795 6  22857795.007          41.000        4237.771
 -15264628.033 7  21454486.556          47.000        1024.459
 16  6  8  3 10 59.9990000  0  9G09G30G16G07S20G23G06G05G02
 -29220749.628 7  21051686.966          44.000        -924.643
 -18821312.818 7  21624860.291          47.000        4007.849
   -828173.04715  23930712.397          35.000         761.411
 -19749880.999 8  20624725.683          49.000        2250.455
 -12505074.706 6  38394395.014          41.000        1095.684
 -22257326.032 7  23237256.013          47.000       -1709.650
 -24025834.184 7  22236281.980          47.000       -1962.617
  -5728281.396 7  22809473.138          42.000        4226.638
 -15324944.481 7  21443007.331          47.000         986.047
 16  6  8  3 11 59.9990000  0  9G09G30G16G07S20G23G06G05G02
 -29164689.486 7  21062356.937          46.000        -943.464
 -19060995.254 7  21579249.645          47.000        3981.476
   -872648.754 5  23922248.064          35.000         720.828
 -19883821.872 8  20599238.297          49.000        2214.228
 -12570811.057 6  38381884.953          40.000        1096.113
 -22154505.994 7  23256821.301          47.000       -1717.833
 -23907407.280 7  22258819.163          46.000       -1984.685
  -5981469.861 7  22761292.808          43.000        4213.554
 -15382932.424 7  21431973.663          47.000         946.870
 16  6  8  3 12 59.9990000  0  9G09G30G16G07S20G23G06G05G02
 -29107553.575 7  21073229.103          47.000        -961.041
 -19299142.901 8  21533932.895          48.000        3956.512
   -914647.530 6  23914254.171          36.000         679.964
 -20015612.906 8  20574159.838          49.000        2178.809
 -12636544.612 6  38369376.166          40.000        1096.039
 -22051189.522 7  23276483.893          47.000       -1725.855
 -23787698.403 7  22281599.270          46.000       -2005.510
  -6233916.305 7  22713250.858          43.000        4202.068
 -15438602.985 7  21421379.427          47.000         909.094
 16  6  8  3 13 59.9990000  0  9G09G30G16G07S20G23G06G05G02
 -29049342.466 8  21084306.990          48.000        -979.529
 -19535728.981 7  21488911.106          47.000        3929.819
   -954161.413 5  23906735.291          34.000         637.231
 -20145239.256 8  20549492.298          49.000        2142.056
 -12702260.012 6  38356871.008          40.000        1094.994
 -21947375.231 7  23296237.940          47.000       -1734.738
 -23666720.956 7  22304621.238          47.000       -2026.934
  -6485596.273 7  22665361.702          44.000        4188.357
 -15491949.592 7  21411227.972          47.000         869.937
 16  6  8  3 14 59.9990000  0  9G09G30G16G07S20G23G06G05G02
 -28990071.404 8  21095585.676          48.000        -996.117
 -19770741.518 8  21444190.002          48.000        3904.147
   -991198.186 5  23899689.766          35.000         598.742
 -20272701.796 8  20525236.687          49.000        2106.961
 -12767968.330 6  38344365.152          40.000        1095.318
 -21843076.303 7  23316085.993          47.000       -1741.893
 -23544503.172 7  22327876.794          45.000       -2046.601
  -6736500.280 7  22617615.411          44.000        4175.980
 -15542979.684 7  21401516.664          47.000         831.563
 16  6  8  3 15 59.9990000  0  9G09G30G16G07S20G23G06G05G02
 -28929757.956 7  21107062.597          47.000       -1013.723
 -20004171.131 8  21399770.264          48.000        3877.174
  -1025768.551 5  23893106.043          33.000         555.958
 -20398002.685 8  20501392.971          49.000        2070.512
 -12833672.572 6  38331862.665          40.000        1094.899
 -21738307.699 7  23336022.831          47.000       -1749.976
 -23421075.824 7  22351363.252          44.000       -2067.478
  -6986621.026 7  22570019.261          44.000        4161.550
 -15591702.681 7  21392246.376          47.000         792.913
 16  6  8  3 16 59.9990000  0 10G09G29G30G16G07S20G23G06G05G02
 -28868407.142 7  21118737.543          47.000       -1031.271
   -322648.72315  24619901.993          33.000         415.396
 -20235996.146 7  21355654.560          47.000        3849.956
  -1057870.663 5  23887000.002          34.000         513.526
 -20521134.232 8  20477963.018          50.000        2033.926
 -12899356.922 6  38319363.876          40.000        1094.342
 -21633073.005 7  23356048.265          47.000       -1758.115
 -23296457.160 7  22375078.586          44.000       -2086.663
  -7235938.354 7  22522575.609          43.000        4148.414
 -15638118.010 8  21383414.454          48.000         754.176
 16  6  8  3 17 59.9990000  0 10G09G29G30G16G07S20G23G06G05G02
 -28806031.177 7  21130606.641          47.000       -1048.317
   -346500.396 5  24615360.853          33.000         379.464
 -20466202.239 7  21311847.673          47.000        3822.994
  -1087510.819 5  23881358.138          33.000         472.796
 -20642093.914 8  20454944.034          49.000        1997.542
 -12965032.440 6  38306866.694          40.000        1094.680
 -21527381.403 7  23376160.775          47.000       -1765.325
 -23170672.799 7  22399015.346          45.000       -2106.362
  -7484440.130 7  22475288.817          42.000        4134.460
 -15682231.197 8  21375019.573          48.000         716.005
 16  6  8  3 18 59.9990000  0 10G09G29G30G16G07S20G23G06G05G02
 -28742644.746 7  21142667.603          46.000       -1064.418
   -368241.317 5  24611227.909          30.000         343.239
 -20694777.720 7  21268351.627          47.000        3795.604
  -1114697.615 5  23876185.788          33.000         434.629
 -20760883.163 8  20432338.656          49.000        1961.438
 -13030712.588 6  38294366.684          40.000        1095.164
 -21421244.988 7  23396358.390          46.000       -1772.832
 -23043750.846 7  22423168.228          45.000       -2124.718
  -7732115.605 7  22428153.162          42.000        4121.509
 -15724050.937 7  21367061.209          47.000         678.035
 16  6  8  3 19 59.9990000  0 10G09G29G30G16G07S20G23G06G05G02
 -28678263.018 7  21154920.640          47.000       -1081.444
   -387888.02314  24607484.837          26.000         311.859
 -20921711.688 8  21225167.730          48.000        3768.376
  -1139441.095 5  23871478.051          34.000         390.915
 -20877504.643 8  20410147.004          49.000        1925.077
 -13096397.593 6  38281866.552          40.000        1095.022
 -21314677.562 7  23416636.730          45.000       -1779.956
 -22915720.050 7  22447531.768          45.000       -2142.556
  -7978955.186 7  22381185.011          45.000        4106.346
 -15763587.270 7  21359536.326          47.000         639.484
 16  6  8  3 20 59.9990000  0 10G09G29G30G16G07S20G23G06G05G02
 -28612885.043 7  21167360.307          45.000       -1098.290
   -405441.63714  24604143.120          29.000         276.110
 -21146977.252 8  21182300.660          48.000        3740.069
  -1161735.199 5  23867235.781          33.000         350.605
 -20991944.164 8  20388369.796          49.000        1888.719
 -13162081.373 6  38269368.497          40.000        1094.750
 -21207674.598 7  23437000.349          45.000       -1787.390
 -22786593.114 7  22472102.669          45.000       -2161.764
  -8224932.931 7  22334373.685          45.000        4092.381
 -15800834.107 7  21352449.269          47.000         601.390
 16  6  8  3 21 59.9990000  0  9G09G30G16G07S20G23G06G05G02
 -28546516.334 7  21179989.535          45.000       -1114.733
 -21370554.360 8  21139754.830          48.000        3711.973
  -1181581.793 5  23863456.169          35.000         310.037
 -21104194.951 8  20367008.164          49.000        1852.503
 -13227754.081 6  38256870.406          41.000        1095.115
 -21100240.654 7  23457443.942          45.000       -1794.530
 -22656389.403 7  22496878.820          44.000       -2179.107
  -8470029.179 7  22287734.453          46.000        4077.397
 -15835792.151 7  21345796.915          47.000         563.369
 16  6  8  3 22 59.9990000  0 10G09G29G30G16G07S20G23G06G05G02
 -28479166.687 7  21192805.673          44.000       -1130.376
   -435394.02314  24598653.666          27.000         205.293
 -21592427.309 8  21097535.250          48.000        3683.929
  -1198986.419 6  23860147.276          36.000         269.832
 -21214255.454 8  20346065.023          49.000        1816.239
 -13293407.760 6  38244378.668          40.000        1094.755
 -20992382.206 7  23477969.569          46.000       -1800.487
 -22525132.520 7  22521855.509          44.000       -2195.621
  -8714228.157 7  22241266.303          46.000        4062.945
 -15868467.400 7  21339579.647          47.000         525.987
 16  6  8  3 24  0.0000000  0  9G09G30G16G07S20G23G06G05G02
 -28410860.212 7  21505598.401          44.000       -1146.643
 -21812595.090 7  21355428.859          46.000        3654.527
  -1213969.880 5  24157086.254          34.000         228.988
 -21322137.630 8  20625328.292          49.000        1779.178
 -13359062.552 6  38531677.622          41.000        1094.339
 -20884121.193 7  23798360.662          45.000       -1808.043
 -22392860.621 7  22846819.449          45.000       -2212.726
  -8957529.548 7  22494759.526          46.000        4046.950
 -15898880.032 7  21633585.365          47.000         487.439
 16  6  8  3 25  0.0000000  0 10G09G29G30G16G07S20G23G06G05G02
 -28341594.597 7  21518777.259          44.000       -1161.793
   -457476.02214  24894531.565          27.000         137.036
 -22031030.344 8  21313863.435          48.000        3626.436
  -1226525.84015  24154697.005          31.000         190.222
 -21427827.773 8  20605216.113          49.000        1743.332
 -13424701.364 6  38519187.890          41.000        1093.202
 -20775452.914 7  23819040.513          46.000       -1814.548
 -22259585.360 7  22872181.805          45.000       -2228.461
  -9199905.793 7  22448636.018          46.000        4032.086
 -15927024.640 7  21628228.654          47.000         450.316
 16  6  8  3 26  0.0000000  0  9G09G30G16G07S20G23G06G05G02
 -28271385.920 7  21532137.425          45.000       -1177.444
 -22247724.472 7  21272627.070          47.000        3597.385
  -1236669.59815  24152766.295          33.000         149.130
 -21531331.446 8  20585520.174          49.000        1707.079
 -13490336.936 6  38506697.269          41.000        1094.530
 -20666390.995 7  23839796.500          47.000       -1820.303
 -22125336.974 7  22897727.510          45.000       -2245.373
  -9441347.691 7  22402689.577          45.000        4016.706
 -15952913.663 8  21623304.447          49.000         413.151
 16  6  8  3 27  0.0000000  0 10G09G29G30G16G07S20G23G06G05G02
 -28200234.112 7  21545676.403          43.000       -1194.503
   -471426.22414  24892143.433          25.000          70.496
 -22462653.025 7  21231727.162          47.000        3566.468
  -1244399.231 5  24151295.591          33.000         109.394
 -21632637.904 8  20566241.558          49.000        1669.514
 -13555970.634 6  38494207.781          41.000        1093.159
 -20556933.083 7  23860623.894          47.000       -1828.157
 -21990129.694 7  22923457.524          45.000       -2262.322
  -9681829.943 7  22356929.295          47.000        3999.406
 -15976545.676 8  21618806.828          49.000         374.632
 16  6  8  3 28  0.0000000  0  9G09G30G16G07S20G23G06G05G02
 -28128145.401 7  21559397.788          45.000       -1208.830
 -22675797.980 7  21191168.110          47.000        3537.671
  -1249717.58815  24150282.379          33.000          70.919
 -21731743.937 8  20547382.636          49.000        1633.982
 -13621591.912 6  38481720.353          41.000        1093.411
 -20447082.691 7  23881527.230          47.000       -1833.816
 -21853983.967 7  22949365.234          45.000       -2276.327
  -9921333.470 8  22311353.026          48.000        3983.854
 -15997923.938 8  21614736.826          48.000         338.021
 16  6  8  3 29  0.0000000  0  9G09G30G16G07S20G23G06G05G02
 -28055140.840 7  21573290.413          44.000       -1224.303
 -22887156.439 7  21150947.120          47.000        3507.480
  -1252645.78415  24149725.054          32.000          32.029
 -21828659.541 8  20528940.060          49.000        1597.092
 -13687203.781 6  38469235.822          40.000        1094.055
 -20336858.649 8  23902505.044          48.000       -1839.806
 -21716935.185 7  22975444.253          44.000       -2291.530
 -10159854.397 8  22265965.079          48.000        3967.147
 -16017068.119 8  21611093.378          48.000         300.550
 16  6  8  3 30  0.0000000  0  9G09G30G16G07S20G23G06G05G02
 -27981225.394 6  21587353.473          41.000       -1239.756
 -23096709.649 7  21111070.895          47.000        3477.117
  -1253188.24315  24149622.342          33.000         -10.466
 -21923380.869 8  20510915.520          48.000        1560.326
 -13752807.341 6  38456752.791          41.000        1093.159
 -20226263.170 7  23923548.454          47.000       -1846.791
 -21579002.739 7  23001691.510          43.000       -2306.148
 -10397372.035 7  22220765.298          47.000        3949.704
 -16033981.705 8  21607877.948          50.000         262.779
 16  6  8  3 31  0.0000000  0  9G09G30G16G07S20G23G06G05G02
 -27906413.077 7  21601592.642          44.000       -1254.182
 -23304448.269 7  21071538.997          47.000        3447.222
  -1251357.89315  24149972.376          33.000         -50.087
 -22015912.910 8  20493306.767          48.000        1524.040
 -13818403.370 6  38444269.813          41.000        1093.464
 -20115308.527 7  23944661.106          46.000       -1852.349
 -21440215.281 7  23028103.374          44.000       -2319.650
 -10633875.795 8  22175762.653          48.000        3932.907
 -16048678.103 8  21605080.103          49.000         226.683
 16  6  8  3 32  0.0000000  0  8G09G30G07S20G23G06G05G02
 -27830716.413 6  21615992.771          39.000       -1269.067
 -23510361.638 8  21032356.313          48.000        3416.784
 -22106259.448 8  20476114.987          49.000        1488.151
 -13884000.949 6  38431786.991          41.000        1094.077
 -20004003.934 7  23965843.245          46.000       -1857.178
 -21300599.780 7  23054669.481          42.000       -2333.865
 -10869352.231 7  22130952.186          47.000        3916.301
 -16061169.770 8  21602702.563          48.000         190.035
 16  6  8  3 32 59.9990000  0  9G09G30G16G07S20G23G06G05G02
 -27754153.232 6  21630564.680          41.000       -1282.409
 -23714440.190 8  20993521.133          48.000        3386.549
  -1241365.03015  24152013.632          34.000        -128.291
 -22194427.178 8  20459336.673          48.000        1451.811
 -13949615.787 6  38419299.214          41.000        1094.171
 -19892365.777 7  23987087.768          45.000       -1862.892
 -21160189.878 7  23081386.951          42.000       -2345.739
 -11103789.469 8  22086340.042          48.000        3899.325
 -16071472.132 8  21600742.118          48.000         153.871
 16  6  8  3 33 59.9990000  0  9G09G30G16G07S20G23G06G05G02
 -27676722.961 7  21645298.335          42.000       -1297.960
 -23916669.885 8  20955037.016          48.000        3354.895
  -1232493.45915  24153697.945          33.000        -169.237
 -22280413.172 8  20442973.970          48.000        1414.655
 -14015236.676 6  38406813.077          41.000        1092.999
 -19780389.570 7  24008396.368          44.000       -1869.275
 -21018997.548 7  23108255.836          42.000       -2359.781
 -11337172.137 8  22041929.918          48.000        3880.310
 -16079588.877 8  21599198.297          49.000         116.702
 16  6  8  3 34 59.9990000  0  9G09G30G16G07S20G23G06G05G02
 -27598431.762 6  21660197.366          41.000       -1311.294
 -24117029.957 8  20916910.489          48.000        3323.589
  -1221290.00615  24155832.159          32.000        -205.724
 -22364213.106 8  20427027.804          49.000        1378.372
 -14080849.050 6  38394327.569          41.000        1093.761
 -19668079.656 7  24029767.214          43.000       -1874.595
 -20877044.687 7  23135270.152          43.000       -2372.107
 -11569474.918 7  21997721.100          47.000        3862.659
 -16085525.249 8  21598067.453          48.000          80.796
 16  6  8  3 35 59.9990000  0  9G09G30G16G07S20G23G06G05G02
 -27519294.308 7  21675256.171          42.000       -1325.596
 -24315513.217 8  20879140.173          48.000        3293.114
  -1207770.10114  24158400.552          27.000        -245.255
 -22445834.701 8  20411496.395          49.000        1342.707
 -14146465.251 6  38381840.978          41.000        1094.119
 -19555448.708 7  24051199.554          43.000       -1879.435
 -20734360.960 7  23162421.487          42.000       -2384.600
 -11800688.175 7  21953725.000          47.000        3844.396
 -16089296.964 8  21597348.400          48.000          44.932
 16  6  8  3 36 59.9990000  0  9G09G30G16G07S20G23G06G05G02
 -27439318.813 7  21690475.099          44.000       -1340.366
 -24512105.865 8  20841729.733          48.000        3260.763
  -1191945.10215  24161417.153          33.000        -284.867
 -22525278.804 8  20396378.660          49.000        1305.768
 -14212079.469 6  38369355.993          41.000        1093.302
 -19442501.887 7  24072695.884          45.000       -1885.010
 -20590969.110 7  23189709.474          42.000       -2395.348
 -12030794.975 7  21909935.913          46.000        3825.473
 -16090913.620 8  21597042.445          48.000           8.676
 16  6  8  3 37 59.9990000  0 10G09G29G30G16G07S20G23G06G05G02
 -27358510.825 7  21705851.463          43.000       -1354.275
   -412923.03614  24905741.864          24.000        -276.880
 -24706792.239 8  20804681.542          48.000        3228.226
  -1173824.47213  24164853.974          21.000        -317.039
 -22602544.581 8  20381674.828          49.000        1269.169
 -14277693.974 6  38356869.350          41.000        1094.517
 -19329242.617 7  24094248.281          45.000       -1890.293
 -20446889.890 7  23217127.745          44.000       -2407.199
 -12259775.020 7  21866361.480          46.000        3806.467
 -16090383.067 8  21597144.110          49.000         -27.002
 16  6  8  3 38 59.9990000  0  9G09G30G16G07S20G23G06G05G02
 -27276865.590 7  21721390.254          44.000       -1367.126
 -24899546.292 8  20768002.616          48.000        3196.772
  -1153492.54914  24168761.130          29.000        -359.513
 -22677620.972 8  20367387.706          48.000        1233.782
 -14343289.801 6  38344388.222          41.000        1093.750
 -19215663.329 7  24115860.847          45.000       -1895.292
 -20302133.386 7  23244671.622          42.000       -2417.627
 -12487598.729 7  21823009.084          46.000        3787.963
 -16087703.002 8  21597652.871          48.000         -62.097
 16  6  8  3 39 59.9990000  0  8G09G30G07S20G23G06G05G02
 -27194423.838 7  21737076.516          44.000       -1380.970
 -25090388.003 8  20731686.304          49.000        3164.440
 -22750543.008 8  20353511.119          48.000        1197.347
 -14408905.618 6  38331902.032          41.000        1093.066
 -19101802.555 7  24137527.107          45.000       -1900.056
 -20156755.334 7  23272337.581          43.000       -2428.282
 -12714281.904 7  21779873.507          46.000        3768.389
 -16082916.619 8  21598564.889          49.000         -97.531
 16  6  8  3 40 59.9990000  0  9G09G30G16G07S20G23G06G05G02
 -27111177.594 7  21752918.871          44.000       -1393.912
 -25279288.783 8  20695740.618          50.000        3131.888
  -1105889.25815  24177815.646          32.000        -435.250
 -22821297.500 8  20340048.450          49.000        1160.600
 -14474518.406 6  38319416.018          41.000        1092.924
 -18987649.729 7  24159250.255          46.000       -1905.146
 -20010762.730 7  23300119.637          42.000       -2438.766
 -12939791.716 7  21736960.263          44.000        3748.403
 -16076019.690 8  21599877.023          48.000        -132.810
 16  6  8  3 41 59.9990000  0  9G09G30G16G07S20G23G06G05G02
 -27027134.564 7  21768910.460          45.000       -1407.391
 -25466236.132 8  20660165.069          50.000        3099.368
  -1078709.23615  24182986.286          32.000        -470.348
 -22889886.642 8  20326994.640          48.000        1125.390
 -14540132.632 6  38306930.404          41.000        1093.985
 -18873210.179 7  24181026.905          45.000       -1909.532
 -19864178.387 7  23328014.735          44.000       -2447.389
 -13164109.886 7  21694274.779          45.000        3728.673
 -16067023.404 8  21601588.227          48.000        -167.235
 16  6  8  3 42 59.9990000  0  9G09G30G16G07S20G23G06G05G02
 -26942299.782 7  21785055.122          44.000       -1420.776
 -25651215.147 8  20624964.769          50.000        3066.294
  -1049292.648 5  24188584.071          35.000        -510.277
 -22956310.718 8  20314355.814          49.000        1089.226
 -14605740.447 6  38294446.937          40.000        1093.082
 -18758486.510 7  24202861.892          45.000       -1914.640
 -19717022.391 7  23356017.814          44.000       -2457.678
 -13387216.635 7  21651817.335          45.000        3708.138
 -16055936.326 8  21603700.035          48.000        -202.490
 16  6  8  3 43 59.9990000  0  9G09G30G16G07S20G23G06G05G02
 -26856685.241 7  21801346.471          45.000       -1433.070
 -25834218.148 8  20590140.242          50.000        3033.674
  -1017656.85015  24194602.145          33.000        -544.662
 -23020577.397 8  20302125.637          49.000        1053.163
 -14671351.202 6  38281961.237          40.000        1093.933
 -18643488.073 7  24224744.220          46.000       -1918.960
 -19569321.801 7  23384124.130          43.000       -2466.708
 -13609099.002 7  21609595.364          45.000        3687.556
 -16042774.756 7  21606204.280          47.000        -236.662
 16  6  8  3 44 59.9990000  0  9G09G30G16G07S20G23G06G05G02
 -26770305.979 7  21817784.436          45.000       -1445.680
 -26015240.959 8  20555693.198          50.000        3001.162
   -983822.671 5  24201045.900          34.000        -582.743
 -23082697.580 8  20290305.051          49.000        1018.270
 -14736971.244 6  38269472.831          40.000        1094.073
 -18528227.409 7  24246674.694          43.000       -1922.668
 -19421106.927 7  23412328.812          44.000       -2473.983
 -13829747.315 7  21567608.814          45.000        3667.752
 -16027559.066 7  21609099.219          47.000        -270.248
 16  6  8  3 45 59.9990000  0  9G09G30G16G07S20G23G06G05G02
 -26683161.818 7  21834366.139          43.000       -1458.945
 -26194264.353 8  20521625.312          49.000        2966.510
   -947795.41115  24207897.553          30.000        -617.086
 -23142667.307 8  20278893.394          49.000         980.987
 -14802595.515 6  38256985.368          40.000        1094.146
 -18412702.457 7  24268656.611          43.000       -1928.086
 -19272392.761 7  23440628.441          45.000       -2483.004
 -14049136.072 7  21525857.842          46.000        3645.174
 -16010293.332 7  21612384.275          46.000        -305.286
 16  6  8  3 47  0.0000000  0  9G09G30G16G07S20G23G06G05G02
 -26595267.495 7  22150885.151          46.000       -1471.311
 -26371284.417 8  20787732.425          50.000        2933.849
   -909595.89315  24514969.960          30.000        -654.400
 -23200498.178 8  20567680.520          49.000         946.438
 -14868235.797 6  38544286.887          40.000        1094.615
 -18296925.043 7  24590485.550          45.000       -1931.198
 -19123209.149 7  23768809.939          44.000       -2489.684
 -14267255.139 7  21784143.139          46.000        3624.919
 -15990997.955 7  21915849.198          47.000        -338.065
 16  6  8  3 48  0.0000000  0 10G09G29G30G16G07S20G23G06G05G02
 -26506615.134 7  22167756.458          45.000       -1483.706
   -167886.28613  25254628.587          22.000        -568.150
 -26546274.928 8  20754432.541          50.000        2899.235
   -869224.72014  24522645.246          24.000        -690.585
 -23256179.242 8  20557084.521          49.000         910.008
 -14933871.850 6  38531797.173          40.000        1093.323
 -18180884.705 7  24612568.347          44.000       -1936.150
 -18973563.472 7  23797284.611          44.000       -2498.262
 -14484072.079 7  21742883.530          46.000        3602.728
 -15969671.181 7  21919908.031          46.000        -372.516
 16  6  8  3 49  0.0000000  0 10G09G29G30G16G07S20G23G06G05G02
 -26417210.531 7  22184768.152          43.000       -1496.350
   -132657.34513  25261329.209          19.000        -602.135
 -26719223.612 8  20721521.954          50.000        2866.030
   -826699.52714  24530743.595          29.000        -726.278
 -23309713.071 8  20546897.154          49.000         875.007
 -14999490.109 6  38519311.002          40.000        1093.702
 -18064585.388 7  24634697.195          43.000       -1939.705
 -18823476.712 7  23825845.837          45.000       -2504.815
 -14699567.252 7  21701877.647          47.000        3581.340
 -15946324.788 7  21924349.653          45.000        -405.262
 16  6  8  3 50  0.0000000  0 10G09G29G30G16G07S20G23G06G05G02
 -26327083.354 7  22201921.594          44.000       -1507.383
    -95787.24213  25268346.430          20.000        -629.401
 -26890142.611 8  20688997.889          51.000        2832.153
   -782043.57814  24539226.356          26.000        -761.638
 -23361127.254 8  20537113.654          49.000         839.824
 -15065120.846 6  38506822.649          40.000        1094.794
 -17948053.944 7  24656872.984          43.000       -1943.462
 -18672993.971 7  23854481.277          45.000       -2510.528
 -14913746.301 7  21661119.924          47.000        3559.186
 -15920995.380 7  21929169.682          45.000        -438.074
 16  6  8  3 51  0.0000000  0 10G09G29G30G16G07S20G23G06G05G02
 -26236235.805 7  22219205.964          44.000       -1520.152
    -57476.37713  25275674.771          21.000        -658.025
 -27059016.486 8  20656861.987          50.000        2797.006
   -735276.74814  24548127.729          29.000        -796.753
 -23410421.785 8  20527732.819          49.000         804.076
 -15130767.450 6  38494327.682          40.000        1093.916
 -17831290.233 7  24679091.090          42.000       -1948.594
 -18522132.322 7  23883189.015          44.000       -2517.536
 -15126585.833 7  21620617.707          47.000        3535.909
 -15893691.660 7  21934365.956          45.000        -471.673
 16  6  8  3 52  0.0000000  0 10G09G29G30G16G07S20G23G06G05G02
 -26144667.869 7  22236631.979          43.000       -1532.458
    -17235.94613  25283292.908          19.000        -674.671
 -27225828.394 8  20625118.086          50.000        2762.242
   -686405.90315  24557434.628          34.000        -831.988
 -23457595.245 8  20518757.282          49.000         768.770
 -15196415.381 6  38481837.200          40.000        1093.709
 -17714291.862 7  24701356.189          42.000       -1951.866
 -18370907.208 7  23911963.656          43.000       -2522.986
 -15338062.133 7  21580375.271          47.000        3513.120
 -15864420.728 7  21939935.768          45.000        -504.685
 16  6  8  3 53  0.0000000  0 10G09G29G30G16G07S20G23G06G05G02
 -26052392.736 6  22254191.714          41.000       -1544.134
     24439.15713  25291232.670          20.000        -705.602
 -27390574.875 8  20593768.334          50.000        2729.070
   -635451.75315  24567124.542          32.000        -865.518
 -23502658.791 8  20510181.756          50.000         733.352
 -15262075.705 6  38469340.104          40.000        1094.627
 -17597069.688 7  24723661.825          42.000       -1954.921
 -18219347.140 7  23940805.655          44.000       -2528.226
 -15548163.144 7  21540394.274          47.000        3490.219
 -15833203.489 7  21945876.294          45.000        -535.896
 16  6  8  3 54  0.0000000  0 10G09G29G30G16G07S20G23G06G05G02
 -25959422.493 7  22271882.989          42.000       -1555.185
     67645.24513  25299473.343          19.000        -719.172
 -27553251.555 8  20562811.840          49.000        2693.852
   -582435.61215  24577215.933          32.000        -900.496
 -23545623.787 8  20502004.619          49.000         698.592
 -15327746.563 6  38456843.096          40.000        1094.727
 -17479633.059 6  24746006.759          39.000       -1959.085
 -18067479.364 7  23969706.007          44.000       -2533.434
 -15756876.465 8  21500679.254          48.000        3466.712
 -15800060.182 7  21952183.500          45.000        -568.735
 16  6  8  3 55  0.0000000  0  9G09G30G16G07S20G23G06G05G02
 -25865766.981 7  22289703.361          42.000       -1567.765
 -27713852.240 8  20532250.017          49.000        2659.187
   -527377.45115  24587691.683          31.000        -933.969
 -23586499.101 8  20494227.319          49.000         663.720
 -15393419.965 6  38444346.943          40.000        1094.875
 -17361990.006 6  24768397.884          40.000       -1962.533
 -17915328.903 7  23998663.143          44.000       -2537.837
 -15964187.738 8  21461228.535          48.000        3443.340
 -15765008.206 7  21958854.649          45.000        -600.010
 16  6  8  3 55 59.9990000  0 10G09G29G30G16G07S20G23G06G05G02
 -25771424.446 7  22307658.762          43.000       -1577.581
    157306.23211  25316782.790           9.000        -781.118
 -27872355.349 8  20502089.462          50.000        2624.208
   -470281.96815  24598554.374          31.000        -967.690
 -23625281.015 8  20486846.208          49.000         628.971
 -15459092.190 6  38431849.900          40.000        1094.445
 -17244136.765 6  24790825.148          40.000       -1966.085
 -17762910.271 7  24027666.696          44.000       -2542.456
 -16170066.003 8  21422052.237          48.000        3419.760
 -15728054.069 7  21965887.296          44.000        -631.396
 16  6  8  3 56 59.9990000  0 10G09G29G30G16G07S20G23G06G05G02
 -25676400.306 6  22325738.724          41.000       -1589.643
    204942.05912  25325878.140          15.000        -804.422
 -28028759.368 8  20472325.655          49.000        2589.095
   -411167.57615  24609805.280          31.000       -1004.749
 -23661978.612 8  20479864.620          50.000         593.730
 -15524770.052 6  38419352.246          40.000        1094.546
 -17126075.183 6  24813290.663          38.000       -1970.045
 -17610242.208 7  24056719.756          46.000       -2546.407
 -16374502.100 8  21383147.553          48.000        3394.745
 -15689213.720 7  21973275.544          43.000        -663.471
 16  6  8  3 57 59.9990000  0  9G09G30G16G07S20G23G06G05G02
 -25580716.038 7  22343945.216          42.000       -1600.526
 -28183066.581 8  20442962.069          49.000        2553.616
   -350064.77014  24621434.750          26.000       -1038.250
 -23696611.224 8  20473273.900          50.000         559.853
 -15590462.604 6  38406851.049          40.000        1094.661
 -17007825.390 6  24835789.456          37.000       -1972.496
 -17457362.400 7  24085811.275          45.000       -2550.396
 -16577488.073 7  21344520.013          47.000        3370.710
 -15648517.026 7  21981020.125          43.000        -693.845
 16  6  8  3 58 59.9990000  0 10G09G29G30G16G07S20G23G06G05G02
 -25484361.117 7  22362284.558          44.000       -1611.693
    304535.35112  25344567.603          12.000        -859.139
 -28335251.811 8  20414001.426          49.000        2519.007
   -286973.32414  24633445.648          28.000       -1067.152
 -23729168.992 8  20467078.183          50.000         525.463
 -15656158.944 6  38394348.160          40.000        1095.326
 -16889374.201 6  24858336.184          39.000       -1976.275
 -17304275.505 7  24114941.605          44.000       -2553.055
 -16778989.398 7  21306175.777          47.000        3346.244
 -15605962.902 7  21989118.457          44.000        -724.828
 16  6  8  4  0 59.9990000  0  9G09G30G16G07S20G23G06G05G02
 -25289747.595 7  22399318.998          43.000       -1632.028
 -28633307.657 8  20357284.641          49.000        2448.301
   -154975.94914  24658560.298          26.000       -1131.497
 -23788170.777 8  20455850.713          50.000         458.022
 -15787613.058 6  38369333.831          40.000        1096.134
 -16651966.462 5  24903517.450          35.000       -1981.570
 -16997649.470 6  24173288.240          37.000       -2557.720
 -17177551.012 8  21230333.221          48.000        3296.257
 -15515430.304 7  22006347.179          45.000        -784.391
 16  6  8  4  1 59.9990000  0  9G09G30G16G07S20G23G06G05G02
 -25191479.397 7  22418017.988          42.000       -1642.718
 -28779141.233 8  20329532.495          49.000        2412.763
    -86081.91715  24671675.567          30.000       -1163.346
 -23814607.878 8  20450819.169          50.000         423.782
 -15853343.046 6  38356825.480          41.000        1094.687
 -16532995.608 5  24926158.270          34.000       -1983.927
 -16844131.191 6  24202502.609          37.000       -2560.965
 -17374553.865 8  21192844.081          48.000        3270.554
 -15467462.901 7  22015473.538          45.000        -814.262
 16  6  8  4  2 59.9990000  0  9G09G30G16G07S20G23G06G05G02
 -25092582.385 7  22436837.367          43.000       -1653.787
 -28922839.547 8  20302187.777          50.000        2377.416
    -15287.31215  24685150.329          32.000       -1195.018
 -23839017.024 8  20446174.986          50.000         389.937
 -15919073.639 6  38344318.770          40.000        1095.971
 -16413855.99914  24948829.663          29.000       -1985.089
 -16690508.248 6  24231735.004          37.000       -2560.638
 -17570018.126 8  21155649.797          48.000        3244.862
 -15417721.270 7  22024939.339          45.000        -843.836
 16  6  8  4  3 59.9990000  0  9G09G30G16G07S20G23G06G05G02
 -24993050.388 7  22455778.619          45.000       -1664.692
 -29064383.499 8  20275252.563          49.000        2340.572
     57404.14814  24698980.342          29.000       -1230.900
 -23861393.238 8  20441916.330          49.000         355.521
 -15984797.819 6  38331812.216          40.000        1095.202
 -16294539.42613  24971532.344          23.000       -1990.767
 -16536789.707 6  24260983.419          37.000       -2563.955
 -17763914.259 8  21118751.626          48.000        3218.287
 -15366209.777 7  22034742.400          46.000        -873.736
 16  6  8  4  4 59.9990000  0  9G09G30G16G07S20G23G06G05G02
 -24892908.383 7  22474832.703          43.000       -1674.134
 -29203785.505 8  20248724.690          49.000        2305.191
    131938.42613  24713155.660          22.000       -1262.987
 -23881763.826 8  20438040.968          49.000         322.721
 -16050542.800 6  38319300.899          40.000        1095.209
 -16175069.30414  24994261.444          24.000       -1993.038
 -16383015.573 6  24290244.852          37.000       -2563.061
 -17956243.273 8  21082153.877          48.000        3192.390
 -15312965.222 7  22044872.723          45.000        -901.941
 16  6  8  4  5 59.9990000  0  9G09G30G16G07S20G23G06G05G02
 -24792169.642 7  22494004.438          44.000       -1684.396
 -29341046.651 8  20222606.286          50.000        2269.927
    208317.05014  24727702.947          26.000       -1288.429
 -23900144.816 8  20434542.252          49.000         290.026
 -16116308.225 6  38306784.276          40.000        1096.103
 -16055454.64314  25017032.652          25.000       -1994.876
 -16229214.137 6  24319513.404          36.000       -2563.624
 -18146996.153 8  21045854.772          48.000        3165.799
 -15258012.274 7  22055330.307          45.000        -930.072
 16  6  8  4  6 59.9990000  0  8G09G30G16G07S20G06G05G02
 -24690830.137 7  22513290.209          44.000       -1694.146
 -29476151.109 8  20196895.990          50.000        2233.816
    286526.45614  24742584.946          29.000       -1319.156
 -23916534.601 8  20431423.741          49.000         256.402
 -16182072.080 6  38294272.784          40.000        1095.993
 -16075396.309 6  24348785.551          36.000       -2562.767
 -18336144.466 8  21009860.208          48.000        3138.917
 -15201358.496 7  22066110.650          45.000        -957.957
 16  6  8  4  7 59.9990000  0  8G09G30G16G07S20G06G05G02
 -24588900.118 7  22532686.004          45.000       -1704.104
 -29609097.601 8  20171597.729          50.000        2197.412
    366537.94014  24757807.190          27.000       -1347.466
 -23930946.379 8  20428681.404          49.000         223.531
 -16247846.553 6  38281755.534          40.000        1095.498
 -15921587.600 6  24378056.214          37.000       -2563.603
 -18523675.724 8  20974173.727          48.000        3111.728
 -15143026.818 7  22077211.414          46.000        -986.161
 16  6  8  4  8 59.9990000  0  9G09G30G16G07S20G13G06G05G02
 -24486381.293 7  22552194.841          45.000       -1714.186
 -29739876.680 8  20146710.752          50.000        2161.624
    448336.66114  24773366.188          25.000       -1378.334
 -23943385.849 8  20426313.863          49.000         191.069
 -16313621.375 6  38269239.888          40.000        1095.710
   -249584.52017  22957619.135          46.000        4156.505
 -15767804.323 6  24407321.067          37.000       -2562.955
 -18709568.224 7  20938799.274          47.000        3084.420
 -15083030.895 7  22088628.376          46.000       -1013.940
 16  6  8  4 10  0.0000000  0  9G09G30G16G07S20G13G06G05G02
 -24383284.917 7  22871605.424          44.000       -1723.308
 -29868488.823 8  20422029.573          50.000        2125.280
    531898.20614  25089061.462          25.000       -1407.339
 -23953866.887 8  20724112.491          49.000         158.032
 -16379405.452 6  38556512.981          40.000        1095.590
   -498708.183 7  23210005.438          45.000        4147.045
 -15614072.871 6  24736368.498          38.000       -2561.746
 -18893811.082 7  21203533.474          47.000        3056.517
 -15021394.693 7  22400150.553          47.000       -1040.664
 16  6  8  4 11  0.0000000  0  9G09G30G16G07S20G13G06G05G02
 -24279627.530 7  22891330.225          43.000       -1733.137
 -29994940.031 8  20397966.717          50.000        2089.546
    617192.37415  25105298.454          30.000       -1435.822
 -23962409.883 8  20722485.869          48.000         126.461
 -16445217.313 6  38543989.710          40.000        1096.848
   -747264.601 7  23162706.239          43.000        4137.311
 -15460424.476 6  24765607.507          40.000       -2560.255
 -19076396.869 7  21168785.571          46.000        3029.087
 -14958147.639 7  22412186.893          47.000       -1067.227
 16  6  8  4 12  0.0000000  0  9G09G30G16G07S20G13G06G05G02
 -24175390.878 6  22911163.881          41.000       -1741.589
 -30119202.158 8  20374321.219          50.000        2052.926
    704223.08115  25121857.070          30.000       -1463.756
 -23969001.203 8  20721232.769          48.000          94.055
 -16511026.199 6  38531466.457          40.000        1097.356
   -995222.666 7  23115519.629          42.000        4127.259
 -15306855.923 6  24794827.513          39.000       -2558.132
 -19257285.660 7  21134364.353          47.000        3000.662
 -14893285.063 7  22424528.978          47.000       -1094.357
 16  6  8  4 13  0.0000000  0  9G09G30G16G07S20G13G06G05G02
 -24070600.144 7  22931110.474          43.000       -1751.932
 -30241290.618 8  20351086.219          49.000        2016.545
    792951.60715  25138744.204          32.000       -1493.742
 -23973669.925 8  20720344.553          49.000          61.935
 -16576856.086 6  38518940.115          40.000        1096.978
  -1242594.308 7  23068448.557          44.000        4117.800
 -15153407.123 6  24824029.580          40.000       -2556.462
 -19436479.676 7  21100265.650          46.000        2972.369
 -14826845.566 7  22437171.312          47.000       -1120.344
 16  6  8  4 14  0.0000000  0  9G09G30G16G07S20G13G06G05G02
 -23965257.829 6  22951152.695          41.000       -1760.194
 -30361198.478 8  20328268.907          49.000        1980.349
    883361.83515  25155945.512          30.000       -1523.511
 -23976422.997 8  20719820.104          48.000          30.116
 -16642695.593 6  38506410.579          41.000        1096.729
  -1489368.648 7  23021488.468          44.000        4107.574
 -15000095.266 6  24853203.726          41.000       -2554.297
 -19613959.320 7  21066490.230          45.000        2943.395
 -14758844.529 7  22450112.341          47.000       -1146.325
 16  6  8  4 15  0.0000000  0  9G09G30G16G07S20G13G06G05G02
 -23859364.298 7  22971304.399          43.000       -1769.566
 -30478917.044 8  20305867.836          50.000        1943.567
    975438.31714  25173466.176          27.000       -1548.473
 -23977265.296 7  20719660.190          47.000          -1.914
 -16708528.874 6  38493884.795          41.000        1097.339
  -1735532.891 6  22974642.520          41.000        4097.344
 -14846935.156 6  24882348.015          40.000       -2551.942
 -19789702.849 7  21033048.284          46.000        2914.094
 -14689296.416 7  22463347.581          47.000       -1171.863
 16  6  8  4 16  0.0000000  0  9G09G30G16G07S20G13G06G05G02
 -23752923.690 7  22991560.175          45.000       -1777.809
 -30594441.849 8  20283884.331          50.000        1907.226
   1069162.41215  25191304.138          31.000       -1575.505
 -23976206.160 8  20719861.827          48.000         -33.435
 -16774361.096 6  38481354.579          40.000        1097.428
  -1981078.612 7  22927919.877          42.000        4087.250
 -14693945.660 6  24911461.243          40.000       -2547.812
 -19963691.067 7  20999938.764          45.000        2885.216
 -14618219.465 7  22476871.796          46.000       -1196.807
 16  6  8  4 17  0.0000000  0  9G09G30G16G07S20G13G06G05G02
 -23645951.220 7  23011915.784          45.000       -1786.920
 -30707779.722 8  20262317.467          51.000        1870.719
   1164504.41315  25209445.943          30.000       -1602.533
 -23973266.268 8  20720420.496          48.000         -64.532
 -16840209.442 6  38468825.515          40.000        1097.672
  -2226007.365 7  22881309.054          43.000        4077.443
 -14541156.634 6  24940536.604          40.000       -2544.871
 -20135918.530 7  20967163.085          44.000        2856.066
 -14545643.272 7  22490683.661          46.000       -1222.067
 16  6  8  4 18  0.0000000  0  9G09G30G16G07S20G13G06G05G02
 -23538467.540 7  23032368.033          45.000       -1795.532
 -30818943.366 8  20241163.964          51.000        1834.333
   1261428.57314  25227890.666          27.000       -1628.356
 -23968471.179 7  20721332.253          47.000         -95.393
 -16906082.731 6  38456289.540          40.000        1098.856
  -2470326.678 7  22834817.014          42.000        4066.487
 -14388602.897 6  24969566.629          39.000       -2540.837
 -20306384.209 7  20934726.114          45.000        2826.371
 -14471603.087 7  22504774.590          46.000       -1246.113
 16  6  8  4 18 59.9990000  0  9G09G30G16G07S20G13G06G05G02
 -23430474.485 7  23052919.835          45.000       -1803.710
 -30927923.404 8  20220425.480          52.000        1798.362
   1359918.00413  25246632.444          22.000       -1654.968
 -23961826.369 7  20722598.510          47.000        -125.786
 -16971978.518 6  38443749.831          41.000        1098.487
  -2714019.870 6  22788444.788          39.000        4056.745
 -14236301.536 6  24998549.905          38.000       -2536.602
 -20475063.153 7  20902628.515          46.000        2796.198
 -14396114.764 7  22519138.370          45.000       -1270.192
 16  6  8  4 19 59.9990000  0  9G09G30G16G07S20G13G06G05G02
 -23321975.850 7  23073566.793          45.000       -1812.881
 -31034723.552 8  20200101.508          50.000        1761.517
   1459958.51413  25265667.804          21.000       -1684.124
 -23953345.360 7  20724211.905          47.000        -156.845
 -17037894.212 6  38431205.271          40.000        1098.037
  -2957089.530 7  22742189.077          42.000        4045.089
 -14084269.843 6  25027480.743          37.000       -2531.681
 -20641946.982 7  20870872.382          46.000        2765.977
 -14319198.007 7  22533773.571          43.000       -1293.850
 16  6  8  4 20 59.9990000  0  9G09G30G16G07S20G13G06G05G02
 -23212971.993 7  23094309.692          43.000       -1821.171
 -31139333.697 8  20180195.573          51.000        1725.145
   1561538.84314  25284997.707          24.000       -1705.737
 -23943033.039 7  20726173.938          46.000        -187.174
 -17103810.355 6  38418664.707          40.000        1098.724
  -3199516.900 7  22696057.542          43.000        4034.591
 -13932522.14215  25056356.247          35.000       -2527.510
 -20807010.194 7  20839461.153          46.000        2735.225
 -14240868.107 7  22548680.123          44.000       -1317.251
 16  6  8  4 21 59.9990000  0  9G09G30G16G07S20G13G06G05G02
 -23103461.315 7  23115149.161          43.000       -1829.170
 -31241745.688 8  20160706.402          51.000        1688.249
   1664619.45913  25304613.863          23.000       -1731.479
 -23930893.577 7  20728483.544          45.000        -217.419
 -17169726.894 6  38406120.409          41.000        1097.471
  -3441287.508 6  22650048.158          41.000        4023.907
 -13781071.302 5  25085176.573          34.000       -2521.598
 -20970230.767 7  20808402.103          47.000        2705.070
 -14161138.254 7  22563852.110          44.000       -1339.967
 16  6  8  4 22 59.9990000  0  9G09G30G16G07S20G13G06G05G02
 -22993453.710 7  23136085.880          45.000       -1837.931
 -31341962.994 8  20141635.600          51.000        1651.975
   1769187.26613  25324514.005          23.000       -1754.498
 -23916943.321 7  20731138.874          46.000        -247.463
 -17235656.461 6  38393573.144          41.000        1098.481
  -3682399.042 7  22604168.220          44.000        4012.761
 -13629941.33415  25113934.863          31.000       -2515.664
 -21131597.123 7  20777694.850          47.000        2674.159
 -14080034.034 7  22579284.925          43.000       -1363.187
 16  6  8  4 23 59.9990000  0 10G09G28G30G16G07S20G13G06G05G02
 -22882956.410 7  23157110.618          44.000       -1845.270
   -262317.87617  23936949.523          44.000        4376.014
 -31439987.092 8  20122983.010          52.000        1615.459
   1875229.29814  25344692.791          27.000       -1778.974
 -23901196.433 7  20734134.884          46.000        -277.396
 -17301594.247 6  38381026.210          40.000        1099.160
  -3922844.896 7  22558410.277          44.000        4001.860
 -13479153.31814  25142630.978          27.000       -2507.048
 -21291095.802 7  20747344.106          47.000        2642.553
 -13997578.491 7  22594975.219          43.000       -1385.541
 16  6  8  4 24 59.9990000  0 10G09G28G30G16G07S20G13G06G05G02
 -22771992.219 7  23178227.545          45.000       -1852.944
   -524720.230 7  23887015.202          43.000        4370.613
 -31535835.211 8  20104742.664          51.000        1579.238
   1982629.55513  25365139.193          22.000       -1789.511
 -23883682.272 7  20737468.574          46.000        -306.446
 -17367561.154 6  38368473.815          40.000        1100.198
  -4162635.185 7  22512782.844          45.000        3991.300
 -13328744.35114  25171257.851          25.000       -2502.780
 -21448729.148 8  20717348.124          48.000        2611.731
 -13913810.429 7  22610916.586          42.000       -1406.978
 16  6  8  4 25 59.9990000  0  8G09G28G30G07S20G13G05G02
 -22660562.482 7  23199430.502          44.000       -1860.169
   -786771.465 7  23837147.906          43.000        4365.318
 -31629503.379 8  20086919.640          52.000        1543.413
 -23864409.063 7  20741135.475          46.000        -335.601
 -17433546.400 6  38355916.952          40.000        1099.993
  -4401758.479 7  22467276.759          44.000        3980.695
 -21604478.018 7  20687708.876          47.000        2580.494
 -13828746.503 7  22627107.090          43.000       -1428.115
 16  6  8  4 26 59.9990000  0  8G09G28G30G07S20G13G05G02
 -22548653.698 7  23220728.248          45.000       -1869.094
  -1048429.039 7  23787355.856          43.000        4357.780
 -31720973.337 8  20069512.751          51.000        1505.975
 -23843370.779 7  20745139.515          46.000        -365.578
 -17499520.647 6  38343362.166          40.000        1099.229
  -4640188.544 7  22421904.500          45.000        3967.697
 -21758309.260 7  20658436.241          47.000        2547.255
 -13742389.695 7  22643538.983          43.000       -1450.533
 16  6  8  4 27 59.9990000  0  8G09G28G30G07S20G13G05G02
 -22436279.738 7  23242111.675          45.000       -1876.967
  -1309677.492 7  23737643.205          44.000        4350.833
 -31810254.318 8  20052523.621          51.000        1469.591
 -23820587.997 7  20749473.451          45.000        -394.494
 -17565498.357 6  38330807.572          41.000        1099.282
  -4877926.167 7  22376666.050          45.000        3956.581
 -21910216.823 8  20629530.339          48.000        2515.646
 -13654770.390 6  22660209.333          41.000       -1471.395
 16  6  8  4 28 59.9990000  0  8G09G28G30G07S20G13G05G02
 -22323447.804 7  23263581.777          45.000       -1884.476
  -1570494.651 7  23688010.720          44.000        4342.958
 -31897349.339 8  20035950.451          52.000        1433.140
 -23796075.915 7  20754138.871          44.000        -423.081
 -17631492.419 6  38318247.691          41.000        1100.140
  -5114966.176 7  22331560.361          46.000        3944.677
 -22060187.602 7  20600990.682          47.000        2483.467
 -13565911.603 7  22677120.671          43.000       -1491.220
 16  6  8  4 29 59.9990000  0  8G09G28G30G07S20G13G05G02
 -22210173.918 7  23285139.270          46.000       -1891.825
  -1830867.638 7  23638462.921          44.000        4335.974
 -31982270.509 8  20019789.839          51.000        1397.557
 -23769857.552 7  20759128.813          45.000        -450.568
 -17697504.049 6  38305686.640          41.000        1100.430
  -5351310.916 7  22286582.058          46.000        3933.158
 -22208218.570 7  20572821.215          47.000        2451.001
 -13475846.698 7  22694260.205          44.000       -1510.927
 16  6  8  4 30 59.9990000  0  8G09G28G30G07S20G13G05G02
 -22096468.687 7  23306773.021          44.000       -1898.757
  -2090777.878 7  23589004.641          45.000        4328.084
 -32065024.905 8  20004041.750          51.000        1361.266
 -23741951.974 7  20764440.311          45.000        -478.833
 -17763543.708 6  38293119.098          41.000        1101.292
  -5586958.832 7  22241740.949          46.000        3921.738
 -22354300.995 8  20545023.576          48.000        2418.950
 -13384602.961 7  22711621.165          44.000       -1530.740
 16  6  8  4 31 59.9990000  0  8G09G28G30G07S20G13G05G02
 -21982342.273 7  23328493.394          44.000       -1906.603
  -2350206.293 7  23539639.039          46.000        4319.251
 -32145619.448 8  19988706.010          51.000        1324.560
 -23712376.907 7  20770065.441          44.000        -507.487
 -17829609.262 6  38280547.821          41.000        1100.601
  -5821907.311 7  22197031.711          46.000        3909.309
 -22498425.651 8  20517597.174          48.000        2385.059
 -13292206.950 7  22729204.615          44.000       -1550.024
 16  6  8  4 33  0.0000000  0  8G09G28G30G07S20G13G05G02
 -21867780.175 7  23650088.029          44.000       -1912.436
  -2609109.391 7  23790163.439          45.000        4311.039
 -32224036.773 8  20273575.510          51.000        1289.148
 -23681125.842 7  21075805.366          45.000        -534.561
 -17895671.659 6  38567770.762          41.000        1102.013
  -6056128.562 7  22452254.774          47.000        3897.630
 -22640559.912 8  20790342.943          48.000        2352.487
 -13198661.334 7  23046797.339          44.000       -1568.553
 16  6  8  4 34  0.0000000  0  8G09G28G30G07S20G13G05G02
 -21752796.805 7  23671967.531          42.000       -1919.763
  -2867472.314 7  23740998.795          43.000        4302.188
 -32300288.546 8  20259065.043          51.000        1253.050
 -23648221.860 7  21082067.446          45.000        -562.329
 -17961745.423 6  38555196.554          41.000        1101.501
  -6289624.236 7  22407820.674          46.000        3885.591
 -22780698.981 8  20763674.438          48.000        2319.085
 -13103997.778 7  23064811.111          44.000       -1586.417
 16  6  8  4 35  0.0000000  0  8G09G28G30G07S20G13G05G02
 -21637395.662 6  23693926.605          41.000       -1927.024
  -3125269.617 7  23691940.631          43.000        4292.356
 -32374376.108 8  20244966.768          51.000        1217.023
 -23613676.074 7  21088640.804          45.000        -589.045
 -18027838.124 6  38542620.147          41.000        1102.068
  -6522385.643 7  22363528.601          47.000        3873.279
 -22918827.820 8  20737389.559          48.000        2285.529
 -13008236.701 7  23083033.902          44.000       -1605.033
 16  6  8  4 36  0.0000000  0  8G09G28G30G07S20G13G05G02
 -21521596.841 6  23715960.699          39.000       -1933.512
  -3382492.156 7  23642992.892          44.000        4282.176
 -32446317.556 8  20231276.601          51.000        1181.235
 -23577517.739 7  21095522.594          46.000        -615.866
 -18093957.792 6  38530036.621          41.000        1101.873
  -6754420.100 7  22319373.059          46.000        3861.363
 -23054948.955 8  20711486.281          49.000        2251.734
 -12911415.872 7  23101459.709          44.000       -1622.450
 16  6  8  4 37  0.0000000  0  8G09G28G30G07S20G13G05G02
 -21405387.539 6  23738075.604          38.000       -1939.751
  -3639098.248 7  23594161.686          44.000        4271.582
 -32516098.445 8  20217998.155          51.000        1145.247
 -23539742.102 7  21102710.635          46.000        -642.612
 -18160089.951 6  38517451.506          41.000        1103.104
  -6985701.092 7  22275361.079          46.000        3848.705
 -23189031.167 8  20685972.545          49.000        2217.912
 -12813539.363 7  23120085.583          45.000       -1639.593
 16  6  8  4 38  0.0000000  0  8G09G28G30G07S20G13G05G02
 -21288793.772 6  23760268.145          39.000       -1946.126
  -3895085.620 7  23545449.456          45.000        4261.829
 -32583743.509 8  20205124.780          50.000        1110.429
 -23500384.269 7  21110200.845          45.000        -668.182
 -18226250.422 6  38504861.279          41.000        1103.309
  -7216242.033 7  22231492.645          46.000        3836.795
 -23321083.303 8  20660844.109          50.000        2184.722
 -12714651.593 7  23138902.118          46.000       -1655.556
 16  6  8  4 39  0.0000000  0  8G09G28G30G07S20G13G05G02
 -21171810.874 6  23782524.764          36.000       -1953.107
  -4150419.967 7  23496859.325          44.000        4250.332
 -32649246.906 8  20192660.072          50.000        1074.414
 -23459448.079 7  21117990.674          45.000        -694.733
 -18292433.874 6  38492265.712          41.000        1104.335
  -7446025.968 7  22187765.331          45.000        3823.795
 -23451083.593 8  20636106.454          50.000        2150.143
 -12614765.142 7  23157909.576          46.000       -1672.313
 16  6  8  4 40  0.0000000  0  8G09G28G30G07S20G13G05G02
 -21054435.23315  23804858.704          34.000       -1958.806
  -4405068.713 7  23448401.239          44.000        4238.631
 -32712604.338 8  20180604.729          51.000        1037.970
 -23416939.175 7  21126079.339          45.000        -721.652
 -18358625.702 6  38479670.424          41.000        1103.694
  -7675036.574 7  22144187.426          46.000        3810.318
 -23579010.136 8  20611761.986          49.000        2114.492
 -12513894.018 7  23177106.229          46.000       -1689.156
 16  6  8  4 41  0.0000000  0  7G28G30G07S20G13G05G02
  -4659006.330 7  23400078.759          44.000        4225.263
 -32773818.513 8  20168956.429          51.000        1001.884
 -23372869.454 7  21134463.906          44.000        -748.094
 -18424811.984 6  38467075.729          41.000        1102.392
  -7903263.780 7  22100757.219          46.000        3796.389
 -23704849.749 8  20587814.547          49.000        2079.040
 -12412059.301 7  23196483.509          44.000       -1706.002
 16  6  8  4 42  0.0000000  0  8G09G28G30G07S20G13G05G02
 -20818591.32815  23849751.954          32.000       -1972.865
  -4912215.311 7  23351893.508          44.000        4214.668
 -32832900.095 8  20157712.975          51.000         967.502
 -23327258.687 7  21143146.367          45.000        -772.297
 -18491005.908 6  38454479.726          41.000        1103.319
  -8130705.541 7  22057474.694          44.000        3784.336
 -23828596.630 8  20564267.083          50.000        2045.460
 -12309289.440 7  23216038.624          43.000       -1720.238
 16  6  8  4 42 59.9990000  0  7G28G30G07S20G13G05G02
  -5164685.144 7  23303850.546          44.000        4201.125
 -32889870.474 8  20146871.381          50.000         931.861
 -23280139.789 7  21152112.132          46.000        -798.017
 -18557233.310 6  38441878.557          41.000        1103.491
  -8357367.664 7  22014342.415          44.000        3770.961
 -23950254.216 8  20541115.443          49.000        2010.043
 -12205626.294 7  23235765.712          44.000       -1735.126
 16  6  8  4 43 59.9990000  0  7G28G30G07S20G13G05G02
  -5416387.544 7  23255953.362          44.000        4189.527
 -32944725.219 8  20136433.342          50.000         897.166
 -23231513.104 7  21161365.232          46.000        -822.389
 -18623476.178 6  38429270.635          41.000        1104.394
  -8583238.750 7  21971361.464          44.000        3757.850
 -24069804.182 8  20518366.344          49.000        1975.258
 -12101078.078 7  23255662.415          45.000       -1749.154
 16  6  8  4 44 59.9990000  0  8G09G28G30G07S20G13G05G02
 -20462322.33714  23917603.915          27.000       -1989.337
  -5667288.605 7  23208208.816          45.000        4175.013
 -32997461.728 8  20126397.372          50.000         861.720
 -23181386.769 7  21170901.950          46.000        -847.344
 -18689731.078 6  38416664.092          41.000        1104.020
  -8808298.708 7  21928533.953          44.000        3744.377
 -24187226.043 8  20496020.381          48.000        1939.209
 -11995662.147 7  23275723.901          45.000       -1763.760
 16  6  8  4 45 59.9990000  0  8G09G28G30G07S20G13G05G02
 -20342743.58313  23940356.853          23.000       -1998.813
  -5917376.830 7  23160620.031          45.000        4161.220
 -33048098.576 8  20116761.833          50.000         826.306
 -23129787.270 7  21180724.957          47.000        -872.515
 -18756004.064 6  38404052.453          41.000        1105.018
  -9032552.627 7  21885861.784          44.000        3730.544
 -24302521.896 8  20474082.229          48.000        1903.459
 -11889414.260 7  23295940.798          43.000       -1777.722
 16  6  8  4 46 59.9990000  0  8G09G28G30G07S20G13G05G02
 -20222818.63014  23963179.382          27.000       -2001.880
  -6166624.849 7  23113188.908          46.000        4147.351
 -33096637.898 8  20107524.386          50.000         791.866
 -23076725.607 7  21190819.873          46.000        -896.405
 -18822280.491 6  38391440.727          41.000        1106.541
  -9255988.703 7  21843341.728          44.000        3717.438
 -24415677.242 7  20452548.102          47.000        1868.449
 -11782353.300 7  23316313.229          42.000       -1790.328
 16  6  8  4 47 59.9990000  0  8G09G28G30G07S20G13G05G02
 -20102559.61215  23986071.938          31.000       -2008.796
  -6415017.177 7  23065921.451          46.000        4132.729
 -33143094.381 8  20098685.641          51.000         756.896
 -23022224.251 7  21201191.602          46.000        -920.382
 -18888573.271 7  38378826.069          42.000        1105.510
  -9478607.359 7  21800977.974          42.000        3703.490
 -24526689.916 7  20431423.252          47.000        1832.135
 -11674510.717 7  23336835.314          43.000       -1803.989
 16  6  8  4 48 59.9990000  0  8G09G28G30G07S20G13G05G02
 -19981955.58114  24009009.081          28.000       -2013.237
  -6662514.400 7  23018822.388          46.000        4117.407
 -33187459.042 8  20090243.715          51.000         722.115
 -22966282.193 7  21211837.544          47.000        -944.438
 -18954862.498 6  38366212.755          41.000        1104.624
  -9700384.717 7  21758775.879          42.000        3689.170
 -24635534.711 8  20410711.990          48.000        1796.035
 -11565893.679 7  23357505.306          43.000       -1816.884
 16  6  8  4 49 59.9990000  0  8G09G28G30G07S20G13G05G02
 -19861022.90814  24032024.260          27.000       -2018.349
  -6909105.107 7  22971898.491          47.000        4102.179
 -33229750.231 8  20082194.819          50.000         687.514
 -22908925.843 7  21222751.695          47.000        -967.995
 -19021163.921 6  38353595.079          41.000        1105.095
  -9921324.087 6  21716728.236          39.000        3675.748
 -24742213.345 7  20390409.901          47.000        1759.499
 -11456537.588 7  23378317.395          43.000       -1828.473
 16  6  8  4 50 59.9990000  0  8G09G28G30G07S20G13G05G02
 -19739760.58515  24055112.137          33.000       -2026.087
  -7154759.869 7  22925153.389          47.000        4085.973
 -33269969.163 8  20074541.921          50.000         652.738
 -22850163.154 7  21233934.754          47.000        -991.521
 -19087480.763 6  38340975.081          41.000        1105.046
 -10141412.363 6  21674849.964          41.000        3661.090
 -24846710.339 7  20370525.866          47.000        1723.364
 -11346459.313 7  23399262.822          43.000       -1841.165
 16  6  8  4 51 59.9990000  0  8G09G28G30G07S20G13G05G02
 -19618164.09915  24078253.098          33.000       -2031.245
  -7399446.068 7  22878591.095          46.000        4070.342
 -33308113.875 8  20067283.067          50.000         618.691
 -22789999.473 7  21245383.232          47.000       -1014.008
 -19153796.094 6  38328355.799          41.000        1104.941
 -10360630.503 7  21633132.322          42.000        3646.558
 -24949008.052 7  20351058.281          47.000        1687.293
 -11235672.556 6  23420344.936          41.000       -1852.852
 16  6  8  4 52 59.9990000  0  8G09G28G30G07S20G13G05G02
 -19496264.00215  24101461.957          30.000       -2034.129
  -7643166.356 7  22832210.964          45.000        4053.715
 -33344217.999 8  20060412.149          50.000         584.566
 -22728476.267 7  21257088.925          46.000       -1036.675
 -19220125.508 6  38315735.173          41.000        1105.344
 -10578997.111 7  21591580.126          44.000        3632.155
 -25049122.690 7  20332007.704          47.000        1650.288
 -11124226.752 6  23441550.685          40.000       -1863.412
 16  6  8  4 53 59.9990000  0  8G09G28G30G07S20G13G05G02
 -19374056.02414  24124700.604          26.000       -2039.534
  -7885888.066 7  22786022.942          46.000        4036.056
 -33378280.006 8  20053930.946          50.000         550.448
 -22665598.161 7  21269055.377          47.000       -1059.142
 -19286465.737 6  38303110.115          41.000        1105.460
 -10796495.202 7  21550192.502          45.000        3617.522
 -25147036.533 8  20313375.775          48.000        1613.188
 -11012135.735 6  23462882.477          39.000       -1874.208
 16  6  8  4 54 59.9990000  0  8G09G28G30G07S20G13G05G02
 -19251644.03514  24148025.054          29.000       -2044.349
  -8127593.433 7  22740028.199          45.000        4019.900
 -33410312.992 8  20047835.462          50.000         517.140
 -22601385.053 7  21281275.607          47.000       -1081.389
 -19352814.387 6  38290486.017          41.000        1106.003
 -11013120.978 7  21508969.067          46.000        3603.628
 -25242747.457 7  20295162.285          47.000        1576.717
 -10899427.872 7  23484332.598          42.000       -1883.784
 16  6  8  4 55 59.9990000  0  8G09G28G30G07S20G13G05G02
 -19128845.59814  24171393.635          28.000       -2049.443
  -8368260.477 6  22694228.515          41.000        4002.251
 -33440326.271 8  20042123.012          50.000         483.443
 -22535852.994 7  21293744.905          46.000       -1103.376
 -19419178.823 6  38277857.696          41.000        1105.421
 -11228867.187 7  21467914.900          47.000        3588.625
 -25336247.328 7  20277369.746          47.000        1539.847
 -10786126.872 6  23505890.022          41.000       -1893.787
 16  6  8  4 57  0.0000000  0  8G09G28G30G07S20G13G05G02
 -19005757.26515  24494601.961          30.000       -2054.390
  -8607864.282 7  22948428.210          45.000        3984.500
 -33468326.565 8  20336588.107          50.000         449.946
 -22469014.491 7  21606255.026          46.000       -1124.778
 -19485549.029 6  38565020.503          41.000        1105.848
 -11443724.137 7  21726820.639          46.000        3573.615
 -25427526.821 7  20559790.963          47.000        1503.031
 -10672254.677 7  23827353.256          43.000       -1903.386
 16  6  8  4 58  0.0000000  0  8G09G28G30G07S20G13G05G02
 -18882386.56714  24518064.442          25.000       -2058.370
  -8846383.796 7  22903039.025          45.000        3966.466
 -33494324.871 8  20331640.150          50.000         416.858
 -22400886.848 7  21619220.241          47.000       -1145.620
 -19551933.368 6  38552386.162          41.000        1106.263
 -11657685.763 8  21686105.983          48.000        3558.868
 -25516581.144 7  20542845.039          47.000        1466.212
 -10557836.691 6  23849122.403          41.000       -1911.823
 16  6  8  4 59  0.0000000  0  8G09G28G30G07S20G13G05G02
 -18758816.15214  24541611.225          26.000       -2063.813
  -9083796.714 7  22857862.854          43.000        3947.108
 -33518330.007 8  20327072.904          50.000         383.356
 -22331484.491 7  21632426.618          46.000       -1167.639
 -19618325.521 6  38539754.909          41.000        1106.244
 -11870743.052 8  21645561.990          48.000        3542.858
 -25603402.753 7  20526324.342          47.000        1427.814
 -10442895.728 6  23870994.209          40.000       -1920.012
 16  6  8  5  1  0.0000000  0  7G28G30G07S20G13G05G02
  -9555235.028 7  22768147.951          45.000        3909.951
 -33560419.349 8  20319062.469          50.000         317.810
 -22188937.736 7  21659553.959          46.000       -1208.292
 -19751162.655 6  38514476.890          41.000        1107.538
 -12294134.067 8  21564994.771          48.000        3513.345
 -25770344.971 7  20494555.418          47.000        1354.124
 -10211559.907 6  23915019.660          41.000       -1935.081
 16  6  8  5  2  0.0000000  0  7G28G30G07S20G13G05G02
  -9789206.790 7  22723626.967          45.000        3889.211
 -33578514.503 8  20315620.117          50.000         284.914
 -22115814.773 7  21673467.436          45.000       -1229.431
 -19817598.551 6  38501833.370          41.000        1106.776
 -12504442.899 7  21524973.220          47.000        3496.959
 -25850444.282 7  20479314.240          47.000        1315.885
 -10095203.205 7  23937160.531          42.000       -1942.446
 16  6  8  5  3  0.0000000  0  7G28G30G07S20G13G05G02
 -10021991.169 7  22679326.343          42.000        3869.645
 -33594663.445 8  20312547.238          50.000         252.962
 -22041485.382 7  21687612.740          46.000       -1248.333
 -19884048.253 6  38489190.809          41.000        1107.899
 -12713823.217 7  21485128.737          47.000        3482.126
 -25928294.835 7  20464497.924          47.000        1278.973
  -9978425.551 7  23959383.750          43.000       -1950.129
 16  6  8  5  4  0.0000000  0  7G28G30G07S20G13G05G02
 -10253561.469 7  22635260.460          44.000        3849.165
 -33608871.421 8  20309844.636          51.000         220.539
 -21965960.002 7  21701984.442          46.000       -1268.913
 -19950512.858 6  38476542.455          41.000        1108.119
 -12922261.397 7  21445465.229          47.000        3466.038
 -26003887.033 7  20450113.814          47.000        1241.192
  -9861245.285 7  23981683.313          43.000       -1956.253
 16  6  8  5  5  0.0000000  0  8G09G28G30G07S20G13G05G02
 -18011811.30313  24683829.801          19.000       -2092.535
 -10483895.598 7  22591430.033          46.000        3828.263
 -33621149.094 8  20307508.471          51.000         188.838
 -21889253.661 7  21716581.602          46.000       -1288.045
 -20017001.318 6  38463888.656          41.000        1108.314
 -13129749.937 7  21405980.081          46.000        3449.808
 -26077215.838 7  20436159.869          47.000        1202.800
  -9743685.281 6  24004053.480          41.000       -1962.240
 16  6  8  5  5 59.9990000  0  8G09G28G30G07S20G13G05G02
 -17886381.67514  24707714.176          25.000       -2093.202
 -10712967.236 7  22547839.912          45.000        3807.749
 -33631506.077 8  20305536.247          50.000         156.600
 -21811382.072 7  21731399.873          47.000       -1307.387
 -20083503.925 6  38451235.381          41.000        1109.403
 -13336276.304 7  21366681.510          47.000        3434.483
 -26148274.544 7  20422637.626          47.000        1165.725
  -9625770.795 6  24026490.517          40.000       -1967.805
 16  6  8  5  6 59.9990000  0  8G09G28G30G07S20G13G05G02
 -17760720.01014  24731632.631          28.000       -2096.524
 -10940763.298 7  22504491.111          44.000        3785.937
 -33639954.040 8  20303927.669          50.000         125.259
 -21732358.132 8  21746439.587          48.000       -1325.961
 -20150014.479 6  38438578.634          41.000        1109.369
 -13541839.632 8  21327563.880          48.000        3418.222
 -26217062.033 7  20409549.265          47.000        1127.951
  -9507521.427 7  24048993.131          42.000       -1973.184
 16  6  8  5  7 59.9990000  0  8G09G28G30G07S20G13G05G02
 -17634828.64513  24755587.243          19.000       -2101.638
 -11167256.259 7  22461390.487          46.000        3763.874
 -33646501.421 8  20302683.294          50.000          93.118
 -21652196.028 7  21761692.038          46.000       -1345.725
 -20216535.348 6  38425919.059          41.000        1107.990
 -13746425.542 7  21288632.828          47.000        3401.573
 -26283570.836 8  20396892.499          48.000        1089.555
  -9388959.549 7  24071554.762          43.000       -1978.296
 16  6  8  5  8 59.9990000  0  8G09G28G30G07S20G13G05G02
 -17508627.53712  24779555.466          13.000       -2097.192
 -11392434.943 7  22418540.604          45.000        3741.981
 -33651170.016 8  20301794.118          50.000          62.156
 -21570921.364 7  21777157.188          46.000       -1363.787
 -20283070.558 6  38413259.799          41.000        1110.023
 -13950036.178 7  21249886.923          47.000        3385.383
 -26347807.779 8  20384668.919          48.000        1052.335
  -9270119.597 7  24094169.022          43.000       -1982.912
 16  6  8  5  9 59.9990000  0  8G09G28G30G07S20G13G05G02
 -17382275.38113  24803598.446          22.000       -2102.176
 -11616266.185 7  22375944.797          42.000        3719.019
 -33653958.644 8  20301263.020          50.000          31.177
 -21488535.871 7  21792835.476          47.000       -1381.991
 -20349613.214 6  38400597.502          41.000        1109.477
 -14152651.054 7  21211331.226          47.000        3368.881
 -26409757.055 8  20372880.110          48.000        1013.858
  -9151012.188 7  24116837.832          43.000       -1986.702
 16  6  8  5 10 59.9990000  0  8G09G28G30G07S20G13G05G02
 -17255733.80713  24827677.687          20.000       -2107.907
 -11838746.624 7  22333610.691          46.000        3696.450
 -33654896.747 8  20301085.290          50.000          -0.190
 -21405073.845 7  21808718.385          47.000       -1400.322
 -20416191.398 6  38387927.056          41.000        1109.824
 -14354279.559 8  21172962.036          48.000        3351.464
 -26469434.318 8  20361524.573          48.000         975.326
  -9031677.938 6  24139545.138          40.000       -1991.864
 16  6  8  5 11 59.9990000  0  7G28G30G07S20G13G05G02
 -12059849.979 7  22291536.175          47.000        3673.227
 -33653990.492 8  20301257.244          49.000         -30.808
 -21320543.624 7  21824804.624          47.000       -1418.145
 -20482792.577 6  38375253.242          41.000        1109.323
 -14554907.791 7  21134783.333          47.000        3335.024
 -26526830.782 8  20350602.412          48.000         937.356
  -8912134.745 6  24162293.486          39.000       -1995.205
 16  6  8  5 12 59.9990000  0  7G28G30G07S20G13G05G02
 -12279544.777 7  22249727.041          43.000        3649.314
 -33651240.322 8  20301781.117          50.000         -61.874
 -21234949.355 7  21841090.022          46.000       -1435.728
 -20549394.227 6  38362578.712          41.000        1109.767
 -14754515.741 7  21096798.432          47.000        3317.865
 -26581933.236 8  20340116.995          48.000         899.147
  -8792393.964 6  24185080.591          37.000       -1997.242
 16  6  8  5 13 59.9990000  0  7G28G30G07S20G13G05G02
 -12497818.622 7  22208192.818          46.000        3625.586
 -33646666.733 8  20302651.272          50.000         -91.764
 -21148314.321 7  21857577.459          47.000       -1453.127
 -20616011.764 6  38349903.241          41.000        1109.760
 -14953103.565 7  21059008.816          47.000        3300.861
 -26634747.924 8  20330066.751          48.000         860.893
  -8672487.182 5  24207895.599          34.000       -2000.150
 16  6  8  5 14 59.9990000  0  7G28G30G07S20G13G05G02
 -12714645.096 7  22166931.412          46.000        3602.171
 -33640276.155 8  20303867.657          50.000        -121.143
 -21060647.361 7  21874260.495          47.000       -1469.170
 -20682633.045 6  38337225.675          41.000        1110.679
 -15150657.418 7  21021415.236          47.000        3284.531
 -26685267.616 8  20320452.711          48.000         823.631
  -8552431.571 6  24230748.997          36.000       -2001.429
 16  6  8  5 15 59.9990000  0  7G28G30G07S20G13G05G02
 -12930018.941 7  22125946.609          45.000        3577.361
 -33632095.287 8  20305424.950          50.000        -151.403
 -20971978.074 8  21891135.153          48.000       -1486.351
 -20749278.323 6  38324544.183          41.000        1110.543
 -15347182.454 8  20984018.739          48.000        3266.680
 -26733505.763 7  20311272.378          47.000         784.553
  -8432264.020 5  24253615.309          34.000       -2003.906
 16  6  8  5 16 59.9990000  0  7G28G30G07S20G13G05G02
 -13143903.242 7  22085247.396          45.000        3552.476
 -33622120.072 8  20307322.556          50.000        -181.147
 -20882304.927 8  21908197.784          48.000       -1502.713
 -20815941.038 6  38311857.595          41.000        1111.542
 -15542654.322 7  20946821.261          47.000        3249.037
 -26779444.890 8  20302531.494          48.000         746.341
  -8311991.03815  24276497.588          32.000       -2006.299
 16  6  8  5 17 59.9990000  0  8G09G28G30G07S20G13G05G02
 -16364658.73813  24997298.027          23.000       -2132.302
 -13356301.752 7  22044829.586          46.000        3527.359
 -33610386.100 8  20309555.207          50.000        -210.465
 -20791665.422 7  21925444.322          47.000       -1518.805
 -20882637.102 6  38299166.349          41.000        1111.608
 -15737087.056 7  20909822.350          47.000        3231.691
 -26823107.547 8  20294222.835          48.000         708.685
  -8191658.01414  24299388.190          24.000       -2006.768
 16  6  8  5 18 59.9990000  0  8G09G28G30G07S20G13G05G02
 -16236626.89314  25021662.579          25.000       -2134.769
 -13567188.204 7  22004697.994          45.000        3502.100
 -33596899.501 8  20312120.110          49.000        -239.332
 -20700067.645 8  21942875.537          48.000       -1534.760
 -20949348.465 6  38286471.734          41.000        1111.242
 -15930465.731 7  20873020.801          45.000        3213.966
 -26864486.856 8  20286349.960          48.000         670.267
  -8071273.14913  24322306.015          23.000       -2006.872
 16  6  8  5 20  0.0000000  0  8G09G28G30G07S20G13G05G02
 -16108498.03612  25345827.351          14.000       -2135.644
 -13776537.720 7  22264652.858          46.000        3476.334
 -33581667.910 8  20614812.197          49.000        -268.062
 -20607521.652 8  22260280.165          48.000       -1550.015
 -21016078.121 6  38573565.997          41.000        1112.925
 -16122776.821 7  21136219.486          46.000        3196.105
 -26903578.129 8  20578702.409          48.000         632.657
  -7950872.86214  24645001.496          29.000       -2006.046
 16  6  8  5 21  0.0000000  0  8G09G28G30G07S20G13G05G02
 -15980144.66713  25370263.223          18.000       -2133.378
 -13984328.545 7  22225112.148          46.000        3449.981
 -33564701.662 8  20618041.587          50.000        -297.022
 -20514038.881 8  22278070.767          48.000       -1565.378
 -21082832.799 6  38560863.163          41.000        1113.257
 -16314008.944 7  21099829.377          45.000        3178.244
 -26940378.861 7  20571699.375          47.000         594.488
  -7830463.68215  24667923.806          30.000       -2006.069
 16  6  8  5 22  0.0000000  0  9G09G15G28G30G07S20G13G05G02
 -15851611.70613  25394722.408          21.000       -2142.466
   -231217.85615  23666806.611          35.000        4317.150
 -14190547.663 7  22185869.487          46.000        3423.808
 -33546019.588 8  20621596.929          50.000        -325.625
 -20419640.127 7  22296032.433          47.000       -1580.811
 -21149610.649 6  38548154.466          41.000        1113.330
 -16504158.470 7  21063642.390          43.000        3160.041
 -26974895.930 8  20565131.131          48.000         556.113
  -7710075.71814  24690827.949          27.000       -2005.987
 16  6  8  5 23  0.0000000  0  9G09G15G28G30G07S20G13G05G02
 -15722950.89612  25419193.529          16.000       -2143.656
   -490057.79315  23617546.723          34.000        4310.050
 -14395166.213 7  22146932.363          46.000        3397.604
 -33525625.134 8  20625477.317          50.000        -353.732
 -20324329.985 7  22314169.090          47.000       -1595.875
 -21216408.354 6  38535442.873          41.000        1113.671
 -16693207.569 7  21027672.238          46.000        3141.942
 -27007120.590 8  20558998.164          48.000         518.691
  -7589722.05114  24713734.082          27.000       -2004.221
 16  6  8  5 24  0.0000000  0  8G15G28G30G07S20G13G05G02
   -748495.789 6  23568374.470          37.000        4304.196
 -14598191.285 7  22108297.476          45.000        3369.533
 -33503557.583 8  20629677.322          50.000        -381.654
 -20228148.972 8  22332471.297          48.000       -1610.251
 -21283243.779 6  38522724.090          41.000        1113.983
 -16881173.653 7  20991899.554          44.000        3123.520
 -27037080.550 8  20553299.168          48.000         480.220
  -7469450.42315  24736622.137          31.000       -2002.324
 16  6  8  5 25  0.0000000  0  8G15G28G30G07S20G13G05G02
  -1006494.224 6  23519273.780          36.000        4297.060
 -14799576.616 7  22069976.815          47.000        3343.061
 -33479802.258 8  20634197.173          49.000        -409.500
 -20131083.289 8  22350943.225          48.000       -1624.610
 -21350081.591 6  38510006.563          41.000        1113.947
 -17068019.656 7  20956342.205          42.000        3104.857
 -27064749.599 8  20548033.407          48.000         442.292
  -7349281.61411  24759487.698           9.000       -1990.733
 16  6  8  5 26  0.0000000  0  8G15G28G30G07S20G13G05G02
  -1264065.932 5  23470258.387          35.000        4289.283
 -14999326.604 7  22031964.657          46.000        3315.759
 -33454395.283 8  20639032.000          48.000        -437.038
 -20033169.881 8  22369575.712          49.000       -1638.625
 -21416949.206 6  38497281.951          41.000        1114.737
 -17253759.807 7  20920998.464          43.000        3086.113
 -27090152.340 7  20543198.039          47.000         404.374
  -7229268.01313  24782343.766          23.000       -2003.490
 16  6  8  5 27  0.0000000  0  9G15G28G30G20G07S20G13G05G02
  -1521167.879 6  23421336.702          38.000        4281.005
 -15197389.594 7  21994274.804          46.000        3286.816
 -33427316.158 8  20644183.741          48.000        -465.534
   -202880.85817  21906471.643          47.000        3356.480
 -19934389.416 8  22388373.401          49.000       -1653.541
 -21483822.251 6  38484555.804          41.000        1113.730
 -17438351.163 7  20885873.811          44.000        3067.107
 -27113257.904 7  20538801.457          47.000         366.078
  -7109300.04214  24805171.618          27.000       -1998.044
 16  6  8  5 28  0.0000000  0  9G15G28G30G20G07S20G21G13G05
  -1777795.220 6  23372502.564          39.000        4273.811
 -15393752.547 7  21956907.082          46.000        3257.908
 -33398584.041 7  20649652.360          47.000        -492.789
   -403375.285 8  21868319.796          48.000        3325.919
 -19834761.587 8  22407330.340          49.000       -1667.945
 -21550699.875 6  38471828.313          41.000        1113.825
   -138074.77015  25295518.618          34.000        2280.084
 -17621790.480 7  20850966.273          45.000        3046.969
 -27134074.273 7  20534840.921          47.000         327.521
 16  6  8  5 28 59.9990000  0  9G15G28G30G20G07S20G21G13G05
  -2033937.617 6  23323757.388          39.000        4265.295
 -15588399.028 7  21919868.227          47.000        3230.364
 -33368217.083 7  20655431.627          47.000        -519.467
   -602019.137 7  21830518.139          47.000        3295.371
 -19734305.419 8  22426447.385          49.000       -1681.089
 -21617589.699 6  38459097.856          41.000        1115.329
   -274182.14215  25269620.698          34.000        2255.131
 -17804069.565 7  20816278.311          45.000        3028.572
 -27152608.177 7  20531312.661          47.000         290.172
 16  6  8  5 29 59.9990000  0  9G15G28G30G20G07S20G21G13G05
  -2289597.675 6  23275108.676          41.000        4256.082
 -15781321.656 7  21883156.355          46.000        3200.536
 -33336231.719 7  20661516.867          46.000        -546.735
   -798804.724 7  21793070.216          47.000        3263.493
 -19633036.033 8  22445718.429          49.000       -1695.398
 -21684490.993 6  38446369.283          41.000        1114.733
   -408546.37016  25244052.708          36.000        2224.687
 -17985189.227 7  20781811.496          45.000        3008.836
 -27168867.570 8  20528219.680          48.000         251.054
 16  6  8  5 30 59.9990000  0  9G15G28G30G20G07S20G21G13G05
  -2544769.577 7  23226552.206          42.000        4249.185
 -15972508.976 7  21846774.221          46.000        3171.580
 -33302651.178 7  20667908.533          47.000        -573.183
   -993719.238 7  21755980.023          46.000        3232.185
 -19530977.423 8  22465139.718          49.000       -1707.961
 -21751402.192 6  38433636.994          41.000        1115.238
   -541166.23716  25218814.179          36.000        2196.212
 -18165146.732 7  20747567.800          46.000        2989.178
 -27182864.682 7  20525554.874          47.000         214.594
 16  6  8  5 31 59.9990000  0  9G15G28G30G20G07S20G21G13G05
  -2799445.085 7  23178089.252          42.000        4240.318
 -16161945.415 7  21810725.212          46.000        3141.732
 -33267490.922 8  20674599.400          48.000        -599.669
  -1186746.643 7  21719247.000          45.000        3201.391
 -19428145.274 8  22484707.764          48.000       -1720.456
 -21818331.110 6  38420901.109          41.000        1115.138
   -672036.618 6  25193911.218          38.000        2167.438
 -18343934.207 7  20713546.524          47.000        2969.793
 -27194605.814 8  20523322.660          48.000         176.892
 16  6  8  5 32 59.9990000  0  9G15G28G30G20G07S20G21G13G05
  -3053613.138 7  23129722.658          44.000        4231.535
 -16349614.251 7  21775011.632          44.000        3113.088
 -33230764.338 7  20681587.619          47.000        -624.558
  -1377868.924 7  21682877.396          45.000        3169.175
 -19324552.713 8  22504421.903          48.000       -1732.893
 -21885286.134 6  38408158.454          41.000        1115.414
   -801150.058 6  25169342.777          39.000        2137.611
 -18521542.303 7  20679748.663          47.000        2950.252
 -27204094.268 8  20521517.540          48.000         139.302
 16  6  8  5 33 59.9990000  0  9G15G28G30G20G07S20G21G13G05
  -3307263.223 7  23081453.663          44.000        4223.370
 -16535498.172 7  21739640.860          46.000        3083.573
 -33192485.083 7  20688872.492          47.000        -651.039
  -1567067.941 7  21646875.276          46.000        3137.539
 -19220213.081 8  22524277.285          48.000       -1744.671
 -21952261.833 6  38395414.508          41.000        1116.873
   -928498.979 6  25145108.229          39.000        2107.931
 -18697961.652 8  20646178.440          48.000        2930.463
 -27211334.988 7  20520138.205          47.000         102.239
 16  6  8  5 34 59.9990000  0  9G15G28G30G20G07S20G21G13G05
  -3560398.810 7  23033283.366          44.000        4214.304
 -16719593.661 7  21704608.903          46.000        3053.064
 -33152680.263 7  20696446.811          46.000        -675.776
  -1754339.835 7  21611237.866          46.000        3104.958
 -19115152.950 8  22544270.069          48.000       -1756.969
 -22019274.845 6  38382660.336          41.000        1117.662
  -1054090.982 6  25121210.051          40.000        2079.674
 -18873196.165 8  20612832.487          48.000        2910.290
 -27216346.241 8  20519184.411          48.000          65.074
 16  6  8  5 35 59.9990000  0  9G15G28G30G20G07S20G21G13G05
  -3812990.483 7  22985214.962          43.000        4205.806
 -16901867.645 7  21669922.878          47.000        3022.640
 -33111346.495 7  20704312.811          46.000        -701.525
  -1939649.977 7  21575975.635          47.000        3072.522
 -19009368.596 8  22564399.541          48.000       -1768.960
 -22086302.548 6  38369906.338          41.000        1117.104
  -1177902.063 6  25097650.861          39.000        2048.582
 -19047219.760 7  20579715.726          47.000        2890.707
 -27219115.378 7  20518657.990          47.000          27.138
 16  6  8  5 36 59.9990000  0  9G15G28G30G20G07S20G21G13G05
  -4065040.469 7  22937251.660          43.000        4196.113
 -17082316.580 8  21635585.055          48.000        2991.882
 -33068510.154 7  20712462.726          45.000        -726.456
  -2122993.397 7  21541086.420          45.000        3039.012
 -18902885.667 8  22584662.960          48.000       -1780.163
 -22153361.515 6  38357146.076          41.000        1118.217
  -1299938.26516  25074424.098          38.000        2017.731
 -19220035.064 8  20546831.628          48.000        2870.076
 -27219660.965 7  20518553.027          47.000          -9.219
 16  6  8  5 37 59.9990000  0  9G15G28G30G20G07S20G21G13G05
  -4316533.168 7  22889395.118          43.000        4185.678
 -17260919.346 7  21601596.411          46.000        2960.919
 -33024179.949 7  20720899.679          45.000        -751.872
  -2304348.016 7  21506576.590          44.000        3005.099
 -18795711.707 8  22605057.135          48.000       -1792.180
 -22220440.308 6  38344381.625          41.000        1118.103
  -1420188.978 6  25051543.145          38.000        1988.158
 -19391628.105 7  20514177.769          47.000        2849.100
 -27217983.738 8  20518875.123          48.000         -46.852
 16  6  8  5 38 59.9990000  0  9G15G28G30G20G07S20G21G13G05
  -4567439.879 7  22841649.385          44.000        4177.042
 -17437642.993 7  21567964.833          45.000        2929.152
 -32978352.838 7  20729621.141          46.000        -776.460
  -2483680.279 7  21472447.140          43.000        2971.839
 -18687842.901 8  22625583.948          48.000       -1803.723
 -22287511.527 6  38331618.798          41.000        1117.171
  -1538631.774 6  25028999.191          36.000        1958.743
 -19561971.452 7  20481761.616          47.000        2828.721
 -27214072.520 8  20519618.118          48.000         -83.789
 16  6  8  5 39 59.9990000  0  9G15G28G30G20G07S20G21G13G05
  -4817761.848 7  22794012.804          42.000        4167.029
 -17612485.353 7  21534693.724          46.000        2898.783
 -32931055.174 7  20738621.160          46.000        -800.795
  -2660985.426 7  21438707.685          44.000        2937.920
 -18579304.755 7  22646237.711          47.000       -1814.330
 -22354593.072 6  38318852.864          41.000        1117.774
  -1655273.026 6  25006809.861          38.000        1929.199
 -19731068.966 7  20449584.828          47.000        2807.898
 -27207946.645 8  20520784.526          48.000        -120.764
 16  6  8  5 40 59.9990000  0  9G15G28G30G20G07S20G21G13G05
  -5067473.258 7  22746495.233          42.000        4156.503
 -17785415.734 7  21501788.372          47.000        2866.590
 -32882285.840 7  20747902.425          46.000        -825.254
  -2836231.771 7  21405359.464          44.000        2903.737
 -18470094.554 7  22667019.682          47.000       -1825.874
 -22421679.562 6  38306084.854          41.000        1118.541
  -1770092.741 6  24984956.412          38.000        1898.806
 -19898895.495 7  20417649.900          47.000        2785.967
 -27199597.131 7  20522372.391          47.000        -157.561
 16  6  8  5 41 59.9990000  0  9G15G28G30G20G07S20G21G13G05
  -5316573.137 6  22699090.983          41.000        4147.548
 -17956430.345 7  21469244.781          47.000        2834.556
 -32832069.645 7  20757457.589          46.000        -848.666
  -3009414.504 7  21372404.012          44.000        2869.007
 -18360235.576 8  22687926.421          48.000       -1836.209
 -22488774.907 6  38293318.030          41.000        1118.797
  -1883096.634 6  24963456.610          40.000        1868.133
 -20065453.121 8  20385954.371          48.000        2765.355
 -27189042.474 7  20524380.771          47.000        -194.365
 16  6  8  5 43  0.0000000  0  9G15G28G30G20G07S20G21G13G05
  -5565052.865 7  22951604.429          42.000        4135.308
 -18125517.503 7  21736861.704          47.000        2801.716
 -32780423.109 7  21067077.622          46.000        -873.042
  -3180519.909 7  21639635.111          43.000        2834.583
 -18249743.372 8  23008744.277          48.000       -1846.821
 -22555886.975 6  38580339.631          41.000        1118.134
  -1994282.408 6  25242086.522          38.000        1838.600
 -20230734.371 8  20654294.571          48.000        2744.008
 -27176292.621 7  20826600.168          47.000        -230.998
 16  6  8  5 44  0.0000000  0  9G15G28G30G20G07S20G21G13G05
  -5812872.082 6  22904444.116          41.000        4125.733
 -18292633.798 7  21705060.584          47.000        2769.322
 -32727331.631 7  21077181.839          47.000        -896.517
  -3349503.899 7  21607478.251          42.000        2798.862
 -18138601.467 8  23029894.429          48.000       -1857.911
 -22622977.972 6  38567571.760          41.000        1118.725
  -2103617.714 6  25221285.915          38.000        1806.113
 -20394700.652 8  20623093.931          49.000        2721.985
 -27161326.038 8  20829448.340          48.000        -267.526
 16  6  8  5 45  0.0000000  0  9G15G28G30G20G07S20G21G13G05
  -6060041.226 7  22857411.975          42.000        4114.157
 -18457787.092 7  21673632.323          47.000        2736.063
 -32672830.763 7  21087551.579          46.000        -919.606
  -3516371.652 7  21575726.184          43.000        2763.844
 -18026843.983 7  23051160.417          47.000       -1867.093
 -22690060.964 6  38554807.030          41.000        1118.789
  -2211119.555 6  25200828.449          38.000        1777.367
 -20557364.377 8  20592138.519          49.000        2700.388
 -27144172.722 8  20832713.066          48.000        -303.716
 16  6  8  5 46  0.0000000  0  9G15G28G30G20G07S20G21G13G05
  -6306536.973 6  22810503.766          41.000        4102.985
 -18620952.124 8  21642583.447          48.000        2702.749
 -32616923.252 7  21098191.901          46.000        -944.013
  -3681097.213 7  21544378.805          44.000        2727.295
 -17914471.666 7  23072544.559          47.000       -1878.498
 -22757130.270 6  38542044.936          41.000        1117.868
  -2316772.982 6  25180719.621          36.000        1745.051
 -20718704.824 8  20561437.548          49.000        2677.710
 -27124829.747 7  20836390.682          46.000        -340.384
 16  6  8  5 47  0.0000000  0  9G15G28G30G20G07S20G21G13G05
  -6552358.215 6  22763726.642          41.000        4091.548
 -18782126.567 8  21611913.852          48.000        2669.661
 -32559633.884 7  21109092.267          46.000        -966.147
  -3843675.686 7  21513442.099          46.000        2691.538
 -17801507.576 7  23094040.191          46.000       -1887.862
 -22824206.119 6  38529279.299          41.000        1118.449
  -2420585.18116  25160966.358          36.000        1714.404
 -20878722.770 7  20530984.108          47.000        2656.154
 -27103316.366 7  20840486.911          47.000        -376.778
 16  6  8  5 48  0.0000000  0  9G15G28G30G20G07S20G21G13G05
  -6797477.510 6  22717079.680          41.000        4079.029
 -18941281.206 8  21581626.399          48.000        2635.327
 -32500960.755 7  21120259.621          46.000        -990.037
  -4004076.684 7  21482915.892          45.000        2654.206
 -17687947.761 7  23115651.134          45.000       -1897.683
 -22891264.507 6  38516518.426          41.000        1117.368
  -2522537.03815  25141563.287          33.000        1683.722
 -21037393.291 8  20500792.248          48.000        2633.020
 -27079625.813 8  20844996.833          48.000        -413.255
 16  6  8  5 49  0.0000000  0  9G15G28G30G20G07S20G21G13G05
  -7041912.297 7  22670566.892          43.000        4068.723
 -19098432.355 8  21551722.136          48.000        2602.547
 -32440947.315 7  21131677.246          46.000       -1010.919
  -4162315.117 7  21452805.262          46.000        2619.654
 -17573833.217 7  23137366.307          45.000       -1905.979
 -22958339.779 6  38503755.406          41.000        1117.634
  -2622654.98116  25122515.589          36.000        1654.612
 -21194735.885 8  20470850.885          48.000        2611.639
 -27053796.483 7  20849908.179          47.000        -447.767
 16  6  8  5 50  0.0000000  0  9G15G28G30G20G07S20G21G13G05
  -7285641.184 7  22624186.831          43.000        4055.981
 -19253558.586 8  21522202.789          49.000        2568.395
 -32379598.451 7  21143353.379          47.000       -1033.435
  -4318367.261 7  21423110.733          46.000        2582.653
 -17459166.821 7  23159183.442          44.000       -1915.383
 -23025415.739 6  38490988.914          41.000        1118.076
  -2720926.56515  25103814.435          35.000        1623.163
 -21350731.221 7  20441166.005          47.000        2588.649
 -27025828.296 7  20855232.799          47.000        -484.201
 16  6  8  5 51  0.0000000  0  9G15G28G30G20G07S20G21G13G05
  -7528619.492 7  22577947.907          43.000        4043.945
 -19406614.541 8  21493076.264          49.000        2534.005
 -32316895.317 7  21155284.826          47.000       -1055.950
  -4472186.353 7  21393839.231          46.000        2545.517
 -17343927.258 7  23181114.334          44.000       -1924.797
 -23092449.002 6  38478234.480          41.000        1117.102
  -2817316.78115  25085465.985          33.000        1592.899
 -21505337.307 8  20411745.340          48.000        2565.584
 -26995698.616 8  20860967.935          48.000        -519.239
 16  6  8  5 51 59.9990000  0  9G15G28G30G20G07S20G21G13G05
  -7770854.135 7  22531855.024          44.000        4030.950
 -19557609.127 8  21464342.892          48.000        2498.984
 -32252876.555 7  21167467.346          46.000       -1078.108
  -4623779.457 7  21364991.701          45.000        2507.597
 -17228152.097 7  23203146.142          45.000       -1934.754
 -23159468.267 6  38465480.727          41.000        1116.648
  -2911845.50616  25067485.018          37.000        1559.178
 -21658565.458 7  20382586.305          47.000        2542.295
 -26963441.633 7  20867104.008          47.000        -555.637
 16  6  8  5 52 59.9990000  0  9G15G28G30G20G07S20G21G13G05
  -8012325.293 6  22485900.155          41.000        4017.978
 -19706520.018 8  21436007.526          49.000        2464.760
 -32187538.145 7  21179898.567          45.000       -1099.901
  -4773122.409 7  21336572.136          45.000        2470.781
 -17111832.876 7  23225282.162          44.000       -1942.535
 -23226452.056 6  38452735.873          41.000        1115.746
  -3004497.91215  25049852.341          34.000        1529.681
 -21810395.589 8  20353695.742          48.000        2519.274
 -26929050.337 7  20873648.066          47.000        -590.375
 16  6  8  5 53 59.9990000  0  9G15G28G30G20G07S20G21G13G05
  -8253044.438 7  22440097.539          43.000        4004.788
 -19853361.373 8  21408064.457          49.000        2429.526
 -32120922.616 7  21192576.238          45.000       -1121.148
  -4920226.561 7  21308579.666          45.000        2433.031
 -16995010.395 7  23247514.263          44.000       -1951.710
 -23293433.253 6  38439989.536          41.000        1115.392
  -3095298.23816  25032577.114          36.000        1497.497
 -21960842.966 7  20325064.541          47.000        2495.199
 -26892564.199 8  20880593.794          49.000        -626.218
 16  6  8  5 54 59.9990000  0  9G15G28G30G20G07S20G21G13G05
  -8492974.814 7  22394435.746          42.000        3992.626
 -19998097.858 8  21380522.970          50.000        2394.859
 -32053020.155 7  21205499.084          45.000       -1141.925
  -5065055.279 7  21281019.944          46.000        2394.953
 -16877671.797 7  23269841.293          43.000       -1959.705
 -23360396.923 6  38427247.038          41.000        1116.161
  -3184221.38015  25015648.414          32.000        1465.788
 -22109874.278 8  20296705.826          48.000        2472.327
 -26853969.582 8  20887936.549          48.000        -660.235
 16  6  8  5 55 59.9990000  0  9G15G28G30G20G07S20G21G13G05
  -8732159.704 7  22348923.624          44.000        3980.752
 -20140773.779 8  21353371.880          49.000        2360.972
 -31983900.144 7  21218651.575          45.000       -1161.876
  -5207651.517 7  21253887.735          47.000        2358.340
 -16759884.600 7  23292256.691          43.000       -1966.811
 -23427390.254 6  38414498.363          41.000        1117.003
  -3271321.79315  24999084.266          33.000        1436.843
 -22257534.539 8  20268606.578          48.000        2449.583
 -26813333.543 8  20895668.409          48.000        -693.570
 16  6  8  5 56 59.9990000  0  9G15G28G30G20G07S20G21G13G05
  -8970651.513 7  22303538.068          44.000        3969.058
 -20281444.573 8  21326602.269          48.000        2328.176
 -31913641.521 7  21232021.705          45.000       -1180.023
  -5348067.648 7  21227165.606          47.000        2322.354
 -16641723.837 7  23314741.977          43.000       -1971.542
 -23494467.774 6  38401735.151          41.000        1118.989
  -3356663.95215  24982839.212          32.000        1408.507
 -22403880.014 8  20240757.880          48.000        2428.249
 -26770732.324 7  20903774.454          47.000        -725.865
 16  6  8  5 57 59.9990000  0  9G15G28G30G20G07S20G21G13G05
  -9208425.158 7  22258290.753          43.000        3957.349
 -20420087.421 8  21300220.279          49.000        2293.825
 -31842246.191 7  21245606.891          46.000       -1199.235
  -5486279.532 8  21200866.487          48.000        2285.036
 -16523189.446 7  23337295.807          42.000       -1978.092
 -23561623.219 6  38388955.275          41.000        1119.919
  -3440318.45115  24966928.610          30.000        1378.040
 -22548888.765 8  20213163.101          48.000        2405.851
 -26726166.003 7  20912255.364          47.000        -758.984
 16  6  8  5 58 59.9990000  0  9G15G28G30G20G07S20G21G13G05
  -9445453.343 7  22213189.042          45.000        3943.847
 -20556677.928 7  21274226.033          47.000        2259.315
 -31769712.950 7  21259410.432          46.000       -1218.526
  -5622260.827 7  21174989.856          47.000        2247.208
 -16404276.480 7  23359925.250          42.000       -1985.327
 -23628834.168 6  38376165.522          41.000        1120.082
  -3522103.61215  24951375.824          35.000        1348.781
 -22692536.188 8  20185829.010          48.000        2382.644
 -26679631.306 7  20921112.274          47.000        -791.945
 16  6  8  6  0 59.9990000  0  9G15G28G30G20G07S20G21G13G05
  -9917054.547 7  22123446.045          45.000        3915.538
 -20823496.148 8  21223454.398          48.000        2187.625
 -31621120.559 7  21287686.416          46.000       -1258.067
  -5887317.622 7  21124550.926          46.000        2169.967
 -16165192.501 6  23405420.009          40.000       -2000.487
 -23763282.490 6  38350580.833          41.000        1120.500
  -3680147.05415  24921299.536          35.000        1286.727
 -22975541.582 8  20131974.793          49.000        2333.766
 -26580539.096 8  20939967.322          48.000        -859.148
 16  6  8  6  1 59.9990000  0  9G15G28G30G20G07S20G21G13G05
 -10151555.549 7  22078819.102          45.000        3901.470
 -20953660.037 8  21198683.168          48.000        2151.637
 -31545042.910 7  21302164.373          45.000       -1277.438
  -6016324.620 7  21100001.140          46.000        2130.553
 -16044995.500 6  23428293.894          40.000       -2006.285
 -23830474.402 6  38337795.407          41.000        1119.982
  -3756360.34814  24906781.426          29.000        1255.053
 -23114834.856 8  20105467.599          49.000        2309.449
 -26527960.746 8  20949973.259          48.000        -892.816
 16  6  8  6  2 59.9990000  0  9G15G28G30G20G07S20G21G13G05
 -10385179.199 7  22034362.910          46.000        3886.747
 -21081655.571 8  21174328.021          49.000        2115.499
 -31467802.539 7  21316862.238          45.000       -1297.089
  -6142977.144 7  21075900.313          46.000        2092.028
 -15924383.361 6  23451243.216          38.000       -2014.037
 -23897653.152 6  38325010.139          41.000        1119.556
  -3830710.26315  24892651.706          34.000        1224.416
 -23252648.676 8  20079242.609          49.000        2284.959
 -26473384.550 8  20960358.634          48.000        -925.904
 16  6  8  6  3 59.9990000  0  9G15G28G30G20G07S20G21G13G05
 -10617944.030 7  21990070.872          47.000        3872.103
 -21207505.482 8  21150378.400          49.000        2079.442
 -31389443.973 7  21331772.541          46.000       -1315.101
  -6267295.435 7  21052243.716          46.000        2052.311
 -15803396.632 6  23474268.639          38.000       -2018.773
 -23964843.416 6  38312224.748          41.000        1119.429
  -3903227.062 5  24878854.953          33.000        1194.643
 -23389004.237 8  20053295.234          49.000        2260.235
 -26416855.480 8  20971116.170          48.000        -958.331
 16  6  8  6  4 59.9990000  0  9G15G28G30G20G07S20G21G13G05
 -10849849.116 7  21945938.818          46.000        3858.150
 -21331214.777 8  21126838.057          48.000        2044.434
 -31309993.671 7  21346891.759          45.000       -1333.010
  -6389282.536 7  21029031.279          47.000        2014.060
 -15682058.455 6  23497361.873          39.000       -2025.279
 -24032047.569 6  38299436.740          41.000        1121.011
  -3973926.76115  24865396.403          32.000        1159.313
 -23523905.260 8  20027624.638          48.000        2236.510
 -26358399.043 7  20982238.939          47.000        -989.927
 16  6  8  6  6  0.0000000  0  9G15G28G30G20G07S20G21G13G05
 -11080934.724 7  22201757.125          45.000        3844.996
 -21452829.131 8  21403487.893          48.000        2009.656
 -31229518.453 7  21661997.111          45.000       -1349.635
  -6508982.072 7  21306045.441          47.000        1975.454
 -15560431.697 6  23820294.695          36.000       -2028.390
 -24099324.968 6  38586426.197          41.000        1121.924
  -4042863.30116  25152073.378          36.000        1133.634
 -23657395.866 7  20302013.100          47.000        2213.298
 -26298082.803 8  21293509.623          48.000       -1020.083
 16  6  8  6  7  0.0000000  0  9G15G28G30G20G07S20G21G13G05
 -11311193.567 7  22157942.176          45.000        3831.083
 -21572347.649 8  21380744.815          48.000        1974.818
 -31148038.090 7  21677502.851          45.000       -1365.970
  -6626390.984 7  21283703.002          47.000        1937.799
 -15438533.11215  23843487.326          33.000       -2033.973
 -24166690.145 6  38573606.656          41.000        1123.606
  -4110053.74915  25139279.420          30.000        1104.897
 -23789472.559 8  20276880.651          48.000        2189.784
 -26235927.261 8  21305338.899          49.000       -1051.113
 16  6  8  6  8  0.0000000  0  9G15G28G30G20G07S20G21G13G05
 -11540538.733 7  22114297.716          45.000        3814.121
 -21689689.438 7  21358412.916          47.000        1936.945
 -31065492.079 7  21693211.328          45.000       -1385.198
  -6741426.787 7  21261812.926          47.000        1897.269
 -15316299.03915  23866754.522          35.000       -2041.203
 -24234062.333 6  38560785.719          41.000        1121.277
  -4175408.74915  25126856.034          35.000        1073.517
 -23920052.197 8  20252032.082          48.000        2163.314
 -26171871.431 8  21317529.290          50.000       -1083.922
 16  6  8  6  9  0.0000000  0  9G15G28G30G20G07S20G21G13G05
 -11768893.652 7  22070845.714          47.000        3797.525
 -21804785.699 8  21336513.731          49.000        1900.023
 -30981831.251 7  21709130.743          44.000       -1403.387
  -6854018.343 7  21240385.140          46.000        1856.014
 -15193676.629 6  23890090.296          36.000       -2047.740
 -24301382.080 6  38547975.323          41.000        1120.951
  -4238877.438 6  25114779.489          37.000        1041.755
 -24049062.455 8  20227482.889          48.000        2137.179
 -26105867.987 8  21330087.112          49.000       -1116.554
 16  6  8  6 10  0.0000000  0  9G15G28G30G20G07S20G21G13G05
 -11996240.118 7  22027579.836          45.000        3780.578
 -21917624.968 8  21315040.906          49.000        1861.940
 -30897064.017 7  21725263.277          45.000       -1422.004
  -6964152.704 7  21219426.888          44.000        1814.751
 -15070669.522 6  23913492.818          36.000       -2053.292
 -24368639.314 6  38535175.274          41.000        1119.458
  -4300457.76815  25103049.051          32.000        1010.171
 -24176489.174 8  20203233.333          48.000        2110.260
 -26037927.445 8  21343016.589          49.000       -1148.948
 16  6  8  6 11  0.0000000  0  9G15G28G30G20G07S20G21G13G05
 -12222557.641 7  21984514.426          45.000        3763.062
 -22028194.751 8  21293998.352          48.000        1823.979
 -30811196.729 7  21741603.225          45.000       -1440.097
  -7071814.856 7  21198939.721          44.000        1774.132
 -14947281.323 6  23936979.555          38.000       -2058.941
 -24435814.334 6  38522393.443          41.000        1119.207
  -4360145.459 5  25091695.451          35.000         979.280
 -24302316.443 8  20179290.151          48.000        2084.100
 -25968056.779 8  21356312.015          49.000       -1180.307
 16  6  8  6 12  0.0000000  0  9G15G28G30G20G07S20G21G13G05
 -12447801.274 7  21941650.706          43.000        3745.070
 -22136457.950 8  21273398.561          48.000        1785.495
 -30724211.178 7  21758154.948          44.000       -1458.429
  -7176965.540 7  21178930.342          44.000        1732.278
 -14823489.776 6  23960536.442          39.000       -2066.323
 -24502882.266 6  38509631.121          41.000        1117.330
  -4417913.13215  25080701.290          34.000         947.365
 -24426503.524 8  20155657.444          48.000        2056.269
 -25896239.688 8  21369979.880          49.000       -1212.646
 16  6  8  6 13  0.0000000  0  9G15G28G30G20G07S20G21G13G05
 -12671962.512 7  21898996.772          45.000        3726.692
 -22242414.715 8  21253234.259          48.000        1746.697
 -30636125.563 7  21774917.697          44.000       -1477.909
  -7279603.389 7  21159400.460          45.000        1689.568
 -14699309.003 6  23984163.687          37.000       -2072.209
 -24569840.756 6  38496889.740          41.000        1114.778
  -4473769.45815  25070075.015          31.000         916.316
 -24549046.039 8  20132339.154          48.000        2028.413
 -25822497.121 8  21384011.949          49.000       -1245.343
 16  6  8  6 14  0.0000000  0  9G15G28G30G20G07S20G21G13G05
 -12895001.758 7  21856555.190          46.000        3708.487
 -22346034.377 8  21233517.328          48.000        1708.293
 -30546927.470 7  21791890.774          46.000       -1494.830
  -7379695.355 7  21140352.762          45.000        1647.892
 -14574723.161 6  24007874.590          37.000       -2078.839
 -24636671.249 6  38484172.842          41.000        1114.016
  -4527692.91414  25059805.771          26.000         883.552
 -24669909.323 8  20109339.401          48.000        2001.374
 -25746819.158 8  21398412.270          48.000       -1275.994
 16  6  8  6 14 59.9990000  0  9G15G28G30G20G07S20G21G13G05
 -13116914.771 7  21814325.384          44.000        3689.604
 -22447324.026 8  21214243.021          48.000        1668.920
 -30456644.444 7  21809071.839          46.000       -1513.553
  -7477246.959 7  21121791.035          46.000        1605.001
 -14449756.167 6  24031651.907          36.000       -2086.106
 -24703393.056 6  38471474.720          41.000        1111.702
  -4579699.44614  25049902.319          25.000         851.352
 -24789095.316 8  20086659.335          48.000        1972.657
 -25669235.000 8  21413176.271          48.000       -1308.487
 16  6  8  6 15 59.9990000  0  9G15G28G30G20G07S20G21G13G05
 -13337711.177 7  21772309.064          43.000        3670.663
 -22546298.732 8  21195407.378          48.000        1630.553
 -30365302.362 7  21826452.134          45.000       -1530.630
  -7572271.586 7  21103706.188          45.000        1562.918
 -14324429.139 6  24055504.383          38.000       -2090.480
 -24770016.025 6  38458796.508          41.000        1109.844
  -4629811.62614  25040385.493          28.000         820.007
 -24906614.720 8  20064297.038          48.000        1944.975
 -25589774.536 8  21428296.728          48.000       -1339.834
 16  6  8  6 16 59.9990000  0  9G15G28G30G20G07S20G21G13G05
 -13557411.242 7  21730498.465          43.000        3653.254
 -22642991.354 8  21177007.886          48.000        1593.142
 -30272953.927 7  21844026.388          45.000       -1546.831
  -7664799.974 7  21086100.296          46.000        1521.845
 -14198790.736 6  24079407.290          36.000       -2095.875
 -24836567.234 6  38446134.089          41.000        1109.103
  -4678072.73113  25031190.345          23.000         783.473
 -25022495.343 8  20042245.111          48.000        1918.225
 -25508493.700 8  21443765.177          49.000       -1369.113
 16  6  8  6 17 59.9990000  0  9G15G28G30G20G07S20G21G13G05
 -13776059.878 7  21688890.898          44.000        3635.150
 -22737456.896 8  21159030.707          48.000        1555.236
 -30179670.215 7  21861778.512          46.000       -1562.841
  -7754885.449 7  21068957.796          46.000        1480.640
 -14072908.461 6  24103363.752          37.000       -2099.926
 -24903110.431 6  38433471.269          41.000        1108.756
  -4724547.79113  25022376.136          23.000         755.531
 -25136786.378 8  20020496.678          48.000        1890.690
 -25425466.279 8  21459564.936          49.000       -1398.718
 16  6  8  6 18 59.9990000  0  9G15G28G30G20G07S20G21G13G05
 -13993610.111 7  21647493.817          45.000        3616.975
 -22829659.281 8  21141485.734          48.000        1518.358
 -30085431.580 7  21879709.657          45.000       -1578.067
  -7842490.325 7  21052287.411          45.000        1440.162
 -13946758.581 6  24127373.646          39.000       -2103.695
 -24969606.539 6  38420817.540          41.000        1108.780
  -4769189.58715  25013860.150          30.000         728.193
 -25249446.070 8  19999057.672          49.000        1864.537
 -25340677.523 8  21475699.913          50.000       -1427.436
 16  6  8  6 19 59.9990000  0  9G15G28G30G20G07S20G21G13G05
 -14210087.353 7  21606299.384          44.000        3598.627
 -22919635.824 8  21124364.593          48.000        1480.169
 -29990290.133 7  21897814.258          46.000       -1593.353
  -7927649.776 7  21036079.457          44.000        1398.318
 -13820389.171 6  24151413.275          36.000       -2108.901
 -25036099.993 6  38408164.492          41.000        1107.506
  -4812081.19914  25005709.468          25.000         698.922
 -25360505.082 8  19977924.149          48.000        1837.417
 -25254182.639 8  21492158.784          49.000       -1456.000
 16  6  8  6 20 59.9990000  0  9G15G28G30G20G07S20G21G13G05
 -14425452.217 7  21565315.873          43.000        3580.455
 -23007358.800 7  21107671.278          47.000        1443.486
 -29894233.098 7  21916094.915          46.000       -1608.374
  -8010334.741 7  21020346.934          44.000        1357.494
 -13693782.900 6  24175508.169          37.000       -2111.682
 -25102573.693 6  38395515.876          41.000        1107.870
  -4853171.46113  24997890.985          21.000         672.402
 -25469929.572 8  19957101.188          48.000        1810.094
 -25165973.484 8  21508944.236          48.000       -1484.162
 16  6  8  6 21 59.9990000  0  9G15G28G30G20G07S20G21G13G05
 -14639744.906 7  21524535.412          44.000        3562.952
 -23092879.731 7  21091396.612          47.000        1407.474
 -29797326.793 7  21934534.961          46.000       -1622.020
  -8090594.420 7  21005072.863          43.000        1317.972
 -13567002.163 6  24199637.667          40.000       -2113.905
 -25169073.978 6  38382858.500          41.000        1108.600
  -4892525.47513  24990405.278          18.000         649.061
 -25577764.564 8  19936581.372          48.000        1784.409
 -25076121.070 8  21526043.111          49.000       -1511.090
 16  6  8  6 22 59.9990000  0  9G15G28G30G20G07S20G21G13G05
 -14852968.929 7  21483963.167          46.000        3544.533
 -23176215.500 7  21075537.400          46.000        1370.569
 -29699602.193 7  21953130.611          46.000       -1635.250
  -8168444.668 7  20990259.216          45.000        1277.001
 -13440074.155 6  24223787.669          37.000       -2116.435
 -25235607.680 6  38370201.020          41.000        1108.777
  -4930167.83514  24983237.985          26.000         613.075
 -25684020.084 8  19916360.112          48.000        1757.321
 -24984661.156 8  21543447.399          49.000       -1537.628
 16  6  8  6 23 59.9990000  0  9G15G28G30G20G07S20G21G13G05
 -15065083.956 7  21443596.521          45.000        3525.998
 -23257337.195 8  21060101.514          48.000        1333.386
 -29601044.456 7  21971886.088          47.000       -1649.338
  -8243854.944 7  20975910.809          46.000        1236.450
 -13312979.152 6  24247973.270          39.000       -2119.797
 -25302154.171 7  38357535.844          42.000        1109.842
  -4966060.50014  24976419.522          27.000         585.199
 -25788660.008 8  19896448.280          49.000        1730.607
 -24891583.654 8  21561158.515          50.000       -1564.693
 16  6  8  6 24 59.9990000  0  9G15G28G30G20G07S20G21G13G05
 -15276065.193 7  21403452.417          47.000        3506.044
 -23336234.719 8  21045088.987          48.000        1296.030
 -29501656.568 7  21990800.152          45.000       -1663.677
  -8316813.379 7  20962023.909          43.000        1195.063
 -13185716.687 6  24272194.940          38.000       -2123.021
 -25368697.739 6  38344875.065          41.000        1108.157
  -5000266.89114  24969879.913          24.000         555.569
 -25891666.421 8  19876847.462          48.000        1702.486
 -24796896.846 8  21579176.633          48.000       -1591.893
 16  6  8  6 25 59.9990000  0  8G15G28G30G20G07S20G13G05
 -15485798.183 7  21363540.383          47.000        3484.889
 -23412806.442 7  21030515.472          46.000        1256.690
 -29401349.625 7  22009888.561          46.000       -1679.678
  -8387217.270 7  20948628.406          45.000        1151.783
 -13058192.969 6  24296460.165          36.000       -2127.971
 -25435140.334 6  38332230.341          41.000        1106.193
 -25992930.022 8  19857578.181          49.000        1672.783
 -24700517.723 8  21597518.417          48.000       -1620.953
 16  6  8  6 26 59.9990000  0  8G15G28G30G20G07S20G13G05
 -15694291.774 7  21323863.911          46.000        3464.715
 -23487075.389 7  21016383.152          46.000        1219.024
 -29300159.373 7  22029143.533          47.000       -1693.287
  -8455087.776 7  20935712.540          44.000        1109.998
 -12930439.461 5  24320769.348          34.000       -2131.617
 -25501516.062 6  38319598.547          41.000        1105.910
 -26092466.315 8  19838636.214          49.000        1644.784
 -24602487.787 8  21616172.682          48.000       -1647.265
 16  6  8  6 27 59.9990000  0  8G15G28G30G20G07S20G13G05
 -15901529.044 7  21284429.629          47.000        3443.507
 -23559038.394 7  21002689.564          47.000        1180.219
 -29198094.742 8  22048567.178          48.000       -1708.009
  -8520420.531 7  20923280.342          44.000        1068.296
 -12802460.83215  24345120.185          32.000       -2133.726
 -25567813.793 6  38306984.116          41.000        1104.430
 -26190263.712 8  19820026.116          48.000        1615.542
 -24502821.362 8  21635138.504          48.000       -1674.398
 16  6  8  6 29  0.0000000  0  8G15G28G30G20G07S20G13G05
 -16107500.857 7  21545024.079          46.000        3422.181
 -23628701.767 7  21289224.181          47.000        1141.850
 -29095173.156 7  22367943.716          46.000       -1722.495
  -8583220.518 7  21211123.428          44.000        1025.179
 -12674270.34215  24669309.248          30.000       -2137.738
 -25634042.775 6  38594170.324          41.000        1103.298
 -26286319.323 8  20101540.724          48.000        1586.672
 -24401542.416 8  21954204.463          49.000       -1701.166
 16  6  8  6 30  0.0000000  0  8G15G28G30G20G07S20G13G05
 -16312181.175 7  21506077.880          47.000        3400.914
 -23696054.694 8  21276409.300          48.000        1103.349
 -28991395.325 7  22387692.720          47.000       -1736.184
  -8643475.816 7  21199656.367          44.000         983.694
 -12545864.78915  24693749.657          31.000       -2141.592
 -25700185.744 6  38581584.826          41.000        1101.510
 -26380614.289 8  20083596.333          48.000        1556.996
 -24298658.481 8  21973782.996          49.000       -1727.947
 16  6  8  6 31  0.0000000  0  8G15G28G30G20G07S20G13G05
 -16515590.970 7  21467370.715          47.000        3379.682
 -23761132.460 7  21264024.462          47.000        1065.941
 -28886807.649 7  22407595.217          46.000       -1749.160
  -8701220.485 7  21188669.623          45.000         941.965
 -12417286.11715  24718207.550          31.000       -2144.140
 -25766265.415 6  38569013.218          41.000        1100.979
 -26473175.019 8  20065982.275          48.000        1528.537
 -24194222.448 7  21993655.479          47.000       -1753.091
 16  6  8  6 32  0.0000000  0  8G15G28G30G20G07S20G13G05
 -16717791.761 7  21428892.374          47.000        3359.764
 -23824013.447 7  21252058.132          46.000        1029.843
 -28781498.284 7  22427634.489          47.000       -1761.017
  -8756531.656 7  21178143.058          43.000         901.554
 -12288617.51416  24742699.751          38.000       -2145.610
 -25832365.843 6  38556431.960          41.000        1101.742
 -26564070.147 8  20048685.916          48.000        1501.110
 -24088329.240 7  22013807.548          47.000       -1776.787
 16  6  8  6 33  0.0000000  0  8G15G28G30G20G07S20G13G05
 -16918752.353 7  21390652.071          47.000        3339.111
 -23884682.023 7  21240512.300          45.000         993.248
 -28675461.826 7  22447811.914          47.000       -1772.561
  -8809392.854 7  21168081.402          43.000         861.128
 -12159849.195 6  24767202.247          38.000       -2146.556
 -25898461.519 6  38543855.989          41.000        1101.827
 -26653274.649 8  20031711.391          48.000        1473.123
 -23980980.291 7  22034235.000          47.000       -1801.014
 16  6  8  6 34  0.0000000  0  8G15G28G30G20G07S20G13G05
 -17118522.435 7  21352635.219          46.000        3319.006
 -23943203.936 7  21229377.089          45.000         957.119
 -28568773.598 7  22468114.509          47.000       -1783.809
  -8859868.835 7  21158476.261          42.000         821.136
 -12031052.870 6  24791713.399          39.000       -2146.883
 -25964620.846 6  38531265.954          41.000        1102.727
 -26740844.533 7  20015046.207          47.000        1445.308
 -23872258.882 8  22054924.223          48.000       -1824.299
 16  6  8  6 35  0.0000000  0  8G15G28G30G20G07S20G13G05
 -17317045.676 7  21314858.289          47.000        3298.749
 -23999540.317 7  21218657.054          45.000         921.334
 -28461403.419 7  22488546.289          47.000       -1794.619
  -8907919.426 7  21149335.750          44.000         781.344
 -11902193.037 5  24816230.205          35.000       -2147.791
 -26030811.779 6  38518669.008          41.000        1103.262
 -26826730.961 8  19998703.467          48.000        1417.903
 -23762142.093 8  22075879.596          48.000       -1846.603
 16  6  8  6 36  0.0000000  0  9G18G15G28G30G20G07S20G13G05
   -239386.74216  24621805.829          41.000        3985.674
 -17514376.044 7  21277306.067          46.000        3278.251
 -24053761.749 7  21208338.531          46.000         885.924
 -28353431.305 7  22509094.182          47.000       -1804.887
  -8953614.742 7  21140640.306          45.000         741.622
 -11773345.549 5  24840751.879          33.000       -2147.458
 -26097095.381 6  38506056.113          41.000        1105.297
 -26910994.715 8  19982667.415          48.000        1390.095
 -23650717.365 7  22097081.034          47.000       -1868.309
 16  6  8  6 37  0.0000000  0  8G18G15G28G30G20S20G13G05
   -478070.694 6  24576386.315          41.000        3970.712
 -17710480.220 7  21239991.184          47.000        3258.115
 -24105853.282 7  21198428.762          47.000         850.660
 -28244849.796 7  22529755.222          46.000       -1814.027
  -8996938.755 7  21132392.740          43.000         702.734
 -26163441.635 6  38493432.765          41.000        1106.479
 -26993609.848 8  19966947.177          48.000        1363.253
 -23537985.754 7  22118533.041          47.000       -1889.405
 16  6  8  6 38  0.0000000  0  8G18G15G28G30G20S20G13G05
   -715867.363 6  24531136.086          41.000        3955.746
 -17905386.926 7  21202899.699          46.000        3238.448
 -24155860.722 7  21188911.989          47.000         816.306
 -28135712.782 7  22550524.489          47.000       -1823.566
  -9037936.509 7  21124592.859          44.000         664.110
 -26229897.828 6  38480787.011          41.000        1108.911
 -27074611.817 8  19951532.981          48.000        1336.777
 -23424008.947 8  22140222.667          48.000       -1909.665
 16  6  8  6 38 59.9990000  0  9G18G15G28G30G20G07S20G13G05
   -952773.938 7  24486054.565          42.000        3941.066
 -18099098.189 7  21166037.824          46.000        3218.844
 -24203806.788 7  21179786.572          45.000         782.260
 -28026053.061 7  22571391.878          46.000       -1831.773
  -9076630.585 7  21117232.567          45.000         625.655
 -11386779.23913  24914283.397          21.000       -2151.235
 -26296476.329 6  38468116.687          41.000        1110.861
 -27154011.815 8  19936423.588          48.000        1309.944
 -23308828.355 8  22162142.496          49.000       -1929.410
 16  6  8  6 39 59.9990000  0  9G18G15G28G30G20G07S20G13G05
  -1188811.563 7  24441137.966          42.000        3926.301
 -18291638.487 7  21129398.265          46.000        3199.622
 -24249729.307 7  21171046.281          44.000         749.116
 -27915910.426 7  22592350.392          47.000       -1839.603
  -9113058.004 7  21110299.246          44.000         588.912
 -11258166.62514  24938750.696          24.000       -2142.963
 -26363217.243 6  38455417.309          41.000        1113.733
 -27231838.172 8  19921613.989          49.000        1283.948
 -23192492.255 8  22184280.069          49.000       -1948.153
 16  6  8  6 40 59.9990000  0  9G18G15G28G30G20G07S20G13G05
  -1423987.496 7  24396385.312          42.000        3911.675
 -18483020.291 7  21092980.167          46.000        3179.797
 -24293662.246 7  21162687.976          45.000         715.287
 -27805327.514 7  22613394.186          47.000       -1846.763
  -9147251.748 7  21103791.118          44.000         551.427
 -11129712.93414  24963201.296          28.000       -2140.282
 -26430158.627 6  38442676.800          41.000        1117.564
 -27308112.448 8  19907098.375          48.000        1257.830
 -23075051.899 8  22206627.725          48.000       -1966.723
 16  6  8  6 41 59.9990000  0 11G18G15G28G30G20G07S20G21G13G05G24
  -1658256.227 7  24351802.868          42.000        3896.177
 -18673202.027 7  21056790.125          46.000        3159.209
 -24335582.880 7  21154709.667          45.000         681.390
 -27694288.253 7  22634524.532          47.000       -1854.641
  -9179189.489 7  21097714.376          45.000         513.166
 -11001390.02814  24987611.655          25.000       -2137.798
 -26497264.673 6  38429908.790          41.000        1119.558
    -36151.00115  25208238.143          33.000         102.443
 -27382800.562 8  19892887.179          49.000        1231.214
 -22956499.992 8  22229187.698          48.000       -1985.349
   -257395.21717  23353632.178          45.000        4291.373
 16  6  8  6 42 59.9990000  0 11G18G15G28G30G20G07S20G21G13G05G24
  -1891535.360 6  24307410.456          41.000        3878.949
 -18862106.021 7  21020841.543          45.000        3137.416
 -24375432.819 7  21147128.315          46.000         646.255
 -27582739.993 7  22655752.635          47.000       -1863.897
  -9208812.147 7  21092077.746          46.000         473.739
 -10873139.73414  25012016.413          25.000       -2138.009
 -26564462.264 6  38417121.671          41.000        1120.634
    -41525.43415  25207215.927          34.000          76.001
 -27455832.747 8  19878988.430          49.000        1202.806
 -22836793.216 8  22251968.329          48.000       -2005.102
   -514569.462 7  23304692.170          44.000        4280.232
 16  6  8  6 43 59.9990000  0 11G18G15G28G30G20G07S20G21G13G05G24
  -2123662.879 6  24263237.411          40.000        3859.581
 -19049574.080 7  20985168.935          45.000        3112.708
 -24413074.322 7  21139965.716          46.000         609.238
 -27470549.817 7  22677100.428          46.000       -1875.192
  -9235981.194 7  21086908.468          45.000         432.836
 -10744826.48314  25036432.478          25.000       -2139.072
 -26631612.826 6  38404343.383          40.000        1118.469
    -45325.657 5  25206498.042          32.000          48.603
 -27527058.739 8  19865435.317          48.000        1172.181
 -22715808.077 7  22274989.390          47.000       -2026.718
   -771019.296 7  23255891.117          44.000        4268.270
 16  6  8  6 44 59.9990000  0 10G18G15G28G30G20S20G21G13G05G24
  -2354646.005 6  24219284.466          40.000        3840.255
 -19235618.348 7  20949765.672          46.000        3089.405
 -24448538.529 7  21133215.413          45.000         572.899
 -27357754.701 7  22698565.994          46.000       -1884.599
  -9260728.494 7  21082195.967          44.000         392.564
 -26698735.332 6  38391568.567          41.000        1118.781
    -47588.37415  25206074.351          32.000          25.614
 -27596498.548 8  19852221.069          49.000        1142.424
 -22593590.950 8  22298247.581          48.000       -2047.052
  -1026762.215 7  23207225.741          45.000        4256.496
 16  6  8  6 45 59.9990000  0 10G18G15G28G30G20S20G21G13G05G24
  -2584463.759 6  24175551.777          40.000        3820.104
 -19420222.464 7  20914635.626          45.000        3065.120
 -24481829.203 7  21126879.030          45.000         537.080
 -27244362.696 7  22720142.333          46.000       -1895.197
  -9283057.470 7  21077946.194          44.000         352.114
 -26765833.679 6  38378802.145          41.000        1118.353
    -48324.41914  25205936.966          29.000          -2.934
 -27664143.751 8  19839348.724          49.000        1112.154
 -22470159.288 8  22321735.452          48.000       -2067.291
  -1281786.889 7  23158696.895          45.000        4244.173
 16  6  8  6 46 59.9990000  0  9G18G15G28G30G20S20G13G05G24
  -2813044.532 6  24132056.080          40.000        3800.004
 -19603318.393 7  20879795.115          45.000        3039.036
 -24512899.051 7  21120967.472          45.000         499.799
 -27130330.754 7  22741844.610          47.000       -1905.158
  -9302920.409 7  21074169.705          45.000         311.090
 -26832861.845 6  38366047.153          41.000        1116.658
 -27729934.663 8  19826828.472          48.000        1081.411
 -22345480.665 8  22345460.384          48.000       -2087.644
  -1536032.376 7  23110314.089          44.000        4231.105
 16  6  8  6 47 59.9990000  0  9G18G15G28G30G20S20G13G05G24
  -3040419.034 6  24088790.883          41.000        3779.784
 -19784941.537 7  20845231.765          45.000        3014.564
 -24541804.486 7  21115468.804          46.000         463.995
 -27015718.850 7  22763652.915          46.000       -1915.012
  -9320374.161 7  21070848.335          46.000         270.980
 -26899862.842 6  38353297.081          41.000        1116.182
 -27793914.733 8  19814654.712          49.000        1051.063
 -22219623.757 8  22369411.610          48.000       -2107.240
  -1789540.035 7  23062072.683          44.000        4218.994
 16  6  8  6 48 59.9990000  0  9G18G15G28G30G20S20G13G05G24
  -3266613.255 6  24045747.164          41.000        3760.759
 -19965122.463 7  20810943.605          44.000        2991.994
 -24568596.998 7  21110369.536          46.000         430.101
 -26900581.963 7  22785563.670          47.000       -1922.246
  -9335470.204 7  21067973.237          45.000         232.786
 -26966869.916 6  38340545.509          41.000        1117.497
 -27856122.519 8  19802816.885          49.000        1022.802
 -22092654.505 7  22393571.419          46.000       -2124.249
  -2042345.461 7  23013964.632          43.000        4208.255
 16  6  8  6 49 59.9990000  0  9G18G15G28G30G20S20G13G05G24
  -3491732.611 6  24002908.449          41.000        3742.994
 -20143971.367 7  20776910.009          44.000        2969.280
 -24593407.665 7  21105648.938          46.000         396.951
 -26785054.242 7  22807547.489          47.000       -1928.868
  -9348340.538 7  21065525.233          46.000         195.750
 -27034012.725 6  38327769.210          41.000        1119.650
 -27916676.796 8  19791293.966          49.000         995.296
 -21964717.543 8  22417919.865          48.000       -2140.299
  -2294565.275 7  22965969.570          42.000        4198.206
 16  6  8  6 50 59.9990000  0  9G18G15G28G30G20S20G13G05G24
  -3715744.291 6  23960278.824          41.000        3723.470
 -20321458.158 7  20743136.003          45.000        2946.161
 -24616228.487 7  21101305.195          45.000         363.513
 -26669130.327 7  22829607.217          46.000       -1935.852
  -9358977.072 7  21063502.945          46.000         158.281
 -27101269.554 6  38314970.330          41.000        1121.834
 -27975556.455 8  19780089.216          49.000         967.060
 -21835817.439 7  22442446.862          46.000       -2156.729
  -2546175.544 6  22918087.359          40.000        4188.003
 16  6  8  6 51 59.9990000  0 10G18G15G28G30G20S20G21G13G05G24
  -3938626.117 7  23917866.227          43.000        3706.513
 -20497566.607 7  20709621.499          44.000        2924.687
 -24637064.197 7  21097339.929          45.000         331.934
 -26552817.419 7  22851740.497          46.000       -1940.374
  -9367385.326 7  21061903.266          46.000         123.022
 -27168643.147 6  38302150.441          41.000        1124.847
    -25933.43814  25210929.787          27.000        -137.700
 -28032753.309 8  19769204.974          49.000         940.465
 -21705971.855 7  22467156.457          47.000       -2171.005
  -2797164.920 6  22870325.887          41.000        4178.922
 16  6  8  6 53  0.0000000  0 10G18G15G28G30G20S20G21G13G05G24
  -4160459.169 7  24175445.244          43.000        3687.639
 -20672381.319 7  20976150.907          46.000        2902.548
 -24656021.972 7  21393522.737          44.000         299.866
 -26436224.189 7  23173718.007          45.000       -1945.905
  -9373672.616 7  21360498.915          46.000          87.013
 -27236239.691 6  38589079.136          41.000        1128.503
    -17032.51015  25512402.977          31.000        -157.408
 -28088360.865 8  20058414.989          49.000         913.507
 -21575300.731 7  22791813.570          46.000       -2185.092
  -3047624.947 6  23122458.167          41.000        4169.717
 16  6  8  6 54  0.0000000  0  9G18G15G28G30G20S20G13G05G24
  -4381154.708 7  24133445.397          43.000        3668.461
 -20845817.770 7  20943144.518          45.000        2878.701
 -24673039.574 7  21390286.699          45.000         267.040
 -26319290.198 7  23195969.775          45.000       -1952.486
  -9377777.266 7  21359715.296          45.000          49.942
 -27303981.182 6  38576188.468          41.000        1129.764
 -28142304.042 8  20048149.863          49.000         884.716
 -21443754.250 7  22816847.007          46.000       -2200.182
  -3297477.222 6  23074910.896          41.000        4158.777
 16  6  8  6 55  0.0000000  0  9G18G15G28G30G20S20G13G05G24
  -4600688.981 7  24091670.779          43.000        3649.311
 -21017856.196 7  20910409.934          47.000        2855.427
 -24688119.683 7  21387416.731          45.000         234.924
 -26202019.002 7  23218287.853          46.000       -1957.264
  -9379702.935 7  21359350.935          46.000          14.129
 -27371868.209 6  38563268.309          41.000        1132.484
 -28194571.563 8  20038204.513          49.000         856.890
 -21311347.621 7  22842043.516          46.000       -2213.873
  -3546706.465 7  23027488.428          42.000        4148.320
 16  6  8  6 56  0.0000000  0  9G18G15G28G30G20S20G13G05G24
  -4818997.308 7  24050128.110          43.000        3627.895
 -21188436.841 7  20877948.882          47.000        2830.563
 -24701225.066 7  21384924.474          46.000         201.649
 -26084374.098 7  23240673.132          45.000       -1963.978
  -9379412.964 7  21359405.502          46.000         -23.719
 -27439848.499 6  38550333.440          41.000        1133.207
 -28245112.446 8  20028586.878          49.000         827.503
 -21178055.029 7  22867406.971          45.000       -2229.483
  -3795259.938 6  22980187.571          41.000        4136.064
 16  6  8  6 57  0.0000000  0  9G18G15G28G30G20S20G13G05G24
  -5035975.876 7  24008838.470          44.000        3605.019
 -21357459.649 7  20845784.745          46.000        2804.141
 -24712278.320 7  21382819.890          46.000         167.280
 -25966279.079 7  23263148.192          46.000       -1972.141
  -9376831.254 7  21359896.813          46.000         -62.097
 -27507821.610 6  38537399.653          41.000        1132.413
 -28293836.127 8  20019314.530          49.000         796.552
 -21043810.978 7  22892954.003          45.000       -2245.051
  -4043043.153 7  22933037.781          42.000        4123.573
 16  6  8  6 58  0.0000000  0  9G18G15G28G30G20S20G13G05G24
  -5251620.545 7  23967804.178          44.000        3582.703
 -21524924.845 7  20813917.960          47.000        2777.850
 -24721302.833 7  21381103.225          45.000         133.275
 -25847757.156 7  23285702.598          46.000       -1979.110
  -9371981.973 7  21360820.017          46.000         -99.925
 -27575810.215 6  38524460.474          41.000        1133.088
 -28340751.960 8  20010387.051          49.000         766.460
 -20908650.434 7  22918674.734          46.000       -2260.597
  -4290061.536 7  22886033.456          42.000        4109.845
 16  6  8  6 59  0.0000000  0  9G18G15G28G30G20S20G13G05G24
  -5465875.568 7  23927032.268          43.000        3559.085
 -21690780.982 7  20782356.798          46.000        2750.573
 -24728270.431 7  21379777.375          46.000          98.725
 -25728779.808 7  23308341.289          45.000       -1987.161
  -9364838.422 7  21362179.371          46.000        -138.236
 -27643784.478 6  38511526.041          41.000        1132.951
 -28385817.316 8  20001811.403          49.000         735.587
 -20772557.055 7  22944571.206          44.000       -2276.035
  -4536269.586 7  22839182.291          42.000        4097.059
 16  6  8  7  1  0.0000000  0  9G18G15G28G30G20S20G13G05G24
  -5889918.713 7  23846337.104          42.000        3507.931
 -22017383.422 7  20720206.522          46.000        2691.938
 -24735846.011 7  21378336.632          46.000          27.363
 -25489267.074 7  23353920.263          47.000       -2005.396
  -9343483.259 7  21366242.288          45.000        -218.235
 -27779443.892 6  38485710.747          41.000        1127.339
 -28470153.481 8  19985762.874          49.000         669.617
 -20497424.920 7  22996926.745          45.000       -2309.634
  -5025995.762 6  22745987.588          41.000        4065.137
 16  6  8  7  1 59.9990000  0  9G18G15G28G30G20S20G13G05G24
  -6099617.107 7  23806431.963          42.000        3482.246
 -22178049.327 7  20689632.466          47.000        2663.574
 -24736424.149 7  21378224.881          46.000          -8.118
 -25368701.517 7  23376864.228          47.000       -2013.502
  -9329245.002 7  21368950.178          45.000        -256.478
 -27847076.033 6  38472840.234          41.000        1125.512
 -28509364.825 8  19978301.318          49.000         637.246
 -20358380.892 7  23023386.318          46.000       -2325.176
  -5269443.270 6  22699661.710          40.000        4049.433
 16  6  8  7  2 59.9990000  0  9G18G15G28G30G20S20G13G05G24
  -6307791.104 7  23766817.317          43.000        3456.389
 -22336987.123 7  20659385.847          45.000        2634.542
 -24734917.882 7  21378513.037          46.000         -42.362
 -25247646.751 7  23399900.069          47.000       -2021.768
  -9312690.816 7  21372099.174          44.000        -295.144
 -27914605.700 6  38459990.766          41.000        1125.014
 -28546642.745 8  19971206.635          49.000         605.148
 -20218416.434 7  23050023.744          47.000       -2340.430
  -5511985.855 6  22653502.272          37.000        4033.497
 16  6  8  7  3 59.9990000  0  9G18G15G28G30G20S20G13G05G24
  -6514416.339 7  23727501.295          44.000        3430.628
 -22494177.150 7  20629474.254          46.000        2605.079
 -24731334.989 7  21379194.625          46.000         -77.583
 -25126110.067 7  23423026.494          47.000       -2029.636
  -9293828.764 7  21375690.534          45.000        -333.807
 -27982035.909 6  38447159.028          41.000        1122.130
 -28581979.747 8  19964483.189          49.000         572.667
 -20077551.626 8  23076828.902          48.000       -2355.168
  -5753606.912 6  22607525.171          39.000        4018.772
 16  6  8  7  4 59.9990000  0  9G18G15G28G30G20S20G13G05G24
  -6719473.694 7  23688480.148          44.000        3405.030
 -22649604.587 7  20599897.531          46.000        2576.257
 -24725684.731 7  21380269.855          46.000        -110.326
 -25004098.811 7  23446245.212          46.000       -2036.714
  -9272671.102 7  21379717.294          45.000        -371.321
 -28049373.094 6  38434344.914          41.000        1122.050
 -28615370.870 8  19958129.425          49.000         541.214
 -19935806.918 7  23103800.534          46.000       -2368.887
  -5994298.299 6  22561724.998          41.000        4005.121
 16  6  8  7  5 59.9990000  0  9G18G15G28G30G20S20G13G05G24
  -6923011.725 7  23649747.767          43.000        3379.093
 -22803321.628 8  20570647.773          48.000        2547.590
 -24718043.433 7  21381723.074          45.000        -144.224
 -24881686.902 7  23469539.595          46.000       -2043.612
  -9249295.610 7  21384165.965          46.000        -408.374
 -28116675.321 6  38421536.018          41.000        1121.257
 -28646878.327 8  19952133.635          49.000         509.380
 -19793268.043 7  23130925.117          46.000       -2382.507
  -6234117.149 6  22516087.339          41.000        3988.639
 16  6  8  7  6 59.9990000  0  9G18G15G28G30G20S20G13G05G24
  -7124958.465 7  23611317.571          43.000        3352.061
 -22955260.544 8  20541734.577          48.000        2516.696
 -24708368.015 7  21383564.386          44.000        -178.514
 -24758827.648 7  23492917.634          45.000       -2051.992
  -9223660.597 7  21389043.493          45.000        -446.752
 -28183892.552 6  38408744.258          41.000        1119.447
 -28676443.928 8  19946506.934          48.000         475.841
 -19649900.752 7  23158206.439          46.000       -2396.754
  -6473000.914 7  22470631.895          44.000        3972.914
 16  6  8  7  7 59.9990000  0  9G18G15G28G30G20S20G13G05G24
  -7325250.184 7  23573201.741          42.000        3324.455
 -23105360.980 7  20513170.211          47.000        2486.517
 -24696623.452 7  21385798.764          44.000        -212.513
 -24635482.864 7  23516390.114          44.000       -2059.784
  -9195733.063 7  21394358.306          45.000        -484.527
 -28250971.084 6  38395981.762          41.000        1116.068
 -28704017.691 8  19941258.903          48.000         443.109
 -19505679.127 7  23185649.349          45.000       -2410.557
  -6710894.613 7  22425362.889          44.000        3956.652
 16  6  8  7  8 59.9990000  0  9G18G15G28G30G20S20G13G05G24
  -7523904.283 7  23535400.207          43.000        3297.662
 -23253644.972 7  20484952.004          47.000        2456.490
 -24682854.641 7  21388418.758          44.000        -245.946
 -24511695.275 7  23539946.704          44.000       -2066.612
  -9165561.499 7  21400099.916          46.000        -521.570
 -28317932.188 6  38383239.125          41.000        1115.771
 -28729631.683 8  19936385.982          49.000         411.117
 -19360659.059 7  23213247.916          46.000       -2422.812
  -6947825.903 7  22380276.168          45.000        3941.003
 16  6  8  7  9 59.9990000  0  9G18G15G28G30G20S20G13G05G24
  -7720999.291 7  23497893.267          43.000        3271.810
 -23400195.040 7  20457064.724          47.000        2428.352
 -24667170.386 7  21391405.345          45.000        -276.874
 -24387568.621 7  23563564.509          43.000       -2071.474
  -9133255.708 7  21406249.024          47.000        -555.703
 -28384881.636 6  38370499.366          40.000        1115.719
 -28753378.909 8  19931867.196          49.000         380.732
 -19214957.135 7  23240975.108          47.000       -2433.600
  -7183882.083 7  22335356.359          46.000        3926.950
 16  6  8  7 10 59.9990000  0  9G18G15G28G30G20S20G13G05G24
  -7916531.250 7  23460689.141          45.000        3244.960
 -23545010.967 8  20429509.120          48.000        2398.705
 -24649595.556 7  21394747.725          45.000        -308.916
 -24263123.154 7  23587250.056          45.000       -2077.146
  -9098842.392 7  21412797.392          46.000        -591.825
 -28451836.317 6  38357756.170          40.000        1115.671
 -28775269.124 8  19927701.794          49.000         348.941
 -19068605.948 7  23268824.870          46.000       -2445.099
  -7419067.952 7  22290600.250          46.000        3912.104
 16  6  8  7 11 59.9990000  0  9G18G15G28G30G20S20G13G05G24
  -8110398.996 7  23423794.233          44.000        3217.537
 -23687995.023 8  20402297.792          48.000        2367.976
 -24630056.513 7  21398466.767          46.000        -341.876
 -24138282.055 7  23611002.926          44.000       -2083.974
  -9062251.309 7  21419759.698          46.000        -627.711
 -28518706.912 6  38345031.314          41.000        1113.751
 -28795214.737 8  19923905.168          49.000         316.407
 -18921541.822 7  23296808.807          45.000       -2457.271
  -7653290.810 7  22246029.183          46.000        3895.429
 16  6  8  7 12 59.9990000  0 10G18G15G28G30G20S20G21G13G05G24
  -8302608.945 7  23387219.170          44.000        3189.378
 -23829158.366 8  20375436.497          49.000        2337.869
 -24608589.934 7  21402551.479          47.000        -373.621
 -24013076.682 7  23634831.513          47.000       -2089.484
  -9023521.456 7  21427129.116          47.000        -662.965
 -28585518.904 7  38332317.627          42.000        1113.334
    434740.28913  25598339.872          19.000        -586.269
 -28813237.377 8  19920474.856          49.000         284.584
 -18773809.568 7  23324919.380          44.000       -2467.791
  -7886566.723 7  22201638.272          47.000        3880.415
 16  6  8  7 13 59.9990000  0  9G18G15G28G30G20S20G13G05G24
  -8493187.558 7  23350951.179          42.000        3162.628
 -23968530.589 8  20348916.180          48.000        2308.324
 -24585250.487 7  21406993.467          45.000        -404.317
 -23887556.848 7  23658716.533          45.000       -2094.295
  -8982710.111 7  21434896.610          46.000        -697.094
 -28652309.477 6  38319607.412          40.000        1114.021
 -28829377.691 8  19917404.543          48.000         253.632
 -18625471.742 6  23353147.428          41.000       -2476.259
  -8118930.115 7  22157421.340          46.000        3865.624
 16  6  8  7 14 59.9990000  0  9G18G15G28G30G20S20G13G05G24
  -8682197.556 7  23314983.226          42.000        3137.009
 -24106178.505 7  20322721.326          47.000        2280.226
 -24560129.731 7  21411772.524          45.000        -433.347
 -23761808.872 7  23682646.279          46.000       -2097.363
  -8939911.831 7  21443040.103          46.000        -729.422
 -28719145.955 6  38306890.129          41.000        1114.735
 -28843712.067 8  19914677.091          48.000         223.974
 -18476627.826 7  23381472.273          43.000       -2484.642
  -8350451.884 7  22113362.681          45.000        3851.698
 16  6  8  7 16  0.0000000  0  9G18G15G28G30G20S20G13G05G24
  -8869652.278 6  23579103.457          41.000        3110.920
 -24242119.796 8  20596645.665          48.000        2250.950
 -24533271.047 7  21716676.147          45.000        -462.526
 -23635870.551 7  24006404.060          46.000       -2100.931
  -8895172.083 7  21751347.671          47.000        -762.175
 -28786063.257 6  38593947.974          41.000        1116.003
 -28856269.672 8  20212079.198          48.000         194.095
 -18327328.794 7  23709677.765          43.000       -2492.832
  -8581154.806 7  22369254.576          44.000        3837.796
 16  6  8  7 17  0.0000000  0 10G18G15G28G30G20S20G21G13G05G24
  -9055508.451 7  23543737.223          42.000        3083.956
 -24376313.425 8  20571109.052          48.000        2222.278
 -24504658.807 7  21722123.390          46.000        -491.022
 -23509720.642 7  24030408.632          45.000       -2104.244
  -8848479.063 7  21760231.873          46.000        -794.548
 -28853043.642 6  38581201.340          41.000        1116.921
    581007.62811  25926297.345          11.000        -643.682
 -28867019.652 8  20210034.312          49.000         164.022
 -18177566.746 7  23738178.752          43.000       -2500.120
  -8811002.755 7  22325516.373          45.000        3823.981
 16  6  8  7 18  0.0000000  0  9G18G15G28G30G20S20G13G05G24
  -9239746.514 7  23508678.741          42.000        3056.307
 -24508744.797 8  20545908.494          48.000        2191.452
 -24474303.578 7  21727897.265          45.000        -521.034
 -23383363.224 7  24054453.810          45.000       -2108.165
  -8799845.556 7  21769487.783          46.000        -827.231
 -28920073.860 6  38568446.505          41.000        1117.164
 -28875957.955 8  20208332.374          48.000         133.526
 -18027359.112 7  23766761.703          43.000       -2507.976
  -9039984.881 7  22281941.033          44.000        3808.417
 16  6  8  7 19  0.0000000  0 10G18G15G28G30G20S20G21G13G05G24
  -9422295.634 7  23473941.500          42.000        3028.348
 -24639346.469 8  20521055.004          48.000        2161.868
 -24442163.271 7  21734013.811          45.000        -550.100
 -23256750.278 7  24078547.465          44.000       -2112.080
  -8749233.172 7  21779117.825          46.000        -859.391
 -28987104.470 6  38555690.483          41.000        1117.219
    660037.63212  25941476.609          12.000        -677.623
 -28883028.103 8  20206987.329          48.000         102.446
 -17876671.436 6  23795433.632          41.000       -2515.653
  -9268038.592 7  22238543.982          44.000        3793.246
 16  6  8  7 20  0.0000000  0  9G18G15G28G30G20S20G13G05G24
  -9603223.222 7  23439512.063          42.000        3002.097
 -24768189.289 8  20496536.017          48.000        2132.926
 -24408334.212 7  21740451.074          45.000        -577.552
 -23129971.549 7  24102672.985          44.000       -2114.244
  -8696741.152 7  21789107.795          46.000        -890.609
 -29054210.190 6  38542920.186          41.000        1119.692
 -28888311.819 8  20205982.650          49.000          73.386
 -17725606.921 6  23824180.126          40.000       -2521.015
  -9495238.473 7  22195308.328          42.000        3779.668
 16  6  8  7 21  0.0000000  0  9G18G15G28G30G20S20G13G05G24
  -9782505.388 6  23405394.497          40.000        2974.209
 -24895253.115 8  20472358.636          49.000        2102.861
 -24372821.656 7  21747209.194          45.000        -605.766
 -23003025.250 7  24126829.932          45.000       -2117.085
  -8642377.862 7  21799452.302          46.000        -921.739
 -29121371.848 6  38530141.915          41.000        1119.782
 -28891799.597 8  20205319.088          49.000          43.007
 -17574177.535 7  23852996.107          42.000       -2527.252
  -9721568.028 6  22152236.932          40.000        3764.745
 16  6  8  7 22  0.0000000  0  9G18G15G28G30G20S20G13G05G24
  -9960102.367 7  23371601.749          42.000        2945.868
 -25020501.970 8  20448523.925          49.000        2072.090
 -24335615.009 7  21754289.516          45.000        -634.071
 -22875893.845 7  24151023.036          44.000       -2120.498
  -8586136.409 7  21810153.561          45.000        -953.061
 -29188569.815 6  38517353.122          41.000        1120.229
 -28893466.507 8  20205001.599          48.000          12.563
 -17422379.115 7  23881882.831          43.000       -2532.959
  -9946996.366 6  22109342.412          41.000        3749.400
 16  6  8  7 23  0.0000000  0  9G18G15G28G30G20S20G13G05G24
 -10136011.619 6  23338125.338          40.000        2917.135
 -25143937.094 8  20425034.186          48.000        2042.081
 -24296740.136 7  21761688.739          45.000        -661.780
 -22748596.417 7  24175248.091          45.000       -2123.165
  -8528046.181 7  21821207.331          45.000        -983.718
 -29255810.004 6  38504558.465          41.000        1120.558
 -28893324.058 8  20205029.572          49.000         -17.609
 -17270244.492 7  23910835.045          42.000       -2538.361
 -10171527.375 6  22066616.375          41.000        3734.826
 16  6  8  7 24  0.0000000  0  9G18G15G28G30G20S20G13G05G24
 -10310224.593 6  23304976.852          41.000        2890.172
 -25265553.022 8  20401892.388          48.000        2012.319
 -24256217.623 7  21769398.909          45.000        -688.202
 -22621145.786 7  24199500.282          44.000       -2124.871
  -8468131.438 7  21832609.042          45.000       -1013.474
 -29323103.390 6  38491753.530          41.000        1122.982
 -28891378.513 8  20205398.888          49.000         -46.814
 -17117800.034 7  23939844.636          42.000       -2542.608
 -10395159.977 6  22024062.326          40.000        3719.847
 16  6  8  7 25  0.0000000  0  9G18G15G28G30G20S20G13G05G24
 -10482748.622 6  23272144.721          40.000        2860.237
 -25385360.516 8  20379092.353          48.000        1981.213
 -24214083.620 7  21777415.818          45.000        -716.093
 -22493570.019 7  24223776.920          43.000       -2127.668
  -8406431.715 7  21844350.386          45.000       -1043.708
 -29390479.807 6  38478930.849          41.000        1123.333
 -28887651.070 8  20206109.007          50.000         -77.289
 -16965087.860 7  23968906.142          45.000       -2547.569
 -10617907.917 7  21981675.782          42.000        3704.847
 16  6  8  7 25 59.9990000  0  9G18G15G28G30G20S20G13G05G24
 -10653461.942 6  23239657.354          39.000        2830.821
 -25503242.304 8  20356660.970          48.000        1948.842
 -24170248.791 7  21785758.313          46.000        -744.364
 -22365773.388 7  24248097.864          43.000       -2131.622
  -8342861.686 7  21856447.331          45.000       -1075.040
 -29457824.662 6  38466116.037          41.000        1122.809
 -28882037.831 8  20207176.646          49.000        -108.859
 -16812026.408 7  23998034.272          46.000       -2553.278
 -10839655.860 6  21939477.578          41.000        3687.582
 16  6  8  7 26 59.9990000  0  9G18G15G28G30G20S20G13G05G24
 -10822406.405 6  23207506.532          39.000        2801.228
 -25619242.253 8  20334585.799          48.000        1917.897
 -24124776.448 7  21794409.765          45.000        -771.252
 -22237808.695 7  24272446.258          42.000       -2133.081
  -8277488.463 7  21868887.207          45.000       -1103.953
 -29525198.085 6  38453295.083          41.000        1123.882
 -28874589.098 8  20208593.936          49.000        -138.902
 -16658681.532 7  24027213.828          46.000       -2557.544
 -11060453.754 6  21897458.396          38.000        3671.903
 16  6  8  7 27 59.9990000  0  9G18G15G28G30G20S20G13G05G24
 -10989543.287 6  23175699.846          38.000        2769.718
 -25733325.481 8  20312878.287          49.000        1884.399
 -24077660.020 7  21803377.990          45.000        -799.232
 -22109662.080 7  24296832.309          42.000       -2137.869
  -8210309.493 7  21881673.662          45.000       -1135.056
 -29592567.949 6  38440476.624          41.000        1121.702
 -28865283.800 8  20210365.499          49.000        -171.327
 -16505053.537 7  24056448.893          46.000       -2563.145
 -11280268.692 6  21855632.179          41.000        3654.440
 16  6  8  7 28 59.9990000  0  9G18G15G28G30G20S20G13G05G24
 -11154753.085 6  23144263.977          38.000        2737.174
 -25845376.441 8  20291556.057          49.000        1849.821
 -24028808.253 7  21812672.988          45.000        -829.415
 -21981234.477 7  24321271.566          42.000       -2143.740
  -8141238.419 7  21894817.253          45.000       -1167.325
 -29659817.890 6  38427678.547          41.000        1119.168
 -28854016.781 8  20212509.590          49.000        -205.268
 -16351057.174 7  24085752.765          47.000       -2570.262
 -11498988.043 6  21814010.390          41.000        3634.981
 16  6  8  7 29 59.9990000  0  9G18G15G28G30G20S20G13G05G24
 -11317929.030 6  23113214.612          39.000        2702.439
 -25955291.234 8  20270639.686          48.000        1814.388
 -23978143.531 7  21822313.780          45.000        -858.669
 -21852438.337 6  24345782.264          41.000       -2149.247
  -8070200.578 7  21908334.087          44.000       -1199.923
 -29726859.792 6  38414919.611          41.000        1115.105
 -28840695.872 8  20215043.868          49.000        -238.987
 -16196619.270 7  24115140.659          45.000       -2577.331
 -11716510.223 7  21772616.659          42.000        3615.799
 16  6  8  7 30 59.9990000  0  9G18G15G28G30G20S20G13G05G24
 -11479144.071 6  23082537.391          41.000        2671.202
 -26063145.290 8  20250113.902          48.000        1781.299
 -23925766.263 7  21832280.053          45.000        -886.269
 -21723365.776 6  24370345.138          41.000       -2152.232
  -7997301.039 7  21922206.714          45.000       -1229.348
 -29793788.472 6  38402183.535          41.000        1115.909
 -28825407.654 8  20217952.959          50.000        -270.012
 -16041845.517 7  24144591.200          43.000       -2580.592
 -11932915.025 7  21731434.704          42.000        3598.823
 16  6  8  7 31 59.9990000  0  9G18G15G28G30G20S20G13G05G24
 -11638634.697 7  23052190.032          43.000        2643.156
 -26169179.735 8  20229936.721          48.000        1751.235
 -23871941.400 7  21842525.721          47.000        -909.680
 -21594272.658 6  24394908.954          40.000       -2152.963
  -7922809.254 7  21936382.136          45.000       -1255.343
 -29860845.495 6  38389422.278          41.000        1118.297
 -28808403.627 8  20221188.909          49.000        -298.587
 -15887006.218 6  24174051.355          40.000       -2581.998
 -12148443.961 7  21690421.265          43.000        3584.628
 16  6  8  7 32 59.9990000  0  9G18G15G28G30G20S20G13G05G24
 -11796285.990 7  23022189.024          42.000        2611.488
 -26273282.074 8  20210126.955          48.000        1717.898
 -23816582.356 7  21853058.062          45.000        -936.277
 -21465062.960 6  24419494.165          39.000       -2156.180
  -7846642.794 7  21950876.444          45.000       -1284.407
 -29927934.124 6  38376654.704          41.000        1116.812
 -28789582.719 8  20224771.073          49.000        -329.880
 -15732018.824 6  24203542.660          39.000       -2585.489
 -12362987.601 7  21649594.945          44.000        3566.371
 16  6  8  7 33 59.9990000  0  9G18G15G28G30G20S20G13G05G24
 -11951989.929 7  22992556.722          42.000        2578.781
 -26375348.162 8  20190703.414          48.000        1683.827
 -23759608.834 7  21863901.243          46.000        -963.015
 -21335647.072 6  24444118.900          38.000       -2158.139
  -7768726.703 7  21965704.505          45.000       -1313.274
 -29994950.664 6  38363904.371          41.000        1115.950
 -28768851.986 8  20228714.141          48.000        -361.632
 -15576808.017 6  24233084.133          41.000       -2588.880
 -12576443.529 7  21608978.254          45.000        3547.828
 16  6  8  7 34 59.9990000  0  9G18G15G28G30G20S20G13G05G24
 -12105585.878 6  22963327.974          41.000        2541.749
 -26475219.926 8  20171698.679          49.000        1645.576
 -23700887.978 7  21875075.839          46.000        -993.884
 -21205882.554 6  24468817.484          40.000       -2165.980
  -7688931.953 7  21980886.805          44.000       -1346.094
 -30061736.861 6  38351195.394          41.000        1110.262
 -28746064.846 8  20233050.957          49.000        -397.482
 -15421245.640 7  24262690.609          42.000       -2596.459
 -12788656.765 7  21568594.367          46.000        3526.190
 16  6  8  7 35 59.9990000  0  9G18G15G28G30G20S20G13G05G24
 -12256930.783 7  22934528.431          42.000        2502.642
 -26572757.227 8  20153138.958          49.000        1606.016
 -23640303.904 7  21886602.651          44.000       -1025.534
 -21075643.723 6  24493605.711          40.000       -2174.440
  -7607147.173 7  21996449.381          43.000       -1379.881
 -30128167.246 6  38338552.345          40.000        1104.750
 -28721091.627 8  20237804.483          49.000        -434.633
 -15265219.661 7  24292381.561          43.000       -2604.617
 -12999487.753 7  21528474.414          46.000        3502.402
 16  6  8  7 36 59.9990000  0  9G18G15G28G30G20S20G13G05G24
 -12405973.432 6  22906166.418          41.000        2465.290
 -26667912.384 8  20135031.356          49.000        1565.973
 -23577833.125 7  21898491.990          44.000       -1056.828
 -20944897.242 6  24518484.050          38.000       -2183.214
  -7523354.906 7  22012396.471          44.000       -1412.976
 -30194210.483 6  38325984.751          41.000        1097.362
 -28693896.094 8  20242978.281          48.000        -471.759
 -15108711.230 7  24322165.924          43.000       -2611.964
 -13208891.133 7  21488624.574          46.000        3478.453
 16  6  8  7 37 59.9990000  0  9G18G15G28G30G20S20G13G05G24
 -12552692.826 6  22878244.918          41.000        2427.270
 -26760667.500 8  20117380.269          49.000        1526.722
 -23513482.391 7  21910735.970          44.000       -1086.841
 -20813639.272 6  24543462.553          39.000       -2191.793
  -7437565.276 7  22028721.831          44.000       -1445.599
 -30259849.716 6  38313494.304          40.000        1090.930
 -28664471.027 8  20248578.073          48.000        -508.400
 -14951730.434 7  24352039.301          43.000       -2618.804
 -13416849.488 7  21449050.987          45.000        3454.707
 16  6  8  7 38 59.9990000  0  9G18G15G28G30G20S20G13G05G24
 -12697186.040 6  22850748.732          41.000        2389.620
 -26851121.849 8  20100168.823          50.000        1488.527
 -23447375.180 7  21923315.204          44.000       -1116.569
 -20681983.670 6  24568513.580          39.000       -2198.108
  -7349907.905 7  22045402.459          44.000       -1475.946
 -30325198.532 6  38301058.319          40.000        1086.504
 -28632928.057 8  20254580.809          49.000        -543.289
 -14794405.515 7  24381976.005          43.000       -2624.667
 -13623464.507 7  21409735.909          46.000        3432.670
 16  6  8  7 40  0.0000000  0  9G18G15G28G30G20S20G13G05G24
 -12839439.873 6  23123470.768          41.000        2351.607
 -26939265.939 8  20383187.308          50.000        1449.409
 -23379525.222 7  22236019.895          45.000       -1145.910
 -20549933.744 6  24893433.388          40.000       -2204.576
  -7260401.236 7  22362226.675          43.000       -1507.895
 -30390246.157 6  38588472.915          40.000        1081.438
 -28599267.657 8  20560779.081          48.000        -579.041
 -14636753.631 6  24711767.355          41.000       -2630.571
 -13828726.822 7  21670468.005          46.000        3409.582
 16  6  8  7 41  0.0000000  0  9G18G15G28G30G20S20G13G05G24
 -12979452.651 7  23096828.422          42.000        2314.699
 -27025100.477 8  20366852.124          49.000        1411.646
 -23309957.947 7  22249257.211          45.000       -1173.023
 -20417503.715 6  24918631.276          39.000       -2210.287
  -7169075.126 7  22379604.475          43.000       -1536.939
 -30454991.733 6  38576152.590          40.000        1077.073
 -28563501.665 8  20567585.050          49.000        -613.117
 -14478803.189 6  24741821.708          38.000       -2635.040
 -14032638.048 7  21631663.468          46.000        3388.318
 16  6  8  7 42  0.0000000  0  9G18G15G28G30G20S20G13G05G24
 -13117249.552 6  23070607.061          41.000        2276.542
 -27108654.435 8  20350955.115          50.000        1371.870
 -23238725.445 7  22262813.116          45.000       -1202.811
 -20284735.682 6  24943895.404          39.000       -2217.744
  -7075987.472 7  22397320.005          44.000       -1567.373
 -30519477.177 6  38563880.934          40.000        1070.888
 -28525670.589 8  20574783.719          49.000        -649.647
 -14320610.60916  24771922.863          36.000       -2640.457
 -14235227.772 7  21593112.656          45.000        3363.426
 16  6  8  7 43  0.0000000  0  9G18G15G28G30G20S20G13G05G24
 -13252608.104 6  23044848.690          41.000        2236.826
 -27189706.662 8  20335530.606          50.000        1330.825
 -23165630.412 7  22276723.732          46.000       -1232.243
 -20151421.296 6  24969267.532          40.000       -2225.141
  -6980946.440 7  22415403.945          43.000       -1599.127
 -30583481.966 6  38551702.445          40.000        1064.304
 -28485563.798 8  20582415.955          49.000        -686.033
 -14161980.46315  24802108.633          34.000       -2645.883
 -14436276.113 7  21554855.252          46.000        3339.245
 16  6  8  7 44  0.0000000  0  9G18G15G28G30G20S20G13G05G24
 -13385726.756 6  23019520.048          41.000        2199.688
 -27268459.148 8  20320543.085          49.000        1293.760
 -23090898.058 7  22290944.368          46.000       -1258.761
 -20017775.127 6  24994701.155          40.000       -2229.743
  -6884182.440 7  22433820.120          45.000       -1626.306
 -30647220.360 6  38539573.078          40.000        1060.336
 -28443395.095 8  20590440.298          48.000        -719.495
 -14003143.19514  24832336.145          29.000       -2648.928
 -14635984.012 7  21516850.772          46.000        3317.292
 16  6  8  7 45  0.0000000  0  8G18G15G28G30G20S20G13G24
 -13516621.163 7  22994611.363          42.000        2163.168
 -27344930.668 8  20305990.633          49.000        1255.760
 -23014570.171 7  22305469.825          46.000       -1285.467
 -19883827.069 6  25020190.618          38.000       -2235.334
  -6785742.265 7  22452551.759          46.000       -1654.365
 -30710727.055 6  38527487.301          40.000        1056.572
 -28399193.620 8  20598852.176          48.000        -753.920
 -14834371.237 7  21479099.338          45.000        3296.106
 16  6  8  7 46  0.0000000  0  9G18G15G28G30G20G17S20G13G24
 -13645189.863 7  22970145.285          42.000        2122.674
 -27419021.809 8  20291893.719          49.000        1214.048
 -22936570.296 7  22320311.968          46.000       -1314.641
 -19749490.037 6  25045756.339          37.000       -2242.990
  -6685555.114 7  22471616.803          46.000       -1685.628
   -186281.57817  23439625.141          47.000        3084.772
 -30773900.492 6  38515466.911          40.000        1047.825
 -28352871.309 8  20607667.380          48.000        -790.760
 -15031338.075 7  21441617.090          45.000        3269.902
 16  6  8  7 47  0.0000000  0  9G18G15G28G30G20G17S20G13G24
 -13771124.518 7  22946180.762          42.000        2074.587
 -27490426.479 8  20278304.921          49.000        1165.745
 -22856615.366 7  22335528.017          47.000       -1350.550
 -19614469.760 5  25071447.701          34.000       -2258.434
  -6583344.099 7  22491066.606          45.000       -1722.342
   -370181.318 7  23404631.608          47.000        3044.923
 -30836430.978 6  38503567.101          40.000        1034.702
 -28304132.400 8  20616940.513          48.000        -833.950
 -15226578.170 7  21404466.170          46.000        3238.150
 16  6  8  7 48  0.0000000  0 11G18G15G28G30G20G17S20G13G19G05G24
 -13894097.869 6  22922780.508          41.000        2024.679
 -27558820.957 8  20265290.339          49.000        1114.851
 -22774403.910 7  22351171.107          46.000       -1388.891
 -19478453.334 5  25097331.888          33.000       -2273.949
  -6478813.050 7  22510958.249          45.000       -1761.275
   -551554.921 7  23370115.112          47.000        3001.917
 -30898006.333 6  38491851.775          40.000        1017.987
 -28252663.910 8  20626735.320          48.000        -880.040
   -265239.79617  24141002.789          43.000        4415.152
 -13366743.58713  24953889.441          18.000       -2688.551
 -15419766.941 7  21367702.243          45.000        3202.786
 16  6  8  7 49  0.0000000  0 11G18G15G28G30G20G17S20G13G19G05G24
 -14014144.581 6  22899936.027          41.000        1976.830
 -27624242.173 8  20252841.388          49.000        1065.671
 -22689994.928 7  22367232.200          45.000       -1424.760
 -19341488.455 5  25123393.195          32.000       -2289.844
  -6372026.951 7  22531279.254          45.000       -1798.159
   -730424.633 8  23336078.742          48.000        2959.979
 -30958662.604 6  38480309.049          40.000        1004.446
 -28198514.710 8  20637039.569          48.000        -924.743
   -529378.047 7  24090738.484          43.000        4389.395
 -13205410.87113  24984555.703          23.000       -2694.110
 -15610940.831 7  21331324.140          45.000        3169.762
 16  6  8  7 49 59.9990000  0 11G18G15G28G30G20G17S20G13G19G05G24
 -14131313.474 6  22877637.371          40.000        1930.130
 -27686742.334 8  20240946.744          49.000        1018.399
 -22603466.031 7  22383701.262          46.000       -1458.795
 -19203640.83614  25149621.361          28.000       -2301.982
  -6263069.033 7  22552013.917          46.000       -1832.899
   -906826.234 8  23302511.590          49.000        2920.129
 -31018462.890 6  38468929.954          40.000         989.664
 -28141748.809 8  20647840.835          48.000        -966.833
   -792012.623 6  24040759.525          41.000        4366.279
 -13043415.77815  25015380.466          31.000       -2707.107
 -15800148.286 7  21295317.082          44.000        3138.077
 16  6  8  7 50 59.9990000  0 11G18G15G28G30G20G17S20G13G19G05G24
 -14245753.982 6  22855862.448          41.000        1884.577
 -27746470.438 8  20229582.866          50.000         972.520
 -22514982.876 7  22400536.656          45.000       -1490.545
 -19065064.59314  25175995.550          28.000       -2313.161
  -6152110.721 7  22573127.860          45.000       -1865.751
  -1080897.722 8  23269385.301          48.000        2881.939
 -31077554.799 6  38457684.929          40.000         980.505
 -28082522.583 8  20659112.140          49.000       -1006.872
  -1053276.415 6  23991038.358          38.000        4343.386
 -12880914.023 5  25046304.677          34.000       -2711.926
 -15987542.138 7  21259657.771          43.000        3108.539
 16  6  8  7 51 59.9990000  0 11G18G15G28G30G20G17S20G13G19G05G24
 -14357581.124 6  22834580.616          40.000        1842.567
 -27803545.924 8  20218721.553          49.000         929.380
 -22424688.740 7  22417721.631          47.000       -1519.762
 -18925889.72114  25202477.739          24.000       -2324.458
  -6039301.533 7  22594595.537          46.000       -1894.871
  -1252741.425 8  23236684.692          49.000        2845.861
 -31136067.929 6  38446550.992          40.000         970.468
 -28020967.540 8  20670826.297          48.000       -1044.460
  -1313261.876 6  23941568.247          38.000        4322.667
 -12718051.748 6  25077296.630          36.000       -2717.233
 -16173237.259 7  21224320.644          43.000        3081.145
 16  6  8  7 52 59.9990000  0 11G18G15G28G30G20G17S20G13G19G05G24
 -14466903.910 6  22813777.043          40.000        1802.968
 -27858080.013 8  20208342.879          49.000         888.719
 -22332716.224 7  22435221.460          46.000       -1545.811
 -18786238.64814  25229056.166          25.000       -2329.521
  -5924780.406 7  22616389.533          46.000       -1922.019
  -1422453.276 8  23204388.946          48.000        2811.532
 -31194127.453 6  38435502.666          40.000         964.051
 -27957205.305 8  20682959.782          48.000       -1080.117
  -1572056.412 6  23892328.688          39.000        4303.192
 -12554964.948 6  25108329.487          36.000       -2718.724
 -16357343.406 7  21189288.495          45.000        3056.055
 16  6  8  7 53 59.9990000  0 11G18G15G28G30G20G17S20G13G19G05G24
 -14573744.769 6  22793444.747          40.000        1760.263
 -27910097.126 8  20198444.400          49.000         846.274
 -22239111.768 7  22453033.368          46.000       -1573.508
 -18646157.34313  25255722.821          22.000       -2335.872
  -5808598.891 7  22638497.336          45.000       -1949.712
  -1590043.481 8  23172499.371          48.000        2775.559
 -31251754.525 6  38424535.606          40.000         957.241
 -27891272.195 8  20695507.134          48.000       -1116.553
  -1829661.088 6  23843306.839          40.000        4284.131
 -12391700.726 6  25139399.512          37.000       -2722.648
 -16539883.375 7  21154548.025          42.000        3029.362
 16  6  8  7 54 59.9990000  0 11G18G15G28G30G20G17S20G13G19G05G24
 -14678158.593 6  22773573.451          40.000        1718.605
 -27959654.283 8  20189014.931          49.000         804.545
 -22143952.694 7  22471143.326          46.000       -1599.885
 -18505704.46013  25282441.076          18.000       -2343.094
  -5690841.354 7  22660905.527          45.000       -1976.488
  -1755553.437 7  23141001.868          47.000        2739.761
 -31308999.424 6  38413642.203          41.000         950.307
 -27823234.774 8  20708452.823          48.000       -1152.727
  -2086108.983 6  23794501.721          39.000        4263.270
 -12228339.224 6  25170487.581          36.000       -2724.287
 -16720911.879 7  21120102.814          44.000        3003.465
 16  6  8  7 55 59.9990000  0 10G18G15G28G20G17S20G13G19G05G24
 -14779908.543 6  22754211.004          40.000        1672.661
 -28006517.259 8  20180096.770          49.000         757.705
 -22047025.985 7  22489586.618          47.000       -1630.945
  -5571300.967 7  22683653.125          45.000       -2007.881
  -1918734.453 7  23109949.136          47.000        2698.651
 -31365639.576 6  38402865.646          41.000         937.587
 -27752869.499 8  20721842.235          48.000       -1193.392
  -2341141.165 6  23745967.482          38.000        4238.593
 -12064669.116 5  25201631.735          34.000       -2730.715
 -16900192.461 7  21085986.975          44.000        2972.366
 16  6  8  7 56 59.9990000  0 10G18G15G28G20G17S20G13G19G05G24
 -14878900.483 6  22735374.732          41.000        1628.239
 -28050593.284 8  20171708.538          49.000         712.763
 -21948258.897 7  22508381.550          47.000       -1659.738
  -5449911.052 7  22706752.798          45.000       -2036.682
  -2079478.470 8  23079361.679          48.000        2660.012
 -31421577.882 6  38392221.362          41.000         927.721
 -27680093.625 8  20735691.792          48.000       -1231.381
  -2594640.302 6  23697728.275          41.000        4213.237
 -11900619.305 5  25232851.536          34.000       -2736.810
 -17077629.447 7  21052223.212          45.000        2943.766
 16  6  8  7 57 59.9990000  0 10G18G15G28G20G17S20G13G19G05G24
 -14975448.574 6  22717001.782          40.000        1589.802
 -28092198.614 8  20163793.381          50.000         674.441
 -21847988.332 7  22527463.642          47.000       -1682.336
  -5327014.453 7  22730141.011          45.000       -2059.048
  -2238086.706 8  23049178.752          48.000        2626.937
 -31477140.826 6  38381645.466          40.000         924.773
 -27605234.205 8  20749937.976          48.000       -1263.597
  -2846897.792 6  23649725.431          41.000        4195.477
 -11736528.40615  25264076.275          32.000       -2734.016
 -17253535.875 7  21018749.436          45.000        2920.556
 16  6  8  7 58 59.9990000  0 10G18G15G28G20G17S20G13G19G05G24
 -15069682.065 6  22699069.554          41.000        1550.240
 -28131465.246 8  20156320.046          49.000         635.014
 -21746366.150 7  22546800.403          47.000       -1704.842
  -5202769.790 7  22753785.148          46.000       -2082.070
  -2394676.070 8  23019381.842          48.000        2592.880
 -31532471.122 6  38371117.244          40.000         920.614
 -27528433.272 8  20764553.126          48.000       -1296.015
  -3098020.576 7  23601940.470          42.000        4175.684
 -11572549.16015  25295283.424          32.000       -2733.091
 -17428041.504 7  20985538.897          43.000        2896.558
 16  6  8  8  0 59.9990000  0 10G18G15G28G20G17S20G13G19G05G24
 -15251395.667 7  22664494.845          43.000        1473.756
 -28203179.994 8  20142672.702          49.000         556.778
 -21539342.087 7  22586196.416          46.000       -1749.024
  -4950538.648 7  22801782.478          44.000       -2125.584
  -2701934.572 7  22960910.281          46.000        2524.333
 -31642612.463 6  38350159.078          40.000         911.639
 -27369245.361 8  20794845.012          48.000       -1360.478
  -3596957.487 6  23506997.761          40.000        4136.813
 -11245208.45514  25357573.512          28.000       -2727.289
 -17773032.982 7  20919890.934          44.000        2848.951
 16  6  8  8  1 59.9990000  0  8G18G15G28G20S20G13G19G24
 -15338417.578 7  22647935.705          43.000        1426.562
 -28235173.074 8  20136584.565          49.000         509.522
 -21433524.002 7  22606333.321          47.000       -1778.648
  -4822148.710 7  22826215.575          46.000       -2154.655
 -31696967.607 6  38339815.758          41.000         899.078
 -27286423.073 8  20810605.944          48.000       -1400.646
  -3844264.644 5  23459929.411          35.000        4107.265
 -17943056.069 7  20887537.340          44.000        2817.719
 16  6  8  8  2 59.9990000  0 10G18G15G28G20G17S20G13G19G05G24
 -15422666.134 7  22631902.689          42.000        1381.650
 -28264375.728 8  20131028.206          49.000         464.020
 -21325979.986 7  22626797.244          46.000       -1805.672
  -4692062.493 7  22850970.227          46.000       -2181.305
   -147991.75517  22904236.354          45.000        2440.599
 -31750631.367 6  38329603.176          40.000         889.489
 -27201247.630 8  20826813.619          48.000       -1438.595
  -4089882.005 6  23413191.115          36.000        4080.169
 -10918423.41213  25419982.314          18.000       -2738.906
 -18111211.941 7  20855538.841          44.000        2787.371
 16  6  8  8  3 59.9990000  0  9G18G15G28G20G17S20G13G19G24
 -15504196.976 6  22616386.130          40.000        1335.088
 -28290845.594 8  20125990.241          48.000         417.550
 -21216785.115 7  22647577.452          47.000       -1834.968
  -4560362.698 7  22876030.293          43.000       -2209.292
   -293155.497 7  22876610.932          43.000        2397.189
 -31803668.579 6  38319513.320          41.000         877.902
 -27113787.242 8  20843456.415          49.000       -1477.510
  -4333840.310 6  23366766.660          40.000        4050.900
 -18277552.471 7  20823883.483          44.000        2755.916
