     2.10           OBSERVATION DATA    G (GPS)             RINEX VERSION / TYPE
teqc  2006Dec12     IGN-RGP             20160625 11:10:01UTCPGM / RUN BY / DATE
Linux 2.4.20-8|Pentium IV|gcc|Linux|486/DX+                 COMMENT
     2.11           OBSERVATION DATA    G (GPS)             COMMENT
teqc  2013Mar15     Observatoire de Pari20160625 00:52:18UTCCOMMENT
Linux 2.4.21-27.ELsmp|Opteron|gcc|Linux x86_64|=+           COMMENT
BIT 2 OF LLI FLAGS DATA COLLECTED UNDER A/S CONDITION       COMMENT
OPMT                                                        MARKER NAME
10001S006                                                   MARKER NUMBER
Automatic           BNM-SYRTE                               OBSERVER / AGENCY
02942               ASHTECH Z-XII3T     1L01-1D04           REC # / TYPE / VERS
00019               3S-02-TSADM     NONE                    ANT # / TYPE
  4202777.6220   171367.7610  4778659.9840                  APPROX POSITION XYZ
        0.0000        0.0000        0.0000                  ANTENNA: DELTA H/E/N
     1     1                                                WAVELENGTH FACT L1/2
     7    L1    L2    C1    P1    P2    S1    S2            # / TYPES OF OBSERV
 SNR is mapped to RINEX snr flag value [0-9]                COMMENT
  L1 & L2: min(max(int(snr_dBHz/6), 0), 9)                  COMMENT
pseudorange smoothing corrections not applied               COMMENT
  2016     6    24     0     0    0.0000000     GPS         TIME OF FIRST OBS
                                                            END OF HEADER
 16  6 24  0  0  0.0000000  0  9G31G22G19G17G 6G23G 9G 3G 1
   5210619.81643   4072557.21745  25056157.227    25056156.4834   25056158.7754
        37.8004         35.7004
  -2216819.59543  -1455106.14746  23784908.621    23784907.1624   23784907.1674
        39.6004         37.1004
  -9740976.53844  -7569449.35546  23147011.717    23147010.4544   23147012.8424
        42.9004         40.0004
   -872010.56543   -667618.48046  23840923.878    23840923.3414   23840926.0414
        40.3004         37.9004
 -11152832.59646  -8667552.97047  20896932.991    20896933.5004   20896938.9364
        49.3004         46.5004
 -21449767.87846 -16687524.21647  20647701.840    20647701.4844   20647701.8314
        49.5004         46.6004
 -20540437.77147 -15992762.89347  20425629.738    20425629.6054   20425634.4464
        50.3004         47.5004
 -13091609.95845 -10176179.18347  21925555.611    21925556.2814   21925560.5444
        46.2004         43.3004
   7082329.01342   5539935.62045  25312243.492    25312245.0634   25312250.9204
        35.7004         34.1004
 16  6 24  0  0 30.0000000  0  9G31G22G19G17G 6G23G 9G 3G 1
   5299013.17342   4141435.09745  25072978.115    25072977.0724   25072978.8514
        37.3004         35.2004
  -2128396.96043  -1386205.40246  23801732.994    23801732.2084   23801732.8274
        39.2004         36.6004
  -9665799.93844  -7510870.18046  23161316.149    23161315.9764   23161317.5844
        42.7004         39.9004
   -779280.56044   -595361.41646  23858569.129    23858568.0054   23858571.8744
        40.6004         38.1004
 -11191504.23646  -8697686.71347  20889573.764    20889574.4164   20889579.4904
        49.3004         46.3004
 -21433030.53746 -16674482.12847  20650887.245    20650886.8004   20650886.4794
        49.5004         46.6004
 -20577879.03347 -16021937.89647  20418504.846    20418504.8384   20418509.4084
        50.3004         47.5004
 -13019839.56545 -10120254.21647  21939212.574    21939213.4384   21939217.8734
        46.0004         43.2004
   7196335.35042   5628771.74045  25333940.323    25333939.8834   25333944.1084
        35.9004         34.1004
 16  6 24  0  1  0.0000000  0  9G31G22G19G17G 6G23G 9G 3G 1
   5387732.68342   4210567.13945  25089860.340    25089859.8504   25089860.9334
        37.3004         35.3004
  -2039852.57443  -1317209.81146  23818583.169    23818581.5674   23818582.6544
        38.9004         36.6004
  -9590225.25344  -7451980.83746  23175698.839    23175697.6924   23175698.8104
        42.5004         39.9004
   -686359.00943   -522955.12246  23876248.796    23876249.1204   23876253.2104
        40.1004         37.6004
 -11229652.59146  -8727412.70047  20882314.844    20882315.1144   20882320.5194
        49.1004         46.5004
 -21415856.82046 -16661100.01447  20654155.340    20654154.8364   20654154.5564
        49.5004         46.6004
 -20614843.82947 -16050741.62447  20411470.522    20411470.5284   20411475.3364
        50.3004         47.5004
 -12947833.04645 -10064145.25747  21952916.213    21952915.9924   21952921.0214
        46.0004         43.2004
   7310367.71642   5717628.14445  25355642.875    25355640.7014   25355646.1844
        35.7004         34.0004
 16  6 24  0  1 30.0000000  0  9G31G22G19G17G 6G23G 9G 3G 1
   5476775.92742   4279951.46145  25106804.914    25106806.3874   25106804.7234
        37.0004         34.8004
  -1951187.10243  -1248119.85346  23835456.632    23835453.5164   23835455.7054
        38.7004         36.2004
  -9514255.37344  -7392783.56246  23190154.482    23190153.7644   23190154.7684
        42.2004         39.2004
   -593249.57043   -450402.38046  23893967.614    23893967.5854   23893971.9094
        40.1004         37.6004
 -11267275.96446  -8756729.61347  20875155.431    20875156.0124   20875160.8464
        49.1004         46.3004
 -21398247.69446 -16647378.62247  20657505.917    20657505.6404   20657506.0354
        49.5004         46.6004
 -20651331.88147 -16079173.85747  20404527.161    20404526.9494   20404531.8964
        50.3004         47.3004
 -12875591.14945 -10007852.88847  21966662.094    21966662.8184   21966667.8064
        46.0004         43.2004
   7424424.23942   5806503.38245  25377347.418    25377342.9104   25377349.5234
        35.4004         33.8004
 16  6 24  0  2  0.0000000  0  8G31G22G19G17G 6G23G 9G 3
   5566140.30042   4349585.95545  25123809.888    25123810.6554   25123811.1854
        37.0004         35.0004
  -1862401.21943  -1178936.07246  23852351.723    23852350.3734   23852351.1044
        38.5004         36.4004
  -9437893.39544  -7333280.72646  23204684.263    23204683.5664   23204687.1074
        41.6004         39.0004
   -499955.13143   -377705.52746  23911720.998    23911721.8504   23911726.5674
        40.3004         37.8004
 -11304372.68946  -8785636.15247  20868096.077    20868096.7554   20868101.6804
        49.1004         46.5004
 -21380204.54146 -16633319.01647  20660939.450    20660939.2334   20660939.6444
        49.5004         46.8004
 -20687342.81747 -16107234.31847  20397674.258    20397674.2244   20397679.1904
        50.3004         47.5004
 -12803114.52145  -9951377.61147  21980454.692    21980454.6344   21980459.6854
        46.0004         43.2004
 16  6 24  0  2 30.0000000  0  8G31G22G19G17G 6G23G 9G 3
   5655822.99542   4419468.53645  25140876.586    25140875.8584   25140878.3904
        36.6004         34.8004
  -1773495.57343  -1109658.97446  23869269.839    23869269.0934   23869269.4164
        38.7004         36.4004
  -9361142.08444  -7273474.54546  23219292.006    23219290.8134   23219292.1494
        42.0004         39.3004
   -406478.76443   -304866.85946  23929508.909    23929508.1644   23929513.8654
        39.9004         37.3004
 -11340941.10546  -8814131.01347  20861137.167    20861137.7034   20861142.5724
        49.1004         46.5004
 -21361728.20046 -16618921.85547  20664455.369    20664455.1434   20664455.3554
        49.5004         46.8004
 -20722876.36347 -16134922.77147  20390912.738    20390912.6644   20390917.4884
        50.3004         47.5004
 -12730403.94345  -9894720.02447  21994291.269    21994291.5024   21994296.0884
        46.0004         43.3004
 16  6 24  0  3  0.0000000  0  8G31G22G19G17G 6G23G 9G 3
   5745821.31842   4489597.01645  25158001.472    25158001.7714   25158005.6944
        36.8004         35.0004
  -1684470.71743  -1040288.97946  23886210.211    23886210.6674   23886209.7984
        38.7004         36.7004
  -9284004.66344  -7213367.49646  23233969.923    23233969.2414   23233971.1174
        41.8004         38.8004
   -312823.70943   -231888.97246  23947330.730    23947331.8164   23947336.7584
        39.7004         37.4004
 -11376979.58946  -8842212.93147  20854279.282    20854279.6854   20854284.9284
        49.1004         46.5004
 -21342819.47446 -16604187.77547  20668053.824    20668053.3074   20668053.6104
        49.5004         46.6004
 -20757932.29147 -16162239.06247  20384241.854    20384241.8524   20384246.4694
        50.3004         47.5004
 -12657460.09345  -9837880.67547  22008171.858    22008172.2854   22008177.4064
        46.0004         43.3004
 16  6 24  0  3 30.0000000  0  8G31G22G19G17G 6G23G 9G 3
   5836132.68442   4559969.40545  25175187.624    25175187.9594   25175191.2044
        36.3004         34.0004
  -1595327.30543   -970826.62246  23903174.244    23903172.9824   23903174.2764
        39.0004         36.7004
  -9206483.97944  -7152961.76446  23248719.930    23248719.2194   23248721.8474
        41.1004         38.5004
   -218992.89543   -158774.15346  23965188.220    23965187.1324   23965191.5364
        39.9004         37.4004
 -11412486.50046  -8869880.63747  20847522.548    20847523.1744   20847528.1574
        49.3004         46.6004
 -21323479.80246 -16589117.90047  20671734.106    20671733.7154   20671733.7804
        49.5004         46.6004
 -20792510.28847 -16189182.94147  20377661.678    20377661.8384   20377666.5064
        50.3004         47.5004
 -12584283.73145  -9780860.15147  22022096.449    22022097.5824   22022102.0414
        46.0004         43.3004
 16  6 24  0  4  0.0000000  0  8G31G22G19G17G 6G23G 9G 3
   5926754.48542   4630583.74545  25192432.041    25192433.1364   25192432.8594
        35.6004         33.6004
  -1506066.32443   -901272.62646  23920157.501    23920159.5184   23920160.7854
        39.0004         36.9004
  -9128582.99144  -7092259.73246  23263546.351    23263545.6484   23263546.7184
        41.6004         39.5004
   -124989.54843    -85524.87846  23983076.090    23983076.0894   23983078.5774
        39.6004         36.9004
 -11447460.22646  -8897132.87847  20840867.313    20840867.8494   20840872.8784
        49.5004         46.6004
 -21303710.03846 -16573712.88147  20675495.766    20675495.7464   20675495.7014
        49.5004         46.6004
 -20826610.12747 -16215754.23647  20371172.881    20371173.1104   20371177.3054
        50.3004         47.5004
 -12510875.51445  -9723658.95947  22036066.223    22036066.9364   22036071.2314
        46.0004         43.2004
 16  6 24  0  4 30.0000000  0  8G31G22G19G17G 6G23G 9G 3
   6017683.71642   4701437.60545  25209735.557    25209737.2734   25209735.9354
        35.2004         33.8004
  -1416688.13543   -831627.33646  23937169.782    23937167.5574   23937169.3304
        39.4004         37.1004
  -9050304.83644  -7031263.78946  23278442.812    23278441.6234   23278442.8234
        42.0004         39.5004
    -30816.69643    -12143.50346  24000996.417    24000996.7434   24001001.2664
        39.7004         37.4004
 -11481899.17546  -8923968.41947  20834313.679    20834314.0474   20834319.1644
        49.5004         46.5004
 -21283511.06146 -16557973.40447  20679339.373    20679338.8084   20679339.4364
        49.5004         46.6004
 -20860231.52947 -16241952.71947  20364775.253    20364775.1844   20364779.1984
        50.3004         47.5004
 -12437236.23945  -9666277.72647  22050079.294    22050079.6634   22050084.5854
        46.0004         43.2004
 16  6 24  0  5  0.0000000  0  8G31G22G19G17G 6G23G 9G 3
   6108918.07742   4772529.26245  25227096.948    25227096.0364   25227098.3134
        35.2004         33.8004
  -1327193.57743   -761891.34646  23954200.593    23954198.5534   23954198.8524
        39.4004         36.9004
  -8971652.33044  -6969976.13346  23293408.829    23293407.6714   23293409.0774
        41.6004         39.0004
     63522.65043     61367.57146  24018949.502    24018948.8924   24018951.6534
        39.6004         37.1004
 -11515801.76746  -8950386.01347  20827862.075    20827862.5114   20827867.6214
        49.3004         46.5004
 -21262883.97446 -16541900.34447  20683264.663    20683264.5184   20683264.8644
        49.5004         46.6004
 -20893374.33047 -16267778.26747  20358467.926    20358468.1804   20358472.1184
        50.3004         47.5004
 -12363366.53545  -9608716.94447  22064135.412    22064135.7274   22064141.0374
        46.0004         43.0004
 16  6 24  0  5 30.0000000  0  8G31G22G19G17G 6G23G 9G 3
   6200454.63442   4843856.32745  25244515.218    25244513.2864   25244518.9494
        34.7004         33.1004
  -1237583.10543   -692065.01946  23971251.328    23971250.5364   23971249.8214
        39.0004         36.4004
  -8892628.43344  -6908399.09346  23308447.060    23308446.0884   23308447.7564
        41.8004         39.3004
    158025.39943    135005.99146  24036932.135    24036932.6634   24036934.9184
        39.2004         36.7004
 -11549166.41246  -8976384.42947  20821512.891    20821513.6804   20821518.5594
        49.3004         46.5004
 -21241829.93846 -16525494.59847  20687271.592    20687271.1554   20687271.4154
        49.5004         46.8004
 -20926038.32247 -16293230.71947  20352252.369    20352252.5364   20352256.8234
        50.3004         47.7004
 -12289267.13545  -9550977.18047  22078235.669    22078236.4114   22078241.4444
        45.8004         42.8004
 16  6 24  0  6  0.0000000  0  8G31G22G19G17G 6G23G 9G 3
   6292291.03142   4915417.08445  25261991.181    25261990.4664   25261997.1114
        34.5004         33.1004
  -1147857.56343   -622149.02046  23988325.675    23988324.1434   23988325.8874
        38.7004         36.2004
  -8813236.06644  -6846534.91246  23323554.988    23323554.2184   23323555.6424
        42.0004         39.3004
    252688.40743    208769.32546  24054944.639    24054944.8004   24054951.3404
        39.2004         36.9004
 -11581991.57546  -9001962.46747  20815266.657    20815267.2704   20815272.0024
        49.3004         46.6004
 -21220350.05246 -16508757.01747  20691358.564    20691358.3724   20691358.7974
        49.5004         46.8004
 -20958223.26847 -16318309.88547  20346127.811    20346127.7014   20346132.2414
        50.5004         47.7004
 -12214938.77045  -9493058.97747  22092380.516    22092380.6734   22092386.1344
        45.6004         42.8004
 16  6 24  0  6 30.0000000  0  8G31G22G19G17G 6G23G 9G 3
   6384424.34341   4987209.23345  25279523.994    25279526.0074   25279527.8254
        34.2004         32.7004
  -1058017.41643   -552143.74146  24005421.124    24005420.0554   24005421.6084
        38.5004         36.0004
  -8733478.85944  -6784386.43446  23338731.174    23338730.2664   23338733.8804
        42.0004         39.2004
    347508.60343    282655.10346  24072990.914    24072990.7754   24072993.3304
        39.7004         37.3004
 -11614275.72546  -9027118.93047  20809122.999    20809123.5514   20809129.0724
        49.5004         46.6004
 -21198445.21146 -16491688.30047  20695527.262    20695526.8114   20695527.1254
        49.5004         46.8004
 -20989929.03347 -16343015.67247  20340094.251    20340094.2954   20340098.9414
        50.5004         47.7004
 -12140382.15145  -9434962.93947  22106568.414    22106569.5224   22106574.0774
        45.6004         42.8004
 16  6 24  0  7  0.0000000  0  8G22G19G17G 6G23G 2G 9G 3
   -968063.63743   -482049.91445  24022534.834    24022535.8584   24022538.5904
        37.8004         35.2004
  -8653359.28944  -6721955.64346  23353977.786    23353977.1704   23353979.1574
        41.8004         39.0004
    442482.99943    356661.04546  24091062.818    24091062.4014   24091067.3894
        39.6004         37.1004
 -11646017.35846  -9051852.64847  20803082.633    20803083.2974   20803088.5774
        49.5004         46.6004
 -21176116.57746 -16474289.35947  20699776.377    20699775.8384   20699776.0204
        49.5004         46.8004
   -302909.00153   -213321.47356  23977352.016    23977350.3354   23977351.8544
        39.0004         37.3004
 -21021155.41447 -16367347.90847  20334152.045    20334151.9934   20334156.5994
        50.3004         47.7004
 -12065598.00045  -9376689.59147  22120799.090    22120800.0204   22120805.2334
        45.5004         42.8004
 16  6 24  0  7 30.0000000  0  8G22G19G17G 6G23G 2G 9G 3
   -877996.60043   -411867.83845  24039676.139    24039675.1024   24039678.3064
        37.6004         35.5004
  -8572880.64844  -6659245.04746  23369291.528    23369290.7594   23369293.3954
        41.6004         39.0004
    537608.43943    430784.66646  24109163.693    24109163.7804   24109168.4264
        39.6004         37.3004
 -11677214.95346  -9076162.45847  20797146.399    20797146.9114   20797151.5504
        49.5004         46.5004
 -21153365.23046 -16456561.03247  20704105.451    20704105.2974   20704105.5444
        49.5004         46.6004
   -397777.57443   -287244.98546  23959298.345    23959297.1824   23959299.0624
        39.6004         37.4004
 -21051902.27247 -16391306.48747  20328300.852    20328300.9894   20328305.6674
        50.3004         47.7004
 -11990587.02245  -9318239.48847  22135074.219    22135074.2734   22135078.8884
        45.5004         42.6004
 16  6 24  0  8  0.0000000  0  8G22G19G17G 6G23G 2G 9G 3
   -787817.32742   -341598.30345  24056836.103    24056835.0134   24056839.6954
        37.5004         35.5004
  -8492045.89244  -6596256.94446  23384674.643    23384674.0044   23384676.1594
        41.8004         39.2004
    632881.52843    505023.36846  24127294.584    24127294.9994   24127299.3834
        39.6004         37.1004
 -11707867.12646  -9100047.26047  20791313.419    20791313.8064   20791318.7634
        49.3004         46.5004
 -21130192.31446 -16438504.21047  20708514.965    20708514.7094   20708515.4064
        49.5004         46.6004
   -492460.61653   -361023.94956  23941279.750    23941279.6914   23941281.2574
        39.9004         37.4004
 -21082169.46047 -16414891.29747  20322541.602    20322541.3874   20322545.8954
        50.5004         47.7004
 -11915349.93245  -9259613.18947  22149390.271    22149390.8354   22149396.1754
        45.5004         42.6004
 16  6 24  0  8 30.0000000  0  8G22G19G17G 6G23G 2G 9G 3
   -697526.22242   -271241.64945  24074018.425    24074017.5464   24074019.3914
        37.3004         35.3004
  -8410858.33644  -6532993.93746  23400123.559    23400123.0824   23400125.6054
        41.8004         39.0004
    728299.37843    579374.85546  24145452.244    24145451.9484   24145456.7844
        39.4004         37.1004
 -11737972.22946  -9123505.77147  20785584.431    20785585.0284   20785590.0874
        49.5004         46.8004
 -21106598.86146 -16420119.69947  20713004.484    20713004.0094   20713005.1604
        49.3004         46.5004
   -586955.89443   -434656.58446  23923298.105    23923297.6834   23923299.7934
        39.9004         37.4004
 -21111956.85547 -16438102.23947  20316872.842    20316872.9194   20316877.4854
        50.5004         47.7004
 -11839887.48445  -9200811.29547  22163750.645    22163750.8434   22163755.9184
        45.3004         42.6004
 16  6 24  0  9  0.0000000  0  8G22G19G17G 6G23G 2G 9G 3
   -607124.13042   -200798.46145  24091219.719    24091220.6584   24091224.3254
        37.5004         35.3004
  -8329320.23144  -6469457.78046  23415639.509    23415638.4064   23415641.9264
        41.5004         38.8004
    823859.45943    653837.16846  24163636.166    24163635.6434   24163639.8634
        39.2004         36.7004
 -11767528.87947  -9146536.91747  20779959.745    20779960.3784   20779965.9714
        49.6004         46.8004
 -21082585.99646 -16401408.37247  20717573.809    20717573.8304   20717574.6374
        49.3004         46.5004
   -681261.22643   -508141.21346  23905352.472    23905352.3024   23905353.8134
        40.1004         37.8004
 -21141264.36647 -16460939.24347  20311295.485    20311295.6744   20311300.4234
        50.5004         47.7004
 -11764200.38545  -9141834.36647  22178154.155    22178154.0354   22178159.2444
        45.3004         42.5004
 16  6 24  0  9 30.0000000  0  8G22G19G17G 6G23G 2G 9G 3
   -516611.58642   -130269.24045  24108446.421    24108442.8284   24108448.1254
        37.3004         35.0004
  -8247435.47744  -6405651.53346  23431223.426    23431221.6544   23431223.9924
        41.6004         39.2004
    919557.90443    728407.30546  24181846.374    24181846.8224   24181850.1344
        38.5004         36.0004
 -11796535.64447  -9169139.58647  20774440.141    20774440.7374   20774445.7794
        49.6004         46.8004
 -21058154.78746 -16382371.06147  20722223.415    20722223.1904   20722223.5644
        49.1004         46.5004
   -775374.23343   -581475.96746  23887443.033    23887442.6624   23887444.1934
        40.1004         37.6004
 -21170091.87147 -16483402.22147  20305810.597    20305810.3564   20305814.6854
        50.5004         47.7004
 -11688289.36645  -9082682.92847  22192598.284    22192598.2874   22192604.2784
        45.3004         42.5004
 16  6 24  0 10  0.0000000  0  8G22G19G17G 6G23G 2G 9G 3
   -425989.22442    -59654.45945  24125691.490    24125688.5044   24125693.0624
        37.1004         34.8004
  -8165206.81344  -6341577.29146  23446870.449    23446869.6084   23446871.3244
        41.6004         39.0004
   1015391.93543    803083.11446  24200084.390    24200084.0654   24200087.6404
        38.3004         36.2004
 -11824991.13547  -9191312.69147  20769024.991    20769026.0614   20769031.1464
        49.6004         46.8004
 -21033306.40246 -16363008.68847  20726952.024    20726951.7494   20726951.7714
        49.1004         46.3004
   -869292.70243   -654659.15946  23869571.033    23869570.6874   23869572.8914
        39.9004         37.6004
 -21198439.32147 -16505491.13347  20300416.246    20300415.9234   20300420.6284
        50.5004         47.7004
 -11612155.10245  -9023357.54347  22207087.612    22207087.8684   22207091.1084
        45.3004         42.6004
 16  6 24  0 10 30.0000000  0  8G22G19G17G 6G23G 2G 9G 3
   -335257.93842     11045.19245  24142957.400    24142956.2764   24142959.0024
        37.1004         35.3004
  -8082637.44244  -6277237.52146  23462582.672    23462581.8144   23462584.5274
        41.5004         39.0004
   1111358.49743    877862.17846  24218345.920    24218346.7044   24218350.3264
        38.7004         36.4004
 -11852893.92047  -9213055.11847  20763715.879    20763716.2484   20763721.1554
        49.6004         46.6004
 -21008041.98246 -16343322.12047  20731759.430    20731759.0824   20731759.5204
        49.1004         46.3004
   -963014.32943   -727688.98646  23851736.457    23851735.5414   23851737.9534
        39.9004         37.6004
 -21226306.64647 -16527205.92647  20295112.774    20295113.1244   20295117.5354
        50.5004         47.7004
 -11535798.38345  -8963858.82447  22221617.162    22221617.3484   22221622.7324
        45.3004         42.3004
 16  6 24  0 11  0.0000000  0  9G22G19G17G 6G23G 2G 9G 3G 7
   -244418.13842     81829.42245  24160242.602    24160242.2334   24160243.1144
        36.8004         34.8004
  -7999730.35244  -6212634.62846  23478359.998    23478358.7464   23478360.0484
        41.3004         38.6004
   1207454.34343    952741.98846  24236631.967    24236633.0784   24236636.1014
        38.5004         36.2004
 -11880242.63746  -9234365.79547  20758511.156    20758511.9264   20758516.7834
        49.5004         46.6004
 -20982362.57546 -16323312.19547  20736645.879    20736645.3154   20736645.9244
        48.9004         46.1004
  -1056536.75943   -800563.56746  23833938.936    23833938.5074   23833941.0734
        39.9004         37.6004
 -21253693.77047 -16548546.53447  20289900.956    20289900.9464   20289906.4364
        50.5004         47.7004
 -11459219.91745  -8904187.30147  22236188.756    22236189.5094   22236195.0774
        45.1004         42.3004
                   -173488.96955  24285061.794                    24285065.6124
                        35.7004
 16  6 24  0 11 30.0000000  0  9G22G19G17G 6G23G 2G 9G 3G 7
   -153470.75642    152697.49445  24177549.641    24177548.3484   24177551.0184
        37.0004         35.2004
  -7916488.54344  -6147770.91546  23494198.503    23494197.7954   23494200.7674
        40.8004         37.9004
   1303676.57343   1027720.27346  24254942.932    24254944.2054   24254946.7974
        38.7004         36.4004
 -11907035.91347  -9255243.65847  20753412.308    20753413.1584   20753418.5384
        49.6004         46.8004
 -20956269.41146 -16302979.86247  20741611.199    20741610.5224   20741611.4844
        48.9004         46.1004
  -1149857.59743   -873281.06646  23816180.994    23816180.4354   23816182.4364
        39.9004         37.6004
 -21280600.64447 -16569512.90847  20284781.024    20284781.0304   20284786.0484
        50.5004         47.7004
 -11382420.36145  -8844343.52947  22250803.521    22250804.0774   22250808.7794
        44.9004         42.1004
   -360291.89742   -257035.21845  24264661.560    24264661.1074   24264664.3824
        37.5004         35.7004
 16  6 24  0 12  0.0000000  0  9G22G19G17G 6G23G 2G 9G 3G 7
    -62416.58742    223648.76245  24194878.974    24194876.2124   24194878.9484
        37.1004         35.0004
  -7832915.50844  -6082649.09046  23510102.397    23510102.3644   23510104.6834
        40.6004         38.3004
   1400022.08243   1102794.62546  24273277.101    24273276.4304   24273282.3864
        38.5004         36.2004
 -11933272.39947  -9275687.67047  20748420.096    20748420.5734   20748425.7854
        49.6004         46.8004
 -20929763.69846 -16282326.06547  20746655.223    20746655.0364   20746655.4344
        48.9004         46.3004
  -1242974.93643   -945839.99646  23798461.501    23798460.5754   23798462.8034
        40.3004         37.9004
 -21307027.27547 -16590105.08347  20279752.516    20279752.4454   20279756.8894
        50.5004         47.8004
 -11305400.51145  -8784328.05846  22265459.460    22265460.1894   22265465.5654
        44.8004         41.9004
   -467459.93142   -340542.72745  24244267.310    24244265.6164   24244269.2064
        37.5004         35.3004
 16  6 24  0 12 30.0000000  0  9G22G19G17G 6G23G 2G 9G 3G 7
     28744.01642    294682.96945  24212228.098    24212225.2634   24212224.9064
        37.1004         35.2004
  -7749013.89544  -6017271.24546  23526071.129    23526069.7904   23526071.6274
        41.1004         38.8004
   1496487.95043   1177962.73745  24291632.706    24291633.4494   24291638.0334
        38.3004         35.9004
 -11958950.78447  -9295696.79947  20743533.696    20743534.4294   20743538.9134
        49.6004         46.6004
 -20902846.76846 -16261351.82647  20751777.623    20751777.2084   20751777.8614
        49.1004         46.3004
  -1335886.18843  -1018238.35246  23780781.455    23780780.9334   23780782.9534
        40.4004         37.9004
 -21332973.64147 -16610323.02247  20274815.147    20274815.2384   20274819.7534
        50.7004         47.8004
 -11228161.05045  -8724141.49947  22280158.469    22280158.5594   22280163.4644
        44.8004         42.1004
   -574575.59852   -424009.40355  24223882.756    24223883.5944   24223886.3624
        37.5004         35.5004
 16  6 24  0 13  0.0000000  0  9G22G19G17G 6G23G 2G 9G 3G 7
    120010.50042    365799.68845  24229593.651    24229591.0334   24229592.4304
        37.0004         34.8004
  -7664786.91244  -5951639.83946  23542097.466    23542096.2094   23542098.7344
        41.3004         38.5004
   1593070.91843   1253222.11146  24310013.283    24310012.9994   24310017.2864
        38.2004         36.2004
 -11984069.73346  -9315270.00247  20738753.418    20738753.7224   20738759.1004
        49.5004         46.6004
 -20875519.56446 -16240057.90047  20756977.318    20756977.3534   20756977.9044
        49.1004         46.3004
  -1428588.92043  -1090474.22346  23763141.106    23763140.5524   23763141.6874
        40.3004         37.8004
 -21358439.71847 -16630166.71847  20269968.586    20269968.6754   20269973.9174
        50.7004         47.8004
 -11150702.73645  -8663784.38346  22294896.517    22294897.9914   22294904.4824
        44.8004         41.9004
   -681636.71443   -507433.57845  24203510.365    24203509.6444   24203512.7004
        37.6004         35.7004
 16  6 24  0 13 30.0000000  0  9G22G19G17G 6G23G 2G 9G 3G 7
    211381.94742    436998.21945  24246975.734    24246977.2594   24246979.2884
        36.6004         34.3004
  -7580237.74644  -5885757.38846  23558186.870    23558185.5824   23558187.2244
        40.8004         38.1004
   1689767.71943   1328570.17245  24328415.752    24328413.6654   24328417.5764
        38.0004         35.9004
 -12008627.94246  -9334406.26047  20734080.328    20734080.7864   20734086.2654
        49.5004         46.8004
 -20847783.11146 -16218445.07647  20762255.750    20762255.6354   20762255.7714
        49.1004         46.3004
  -1521081.22943  -1162546.09846  23745540.089    23745539.2764   23745540.7604
        40.1004         37.4004
 -21383425.54547 -16649636.18747  20265214.054    20265214.1124   20265218.9344
        50.7004         47.8004
 -11073026.24445  -8603257.26647  22309680.027    22309679.9734   22309685.3034
        44.8004         42.1004
   -788640.42143   -590812.97246  24183148.583    24183147.1634   24183150.9634
        38.2004         36.0004
 16  6 24  0 14  0.0000000  0  9G22G19G17G 6G23G 2G 9G 3G 7
    302857.67042    508277.98245  24264385.670    24264384.8864   24264387.8624
        37.0004         34.8004
  -7495369.54444  -5819626.37646  23574335.922    23574334.9884   23574336.8944
        40.6004         37.9004
   1786575.69043   1404004.88145  24346835.367    24346835.6664   24346840.4144
        37.8004         35.5004
 -12032624.13247  -9353104.58947  20729514.126    20729514.5344   20729519.8954
        49.6004         46.8004
 -20819638.79846 -16196514.44147  20767611.219    20767610.7834   20767611.7074
        49.1004         46.3004
  -1613360.49243  -1234451.97146  23727979.591    23727979.0874   23727980.2894
        39.7004         37.3004
 -21407931.15747 -16668731.46247  20260550.774    20260550.6754   20260555.7304
        50.7004         47.8004
 -10995132.39645  -8542560.79047  22324500.812    22324501.7914   22324508.0294
        44.8004         42.1004
   -895584.31243   -674145.76746  24162798.027    24162797.9984   24162800.8654
        38.2004         36.0004
 16  6 24  0 14 30.0000000  0  9G22G19G17G 6G23G 2G 9G 3G 7
    394436.95142    579638.44945  24281815.963    24281813.4704   24281814.3354
        37.3004         35.3004
  -7410185.33644  -5753249.10046  23590547.197    23590546.3694   23590547.5174
        40.8004         38.5004
   1883491.29942   1479523.45745  24365277.761    24365278.4644   24365281.2474
        37.5004         35.3004
 -12056057.08646  -9371364.03247  20725054.862    20725055.4804   20725060.5854
        49.5004         46.6004
 -20791087.78646 -16174266.89947  20773044.322    20773044.0264   20773044.5794
        49.1004         46.3004
  -1705424.32043  -1306189.98646  23710461.552    23710460.6404   23710462.2784
        39.9004         37.4004
 -21431956.53747 -16687452.53047  20255979.272    20255979.2074   20255983.7434
        50.7004         47.8004
 -10917021.85645  -8481695.44646  22339366.558    22339366.1734   22339371.6584
        44.8004         41.9004
  -1002466.13743   -757430.21846  24142458.898    24142457.3494   24142461.7974
        38.5004         36.4004
 16  6 24  0 15  0.0000000  0  9G22G19G17G 6G23G 2G 9G 3G 7
    486119.12442    651079.05345  24299259.866    24299258.6384   24299262.0974
        37.3004         35.3004
  -7324688.25344  -5686628.01846  23606815.437    23606815.0164   23606818.1584
        40.8004         38.3004
   1980511.66543   1555123.64945  24383740.944    24383740.6644   24383745.1364
        37.6004         35.5004
 -12078925.54146  -9389183.60747  20720703.182    20720703.5914   20720708.7694
        49.5004         46.5004
 -20762131.26346 -16151703.37547  20778554.856    20778554.6454   20778555.2714
        49.1004         46.5004
  -1797270.69943  -1377758.56346  23692982.896    23692982.6964   23692984.1654
        40.1004         37.8004
 -21455501.79547 -16705799.47247  20251498.838    20251499.0244   20251502.9004
        50.7004         47.8004
 -10838695.35045  -8420661.84946  22354270.582    22354271.6264   22354277.1504
        44.8004         41.9004
  -1109282.68743   -840663.74746  24122131.038    24122131.1494   24122134.1934
        38.5004         36.4004
 16  6 24  0 15 30.0000000  0  9G22G19G17G 6G23G 2G 9G 3G 7
    577903.34242    722599.21445  24316723.300    24316724.6064   24316727.1014
        37.3004         35.3004
  -7238881.59444  -5619765.71946  23623145.097    23623144.0884   23623145.2454
        40.8004         38.3004
   2077633.86442   1630803.21245  24402223.210    24402222.9174   24402226.1994
        37.5004         35.5004
 -12101228.29246  -9406562.37047  20716459.565    20716459.8774   20716464.3394
        49.5004         46.6004
 -20732770.22746 -16128824.64247  20784142.426    20784141.8394   20784142.3944
        49.1004         46.3004
  -1888897.13343  -1449155.72446  23675547.046    23675546.7784   23675548.1074
        40.4004         38.1004
 -21478566.97247 -16723772.33147  20247109.693    20247109.6474   20247113.7964
        50.7004         47.8004
 -10760153.62045  -8359460.52546  22369217.496    22369218.0974   22369222.4414
        44.8004         41.9004
  -1216031.35843   -923844.40846  24101816.725    24101817.1904   24101821.1114
        39.0004         36.7004
 16  6 24  0 16  0.0000000  0  9G22G19G17G 6G23G 2G 9G 3G 7
    669789.21343    794198.58045  24334213.796    24334210.2144   24334214.2774
        37.6004         35.5004
  -7152768.37144  -5552664.54846  23639531.322    23639529.2294   23639532.4674
        40.9004         38.3004
   2174854.98342   1706559.84945  24420722.008    24420723.5124   24420727.3874
        37.3004         35.0004
 -12122964.13546  -9423499.38547  20712322.626    20712323.7534   20712328.5494
        49.5004         46.6004
 -20703006.20346 -16105631.90047  20789806.356    20789805.9294   20789805.9944
        49.1004         46.5004
  -1980301.43443  -1520379.82646  23658153.815    23658152.9624   23658153.5974
        40.3004         37.8004
 -21501152.17647 -16741371.19447  20242811.538    20242811.6144   20242816.0154
        50.7004         47.8004
 -10681397.42745  -8298092.08547  22384204.772    22384205.2954   22384209.2574
        44.8004         42.1004
  -1322710.04143  -1006970.53746  24081516.493    24081517.1014   24081521.1834
        39.2004         36.9004
 16  6 24  0 16 30.0000000  0  9G22G19G17G 6G23G 2G 9G 3G 7
    761775.98543    865876.50945  24351719.279    24351716.5084   24351717.9994
        37.8004         35.7004
  -7066351.78844  -5485326.97446  23655974.766    23655974.9054   23655977.7444
        40.9004         38.3004
   2272171.84642   1782391.09745  24439242.200    24439243.4514   24439245.5094
        37.0004         34.8004
 -12144131.87146  -9439993.70947  20708295.104    20708295.4134   20708300.2524
        49.5004         46.6004
 -20672840.24846 -16082125.96247  20795546.909    20795546.3704   20795546.3514
        49.1004         46.3004
  -2071481.01843  -1591428.81246  23640802.906    23640802.0094   23640802.3604
        40.4004         37.9004
 -21523257.48747 -16758596.10447  20238605.308    20238605.0914   20238609.4294
        50.7004         47.8004
 -10602427.45445  -8236557.06547  22399231.768    22399231.5874   22399237.2814
        44.9004         42.1004
  -1429315.79643  -1090039.83146  24061231.975    24061231.2724   24061235.4954
        39.4004         37.1004
 16  6 24  0 17  0.0000000  0  9G22G19G17G 6G23G 2G 9G 3G 7
    853863.08043    937632.68945  24369237.940    24369238.7844   24369239.0664
        37.6004         35.5004
  -6979634.83044  -5417755.33746  23672477.480    23672476.9474   23672478.9734
        41.1004         38.6004
   2369581.42342   1858294.60245  24457779.295    24457778.3384   24457783.1354
        37.0004         34.8004
 -12164730.32946  -9456044.45747  20704375.552    20704376.0294   20704380.3904
        49.5004         46.6004
 -20642273.81246 -16058307.95147  20801363.135    20801362.9594   20801362.9524
        49.1004         46.3004
  -2162433.56944  -1662300.86746  23623494.966    23623494.8784   23623495.0084
        40.6004         37.9004
 -21544882.98847 -16775447.13947  20234489.543    20234490.0004   20234494.4804
        50.7004         47.8004
 -10523244.44545  -8174856.03647  22414300.662    22414300.5854   22414304.9984
        44.8004         42.1004
  -1535846.11143  -1173050.35046  24040958.939    24040958.9264   24040962.0634
        39.4004         37.1004
 16  6 24  0 17 30.0000000  0  9G22G19G17G 6G23G 2G 9G 3G 7
    946049.60742   1009466.32145  24386781.898    24386782.1024   24386781.8204
        37.3004         35.2004
  -6892620.88844  -5349952.29046  23689035.976    23689035.0514   23689036.6334
        41.3004         38.8004
   2467080.80442   1934268.07045  24476330.602    24476331.7894   24476337.1624
        36.8004         34.5004
 -12184758.37946  -9471650.72047  20700563.938    20700564.4464   20700569.3084
        49.5004         46.6004
 -20611307.97546 -16034178.72247  20807255.237    20807255.2174   20807255.4314
        49.1004         46.1004
  -2253157.01443  -1732994.43346  23606231.076    23606230.6444   23606230.1274
        40.3004         37.8004
 -21566028.85147 -16791924.42947  20230465.566    20230465.7664   20230470.6604
        50.7004         47.8004
 -10443849.13945  -8112989.57247  22429407.511    22429408.3194   22429414.3084
        44.9004         42.1004
  -1642298.32043  -1256000.00646  24020701.172    24020701.2514   24020705.4084
        39.4004         37.1004
 16  6 24  0 18  0.0000000  0  9G22G19G17G 6G23G 2G 9G 3G 7
   1038334.72642   1081376.77845  24404343.896    24404342.2724   24404340.8344
        37.1004         35.0004
  -6805313.12944  -5281920.30846  23705649.635    23705649.1454   23705651.8714
        41.3004         38.8004
   2564666.66042   2010308.95145  24494901.429    24494900.9274   24494905.8934
        36.6004         34.6004
 -12204214.90646  -9486811.64447  20696861.686    20696862.2954   20696866.7954
        49.5004         46.8004
 -20579943.88846 -16009739.17247  20813224.090    20813223.6924   20813223.8344
        48.9004         46.1004
  -2343648.95643  -1803507.61546  23589010.701    23589010.0804   23589010.9404
        40.4004         38.1004
 -21586695.18947 -16808028.05947  20226532.924    20226532.9114   20226537.9174
        50.7004         47.8004
 -10364242.27945  -8050958.28446  22444556.963    22444557.0134   22444562.3974
        44.8004         41.9004
  -1748669.81443  -1338886.78646  24000460.271    24000460.1874   24000463.0274
        39.2004         36.9004
 16  6 24  0 18 30.0000000  0  9G22G19G17G 6G23G 2G 9G 3G 7
   1130718.15242   1153363.86645  24421925.019    24421925.0444   24421922.8674
        37.3004         35.2004
  -6717714.16744  -5213661.40146  23722318.091    23722317.8184   23722321.6014
        41.1004         38.6004
   2662336.00842   2086414.86845  24513487.342    24513486.5814   24513492.6254
        36.3004         34.3004
 -12223098.79247  -9501526.35447  20693268.262    20693268.9564   20693273.6534
        49.6004         46.8004
 -20548182.58646 -15984990.10247  20819268.277    20819267.9294   20819267.8074
        48.9004         46.1004
  -2433907.18343  -1873838.66446  23571835.133    23571834.7774   23571835.1624
        40.4004         37.9004
 -21606882.14947 -16823758.15347  20222691.614    20222691.7184   20222696.2904
        50.7004         47.8004
 -10284424.61445  -7988762.72746  22459745.078    22459746.6754   22459751.0264
        44.6004         41.9004
  -1854958.31543  -1421708.91446  23980233.744    23980233.2094   23980236.5154
        39.0004         36.7004
 16  6 24  0 19  0.0000000  0  9G22G19G17G 6G23G 2G 9G 3G 7
   1223199.09242   1225426.93145  24439519.677    24439521.6304   24439519.9134
        37.0004         34.8004
  -6629827.57244  -5145178.35746  23739043.635    23739042.7194   23739044.3004
        41.1004         38.5004
   2760085.73242   2162583.40945  24532089.057    24532089.9614   24532091.3854
        36.6004         34.8004
 -12241408.94447  -9515794.00047  20689783.896    20689784.4384   20689789.4504
        49.6004         46.8004
 -20516025.68346 -15959932.77647  20825387.072    20825386.6714   20825387.2444
        48.9004         46.1004
  -2523929.12344  -1943985.59546  23554704.718    23554703.9904   23554705.0214
        40.8004         38.5004
 -21626589.86147 -16839114.80947  20218941.362    20218941.5064   20218945.7894
        50.7004         47.8004
 -10204396.84845  -7926403.46646  22474974.374    22474974.7184   22474979.7914
        44.6004         41.8004
  -1961160.69043  -1504463.91846  23960020.819    23960021.9014   23960025.3114
        39.0004         36.7004
 16  6 24  0 19 30.0000000  0  9G22G19G17G 6G23G 2G 9G 3G 7
   1315776.45742   1297565.13945  24457141.449    24457138.5724   24457138.4154
        37.0004         35.0004
  -6541656.62444  -5076473.77146  23755822.821    23755821.4604   23755823.1574
        41.1004         38.5004
   2857912.35342   2238811.89545  24550705.366    24550705.1614   24550709.4044
        36.6004         34.6004
 -12259144.32547  -9529613.77147  20686408.620    20686408.9994   20686414.5234
        49.6004         46.6004
 -20483474.40746 -15934568.13547  20831581.305    20831581.0474   20831581.3684
        48.9004         46.1004
  -2613712.46744  -2013946.59346  23537619.900    23537618.9484   23537619.8834
        41.1004         38.6004
 -21645818.52747 -16854098.18047  20215282.238    20215282.3614   20215286.5044
        50.7004         47.8004
 -10124159.72845  -7863881.03746  22490242.120    22490243.2494   22490248.3234
        44.6004         41.9004
  -2067274.20843  -1587149.69946  23939829.003    23939830.8374   23939833.2444
        38.9004         36.4004
 16  6 24  0 20  0.0000000  0  9G22G19G17G 6G23G 2G 9G 3G 7
   1408449.84342   1369778.12145  24474775.433    24474772.9274   24474772.7884
        37.1004         35.2004
  -6453204.53944  -5007550.07846  23772654.185    23772653.8634   23772655.2054
        40.8004         38.3004
   2955813.62842   2315098.53445  24569335.457    24569336.2584   24569340.4494
        36.8004         34.8004
 -12276303.86046  -9542984.83747  20683143.081    20683144.0594   20683148.9314
        49.5004         46.6004
 -20450529.79146 -15908897.00147  20837850.542    20837850.0944   20837850.7684
        48.9004         46.1004
  -2703255.20644  -2083720.10046  23520580.046    23520579.4704   23520580.0774
        41.3004         38.6004
 -21664568.33747 -16868708.40747  20211714.717    20211714.7484   20211718.7684
        50.7004         47.8004
 -10043713.98245  -7801196.06846  22505551.919    22505551.8324   22505557.3014
        44.6004         41.9004
  -2173296.63643  -1669764.50946  23919652.452    23919654.4444   23919657.4584
        38.7004         36.2004
 16  6 24  0 20 30.0000000  0  9G22G19G17G 6G23G 2G 9G 3G 7
   1501218.40142   1442065.28445  24492427.091    24492426.1574   24492427.0584
        37.1004         35.2004
  -6364474.33544  -4938409.68346  23789539.813    23789538.4504   23789540.1604
        40.9004         38.5004
   3053786.17642   2391440.73445  24587978.958    24587977.8654   24587982.0554
        37.0004         35.2004
 -12292886.54646  -9555906.41447  20679987.423    20679988.1394   20679993.6964
        49.5004         46.6004
 -20417193.35646 -15882920.55647  20844194.204    20844193.7964   20844194.0994
        48.9004         46.1004
  -2792554.76244  -2153304.12346  23503586.292    23503586.1054   23503587.0504
        41.1004         38.3004
 -21682839.49647 -16882945.66647  20208237.528    20208237.6184   20208241.9834
        50.7004         47.8004
  -9963060.38945  -7738349.11546  22520898.902    22520899.0964   22520905.5994
        44.6004         41.9004
  -2279225.27643  -1752306.24246  23899494.498    23899496.3174   23899500.7594
        38.5004         36.4004
 16  6 24  0 21  0.0000000  0  9G22G19G17G 6G23G 2G 9G 3G 7
   1594081.62142   1514426.23745  24510097.983    24510097.2384   24510100.4934
        37.0004         34.8004
  -6275469.04044  -4869054.93246  23806476.837    23806474.2874   23806478.4794
        41.1004         38.5004
   3151827.16542   2467836.23345  24606635.505    24606633.1634   24606638.9574
        36.8004         34.8004
 -12308891.36946  -9568377.69747  20676942.032    20676942.4824   20676947.9934
        49.5004         46.6004
 -20383466.26846 -15856639.70947  20850612.308    20850612.0684   20850612.2684
        48.8004         45.9004
  -2881608.41644  -2222696.51646  23486640.146    23486639.4174   23486640.2964
        40.9004         38.5004
 -21700632.22047 -16896810.12247  20204851.878    20204851.8064   20204856.3434
        50.7004         47.8004
  -9882199.65645  -7675340.77946  22536285.392    22536286.3884   22536292.6864
        44.4004         41.8004
  -2385057.46343  -1834772.78246  23879356.251    23879357.7604   23879360.5554
        38.7004         36.4004
 16  6 24  0 21 30.0000000  0  9G22G19G17G 6G23G 2G 9G 3G 7
   1687038.97942   1586860.52945  24527787.182    24527787.9144   24527788.5284
        36.8004         34.8004
  -6186191.04844  -4799487.66846  23823465.222    23823464.2534   23823467.2214
        41.1004         38.6004
   3249933.71042   2544282.86645  24625303.895    24625302.8044   24625309.4824
        36.6004         34.8004
 -12324317.32246  -9580397.91647  20674006.380    20674006.9174   20674012.5604
        49.5004         46.6004
 -20349349.55846 -15830055.25647  20857104.026    20857103.7394   20857104.4444
        48.8004         45.9004
  -2970413.96944  -2291895.60946  23469741.480    23469740.9094   23469741.3974
        40.9004         38.5004
 -21717946.73047 -16910301.94047  20201556.883    20201556.6694   20201561.4034
        50.7004         47.8004
  -9801132.56745  -7612171.63446  22551713.567    22551713.5044   22551718.4154
        44.4004         41.6004
  -2490790.39443  -1917161.99246  23859235.682    23859236.7344   23859240.4204
        38.7004         36.6004
 16  6 24  0 22  0.0000000  0  9G22G19G17G 6G23G 2G 9G 3G 7
   1780089.92642   1659367.72145  24545496.572    24545493.8714   24545498.0244
        37.0004         34.8004
  -6096644.88244  -4729711.47146  23840505.083    23840503.3164   23840506.1824
        41.1004         38.3004
   3348102.27142   2620777.73045  24643985.782    24643986.0074   24643988.9134
        36.6004         34.6004
 -12339163.45746  -9591966.32847  20671181.340    20671181.8564   20671187.3954
        49.5004         46.6004
 -20314844.68946 -15803168.34447  20863670.486    20863670.1574   20863670.1864
        48.8004         45.9004
  -3058969.21644  -2360899.68546  23452889.179    23452887.9894   23452890.3534
        40.9004         38.3004
 -21734783.25947 -16923421.30647  20198352.870    20198352.9984   20198357.3844
        50.7004         47.8004
  -9719859.84445  -7548842.27046  22567179.050    22567179.8484   22567184.0694
        44.4004         41.6004
  -2596421.62743  -1999471.99246  23839135.502    23839136.7364   23839140.4054
        39.2004         36.9004
 16  6 24  0 22 30.0000000  0  9G22G19G17G 6G23G 2G 9G 3G 7
   1873233.18842   1731946.87045  24563218.030    24563219.5554   24563220.9804
        37.1004         35.2004
  -6006833.41544  -4659728.55146  23857594.679    23857594.6894   23857595.8474
        40.8004         38.3004
   3446330.27942   2697318.96645  24662675.552    24662674.8464   24662681.4484
        36.4004         34.5004
 -12353428.83646  -9603082.20647  20668466.445    20668466.9884   20668473.0494
        49.5004         46.6004
 -20279953.09146 -15775980.08247  20870310.446    20870309.6924   20870310.1864
        48.8004         45.9004
  -3147271.91844  -2429706.95546  23436086.444    23436085.6394   23436086.5394
        40.8004         38.3004
 -21751142.06047 -16936168.41347  20195240.179    20195240.0374   20195244.5304
        50.7004         47.8004
  -9638382.22445  -7485353.23646  22582684.034    22582683.9254   22582689.0844
        44.4004         41.6004
  -2701948.54143  -2081700.69246  23819056.464    23819056.2834   23819058.6854
        39.6004         37.3004
 16  6 24  0 23  0.0000000  0  9G22G19G17G 6G23G 2G 9G 3G 7
   1966468.34242   1804597.63645  24580962.796    24580960.0984   24580961.3904
        37.1004         35.0004
  -5916759.68144  -4589541.24646  23874735.797    23874735.1404   23874738.3384
        41.1004         38.6004
   3544614.65642   2773904.13045  24681379.343    24681379.8914   24681383.6624
        36.1004         34.3004
 -12367112.54246  -9613744.82947  20665862.201    20665863.2244   20665869.2164
        49.5004         46.6004
 -20244675.81746 -15748491.30147  20877023.144    20877022.8874   20877023.0744
        48.8004         45.9004
  -3235319.86544  -2498315.74246  23419330.676    23419330.1244   23419330.9374
        40.6004         37.8004
 -21767023.44647 -16948543.52047  20192217.527    20192217.6164   20192222.3174
        50.7004         47.8004
  -9556700.40445  -7421705.09046  22598227.080    22598227.7434   22598233.1904
        44.2004         41.4004
  -2807368.66643  -2163846.16446  23798993.177    23798993.7814   23798997.9364
        39.6004         37.1004
 16  6 24  0 23 30.0000000  0  9G22G19G17G 6G23G 2G 9G 3G 7
   2059794.34942   1877319.17245  24598721.140    24598721.4684   24598722.4494
        37.3004         35.2004
  -5826426.84144  -4519152.03346  23891926.804    23891925.3464   23891927.0454
        41.3004         38.6004
   3642951.97442   2850530.51445  24700090.637    24700091.6684   24700096.9074
        36.1004         34.5004
 -12380213.64547  -9623953.48647  20663370.138    20663370.6644   20663376.2364
        49.6004         47.0004
 -20209014.43546 -15720703.20947  20883808.924    20883808.8424   20883809.2394
        48.6004         45.8004
  -3323110.35244  -2566723.91146  23402624.916    23402624.9394   23402625.5664
        40.6004         37.9004
 -21782427.60647 -16960546.75547  20189286.607    20189286.4334   20189291.2804
        50.7004         47.8004
  -9474815.16945  -7357898.44046  22613810.034    22613810.1714   22613815.0554
        44.2004         41.4004
  -2912678.93043  -2245906.04246  23778951.524    23778953.7414   23778958.4304
        39.6004         37.1004
 16  6 24  0 24  0.0000000  0  9G22G19G17G 6G23G 2G 9G 3G 7
   2153210.79642   1950111.21145  24616495.868    24616498.1374   24616496.9044
        37.1004         35.2004
  -5735838.13644  -4448563.47146  23909163.947    23909163.1804   23909166.1994
        40.9004         38.3004
   3741339.37642   2927196.01545  24718813.931    24718815.3344   24718819.7154
        35.9004         34.3004
 -12392731.29247  -9633707.50147  20660988.042    20660988.4474   20660994.0334
        49.8004         46.8004
 -20172970.07646 -15692616.69447  20890667.951    20890667.6124   20890668.5434
        48.6004         45.8004
  -3410641.15844  -2634929.73046  23385967.932    23385967.8054   23385968.7584
        40.6004         38.1004
 -21797354.88547 -16972178.39248  20186445.500    20186445.7244   20186450.8034
        50.7004         48.0004
  -9392727.29045  -7293933.88346  22629429.845    22629430.3274   22629435.9534
        43.9004         41.1004
  -3017876.92043  -2327878.44246  23758933.464    23758935.6934   23758939.7474
        39.6004         37.3004
 16  6 24  0 24 30.0000000  0  9G22G19G17G 6G23G 2G 9G 3G 7
   2246716.91942   2022973.12845  24634290.729    24634290.8394   24634292.8264
        37.0004         35.0004
  -5644996.56644  -4377777.87546  23926451.175    23926449.8984   23926452.6274
        40.8004         38.1004
   3839774.37642   3003898.58945  24737547.096    24737547.4724   24737552.3704
        36.1004         34.1004
 -12404664.61347  -9643006.18547  20658717.270    20658717.7154   20658723.1154
        49.6004         46.8004
 -20136544.02446 -15664232.76247  20897599.773    20897599.3824   20897599.9264
        48.6004         45.8004
  -3497909.78544  -2702931.22046  23369361.551    23369361.0274   23369363.5954
        41.1004         38.8004
 -21811805.58947 -16983438.67048  20183695.392    20183695.6684   20183700.8404
        50.7004         48.0004
  -9310437.52345  -7229812.00546  22645088.805    22645089.2864   22645094.8534
        43.9004         41.1004
  -3122959.92043  -2409761.23646  23738940.342    23738939.8164   23738942.8844
        39.6004         37.1004
 16  6 24  0 25  0.0000000  0  9G22G19G17G 6G23G 2G 9G 3G 7
   2340311.96942   2095904.30445  24652102.387    24652102.1944   24652102.5644
        36.8004         34.8004
  -5553905.43644  -4306797.82046  23943785.379    23943784.4664   23943787.4254
        40.8004         38.1004
   3938253.55742   3080635.56145  24756287.338    24756287.0204   24756290.9724
        35.7004         34.0004
 -12416012.75547  -9651848.89347  20656557.871    20656558.0414   20656563.3344
        49.6004         46.8004
 -20099737.49346 -15635552.34947  20904604.359    20904603.4454   20904603.7314
        48.6004         45.9004
  -3584914.16344  -2770726.82146  23352806.168    23352804.9844   23352806.3064
        41.6004         39.3004
 -21825780.02847 -16994327.82648  20181036.311    20181036.3954   20181041.6684
        50.7004         48.0004
  -9227946.56145  -7165533.36646  22660786.671    22660786.7274   22660792.3504
        43.7004         40.9004
  -3227925.49143  -2491552.52346  23718967.172    23718965.9484   23718968.6714
        39.7004         37.3004
 16  6 24  0 25 30.0000000  0  9G22G19G17G 6G23G 2G 9G 3G 7
   2433995.21942   2168904.24245  24669926.534    24669927.4634   24669930.2354
        36.6004         34.6004
  -5462567.97843  -4235625.81746  23961165.309    23961164.7744   23961167.9424
        40.4004         37.8004
   4036773.85242   3157404.53445  24775036.244    24775036.3904   24775039.3104
        35.6004         34.0004
 -12426774.91047  -9660234.98347  20654509.539    20654510.0744   20654515.1964
        49.6004         46.8004
 -20062551.89546 -15606576.55947  20911680.814    20911680.3884   20911680.5524
        48.8004         45.9004
  -3671651.60644  -2838314.43446  23336299.439    23336298.9914   23336300.5994
        42.2004         39.7004
 -21839278.54447 -17004846.14948  20178467.783    20178468.0534   20178472.9584
        50.8004         48.0004
  -9145255.15845  -7101098.53146  22676522.010    22676522.7804   22676528.2604
        43.6004         40.9004
  -3332770.85543  -2573250.15546  23699015.089    23699013.9494   23699017.5954
        39.7004         37.3004
 16  6 24  0 26  0.0000000  0  9G22G19G17G 6G23G 2G 9G 3G 7
   2527766.00642   2241972.38345  24687771.446    24687771.2954   24687775.2914
        36.6004         34.6004
  -5370987.53543  -4164264.47946  23978593.523    23978592.7664   23978594.7964
        40.3004         37.8004
   4135332.30542   3234203.20045  24793789.846    24793789.8764   24793796.7884
        35.9004         34.1004
 -12436950.26247  -9668163.82947  20652573.079    20652573.8824   20652578.7934
        49.6004         46.8004
 -20024988.78946 -15577306.60647  20918828.462    20918828.0384   20918828.4624
        48.8004         45.8004
  -3758119.83444  -2905692.26246  23319845.188    23319844.6174   23319846.0054
        42.5004         40.0004
 -21852301.48147 -17014993.88648  20175989.777    20175989.7464   20175994.6334
        50.8004         48.0004
  -9062364.10545  -7036508.12046  22692296.060    22692295.8274   22692302.0494
        43.6004         40.9004
  -3437493.69643  -2654852.30646  23679085.457    23679085.0924   23679089.2644
        39.7004         37.4004
 16  6 24  0 26 30.0000000  0  9G22G19G17G 6G23G 2G 9G 3G 7
   2621623.83442   2315108.34545  24705639.184    24705633.2134   24705634.5324
        36.4004         34.5004
  -5279166.91643  -4092715.95746  23996065.732    23996064.9174   23996067.9894
        40.1004         37.8004
   4233926.27242   3311029.66045  24812553.409    24812554.2014   24812558.2414
        36.4004         34.8004
 -12446538.04746  -9675634.82447  20650748.979    20650749.4194   20650754.2754
        49.5004         46.6004
 -19987049.25246 -15547743.32547  20926048.092    20926047.7274   20926047.6814
        48.8004         45.8004
  -3844316.70744  -2972858.63246  23303442.700    23303441.6404   23303443.0324
        43.2004         40.7004
 -21864849.17347 -17024771.30148  20173602.591    20173602.2584   20173606.9544
        50.8004         48.2004
  -8979274.15645  -6971762.71846  22708107.846    22708107.9474   22708113.4644
        43.6004         40.9004
  -3542090.88643  -2736356.56946  23659181.309    23659181.7144   23659184.8864
        39.9004         37.6004
 16  6 24  0 27  0.0000000  0  9G22G19G17G 6G23G 2G 9G 3G 7
   2715567.94142   2388311.51445  24723510.555    24723510.4004   24723510.7414
        36.6004         34.6004
  -5187109.46643  -4020982.91346  24013584.828    24013583.8454   24013585.2574
        39.9004         37.6004
   4332552.39942   3387881.11645  24831320.840    24831320.3784   24831326.5294
        35.9004         33.8004
 -12455537.50746  -9682647.39647  20649036.139    20649036.5604   20649041.8484
        49.5004         46.6004
 -19948734.49846 -15517887.68147  20933338.841    20933338.5504   20933339.1674
        48.6004         45.8004
  -3930239.83145  -3039811.71046  23287091.887    23287091.6584   23287092.1504
        43.6004         41.1004
 -21876921.98647 -17034178.68848  20171305.056    20171304.9464   20171309.5534
        50.8004         48.0004
  -8895986.05745  -6906862.92846  22723956.366    22723957.1164   22723963.1054
        43.6004         41.1004
  -3646559.96043  -2817761.00546  23639300.002    23639301.9474   23639304.9434
        40.3004         37.8004
 16  6 24  0 27 30.0000000  0  9G22G19G17G 6G23G 2G 9G 3G 7
   2809597.32142   2461581.15945  24741399.011    24741402.0104   24741406.2794
        36.4004         34.6004
  -5094818.23143  -3949067.67846  24031146.824    24031145.5074   24031148.8264
        40.1004         37.8004
   4431207.93342   3464755.42845  24850094.334    24850092.9524   24850096.1424
        35.2004         33.6004
 -12463947.92646  -9689200.96947  20647435.798    20647435.8794   20647441.2614
        49.5004         46.6004
 -19910045.89046 -15487740.71447  20940701.498    20940701.0134   20940701.1154
        48.6004         45.6004
  -4015886.62245  -3106549.45046  23270793.925    23270793.3524   23270794.4454
        43.9004         41.4004
 -21888520.31347 -17043216.34548  20169097.625    20169097.6334   20169102.6164
        50.8004         48.0004
  -8812500.52845  -6841809.30246  22739843.822    22739843.9704   22739850.0054
        43.6004         40.7004
  -3750897.99743  -2899063.31546  23619448.178    23619446.7074   23619449.6824
        40.4004         37.9004
 16  6 24  0 28  0.0000000  0  9G22G19G17G 6G23G 2G 9G 3G 7
   2903711.53142   2534916.91745  24759311.753    24759313.9724   24759315.8874
        36.4004         34.6004
  -5002296.55443  -3876972.87546  24048753.135    24048752.3154   24048754.4634
        40.1004         37.6004
   4529889.80842   3541650.23045  24868874.729    24868875.8984   24868877.9574
        35.0004         33.4004
 -12471768.56646  -9695294.97547  20645946.929    20645947.5024   20645953.1054
        49.5004         46.6004
 -19870984.92746 -15457303.59947  20948133.942    20948133.7954   20948134.2274
        48.4004         45.6004
  -4101254.78845  -3173070.09646  23254549.399    23254548.1754   23254549.5564
        44.1004         41.2004
 -21899644.54447 -17051884.57948  20166980.672    20166980.9414   20166985.6224
        50.8004         48.2004
  -8728818.39444  -6776602.45846  22755767.797    22755768.0324   22755773.8544
        43.4004         40.7004
  -3855102.90243  -2980261.89146  23599616.884    23599616.5914   23599620.7784
        40.4004         37.9004
 16  6 24  0 28 30.0000000  0  9G22G19G17G 6G23G 2G 9G 3G 7
   2997909.66542   2608318.00945  24777236.993    24777236.2644   24777239.0444
        35.9004         34.1004
  -4909547.97343  -3804701.32346  24066403.176    24066401.9204   24066403.1534
        39.7004         37.3004
   4628595.12342   3618563.29145  24887659.387    24887658.8014   24887660.4314
        35.4004         34.0004
 -12478998.74346  -9700928.87347  20644570.919    20644571.5814   20644577.5194
        49.5004         46.6004
 -19831552.77046 -15426577.24647  20955638.043    20955637.3274   20955637.7264
        48.4004         45.6004
  -4186342.04945  -3239371.83846  23238358.008    23238357.2824   23238357.5164
        44.1004         41.4004
 -21910295.05447 -17060183.67648  20164953.830    20164954.0754   20164958.8404
        50.8004         48.0004
  -8644940.35944  -6711242.98546  22771729.392    22771729.5234   22771735.1644
        43.4004         40.6004
  -3959171.80744  -3061354.48846  23579812.095    23579812.7754   23579817.1924
        40.6004         38.1004
 16  6 24  0 29  0.0000000  0  9G22G19G17G 6G23G 2G 9G 3G 7
   3092191.28542   2681784.20245  24795181.197    24795178.3904   24795180.3574
        35.6004         34.0004
  -4816575.19043  -3732255.01046  24084094.288    24084093.0364   24084096.3354
        39.6004         37.3004
   4727320.82642   3695492.20845  24906440.869    24906440.6394   24906445.8164
        34.9004         33.4004
 -12485637.79847  -9706102.16647  20643308.355    20643308.6974   20643314.1134
        49.6004         46.8004
 -19791750.91146 -15395562.81547  20963211.766    20963211.6374   20963211.9214
        48.4004         45.6004
  -4271146.01245  -3305452.83446  23222220.106    23222219.4254   23222220.4434
        44.2004         41.6004
 -21920472.27647 -17068113.97248  20163017.440    20163017.2834   20163022.2924
        50.8004         48.0004
  -8560867.21344  -6645731.46646  22787727.519    22787727.2924   22787733.7494
        43.2004         40.4004
  -4063101.83144  -3142338.86946  23560035.296    23560035.0814   23560039.0954
        40.6004         38.1004
 16  6 24  0 29 30.0000000  0  9G22G19G17G 6G23G 2G 9G 3G 7
   3186555.43242   2755314.72445  24813137.769    24813138.2394   24813135.9924
        35.6004         34.0004
  -4723381.64443  -3659636.67446  24101829.072    24101828.3824   24101830.0474
        39.9004         37.6004
   4826063.92942   3772434.73145  24925234.453    24925233.0094   24925237.7084
        34.5004         32.9004
 -12491685.06847  -9710814.32847  20642157.984    20642158.2494   20642163.1924
        49.6004         47.0004
 -19751580.72046 -15364261.37347  20970855.910    20970855.6284   20970856.1654
        48.4004         45.6004
  -4355664.18245  -3371311.13346  23206137.228    23206136.1264   23206137.1294
        44.4004         41.8004
 -21930176.63847 -17075675.79848  20161170.506    20161170.5874   20161175.5034
        50.8004         48.0004
  -8476599.66944  -6580068.46646  22803761.610    22803763.8714   22803769.5334
        43.2004         40.4004
  -4166890.52244  -3223213.11146  23540285.248    23540285.1184   23540290.2874
        40.8004         38.3004
 16  6 24  0 30  0.0000000  0  9G22G19G17G 6G23G 2G 9G 3G 7
   3281001.53542   2828909.07245  24831106.519    24831107.3204   24831107.1854
        35.6004         34.1004
  -4629970.52043  -3586848.83946  24119604.649    24119602.9404   24119605.2884
        40.1004         37.6004
   4924821.74241   3849388.66245  24944027.581    24944028.5654   24944030.5004
        34.3004         33.1004
 -12497139.95547  -9715064.89047  20641119.364    20641120.2464   20641125.5044
        49.8004         47.0004
 -19711043.58946 -15332674.00047  20978569.722    20978569.4004   20978570.2694
        48.4004         45.4004
  -4439894.29445  -3436944.97646  23190108.546    23190107.8794   23190108.8664
        44.6004         41.8004
 -21939408.59847 -17082869.52748  20159414.080    20159413.9944   20159418.6674
        50.8004         48.0004
  -8392138.51744  -6514254.61546  22819836.996    22819836.4234   22819841.9014
        43.2004         40.6004
  -4270535.08544  -3303975.06246  23520563.251    23520562.9904   23520566.2044
        40.8004         38.3004
 16  6 24  0 30 30.0000000  0  9G22G19G17G 6G23G 2G 9G 3G 7
   3375528.64742   2902566.56545  24849099.375    24849096.3984   24849096.9264
        35.2004         33.4004
  -4536344.84643  -3513893.78046  24137420.306    24137419.6894   24137421.3724
        39.7004         37.1004
   5023591.08441   3926351.53245  24962821.982    24962822.3634   24962828.9094
        34.2004         33.1004
 -12502001.80547  -9718853.34647  20640195.075    20640195.5094   20640200.0794
        49.8004         47.2004
 -19670140.61746 -15300801.55247  20986353.727    20986353.3854   20986353.4794
        48.2004         45.4004
  -4523833.89445  -3502352.44146  23174134.928    23174134.7954   23174135.7094
        44.6004         41.8004
 -21948168.60447 -17089695.49648  20157747.097    20157746.9574   20157751.5404
        50.8004         48.0004
  -8307484.54944  -6448290.51346  22835944.362    22835946.2364   22835951.1684
        43.4004         40.7004
  -4374033.08244  -3384622.81046  23500868.326    23500868.3974   23500871.3084
        41.1004         38.6004
 16  6 24  0 31  0.0000000  0  9G22G19G17G 6G23G 2G 9G 3G 7
   3470136.07542   2976286.61545  24867102.785    24867099.8404   24867101.0184
        35.0004         33.6004
  -4442507.93143  -3440774.12646  24155277.504    24155276.4444   24155279.1684
        40.1004         37.9004
   5122369.21641   4003321.46345  24981619.351    24981617.8304   24981620.8394
        33.8004         32.7004
 -12506270.09147  -9722179.27947  20639382.783    20639382.8674   20639388.0044
        50.0004         47.2004
 -19628873.13946 -15268645.07247  20994206.048    20994205.6564   20994206.5014
        48.2004         45.4004
  -4607480.77545  -3567531.81946  23158218.281    23158217.2784   23158217.9904
        44.8004         41.8004
 -21956457.09447 -17096154.04748  20156169.747    20156169.9394   20156174.4184
        50.8004         48.0004
  -8222638.49144  -6382176.71446  22852091.230    22852092.0844   22852097.1274
        43.4004         40.9004
  -4477381.90944  -3465154.30946  23481201.610    23481202.0094   23481204.9784
        41.1004         38.5004
 16  6 24  0 31 30.0000000  0  9G22G19G17G 6G23G 2G 9G 3G 7
   3564823.22242   3050068.79345  24885117.552    24885120.2674   24885117.3514
        35.4004         34.0004
  -4348462.90543  -3367492.31246  24173173.590    24173172.9874   24173174.2644
        39.9004         37.1004
   5221153.26241   4080295.92145  25000416.150    25000415.5584   25000420.5894
        33.5004         32.6004
 -12509944.25547  -9725042.26247  20638683.172    20638683.7014   20638688.6514
        50.0004         47.0004
 -19587242.72246 -15236205.79047  21002128.596    21002128.3654   21002128.7714
        48.4004         45.6004
  -4690832.41245  -3632481.13647  23142356.415    23142356.1214   23142356.6784
        44.8004         42.1004
 -21964274.56047 -17102245.56548  20154682.142    20154682.3244   20154686.8674
        50.8004         48.2004
  -8137601.13845  -6315913.85446  22868273.430    22868273.8724   22868278.0044
        43.6004         40.7004
  -4580579.32444  -3545567.83346  23461562.715    23461563.6864   23461566.4774
        41.1004         38.8004
 16  6 24  0 32  0.0000000  0  9G22G19G17G 6G23G 2G 9G 3G 7
   3659589.49542   3123912.66145  24903150.795    24903151.1624   24903155.0094
        35.6004         34.1004
  -4254213.20543  -3294051.02346  24191108.438    24191106.5614   24191110.0454
        39.7004         37.1004
   5319940.14141   4157272.59645  25019214.829    25019218.3954   25019219.4394
        33.0004         32.0004
 -12513023.73247  -9727441.85247  20638097.247    20638097.9164   20638102.7004
        50.0004         47.2004
 -19545250.69446 -15203484.73347  21010119.889    21010119.5424   21010119.4034
        48.4004         45.6004
  -4773886.42345  -3697198.53746  23126552.452    23126551.4944   23126552.1334
        44.6004         41.8004
 -21971621.51347 -17107970.45948  20153284.129    20153284.0604   20153288.6694
        50.8004         48.0004
  -8052373.20844  -6249502.50546  22884491.786    22884492.3504   22884497.1864
        43.4004         40.7004
  -4683621.66344  -3625860.50446  23441954.637    23441954.6234   23441959.4764
        41.1004         38.5004
 16  6 24  0 32 30.0000000  0  9G22G19G17G 6G23G 2G 9G 3G 7
   3754433.93642   3197817.40545  24921200.266    24921199.6384   24921203.7994
        35.6004         34.0004
  -4159761.64043  -3220452.43146  24209082.082    24209080.2654   24209083.3584
        39.6004         37.1004
   5418727.17741   4234249.39845  25038016.602    25038016.2384   25038014.8084
        32.8004         32.0004
 -12515508.04447  -9729377.67847  20637624.073    20637624.7074   20637629.6994
        49.8004         47.0004
 -19502898.56146 -15170483.07447  21018179.039    21018178.7054   21018178.9494
        48.4004         45.6004
  -4856640.86545  -3761682.50546  23110804.296    23110803.7904   23110804.2064
        44.2004         41.1004
 -21978498.42247 -17113329.08848  20151975.290    20151975.2784   20151979.9904
        50.8004         48.0004
  -7966955.52144  -6182943.29146  22900745.691    22900746.5024   22900751.2654
        43.4004         40.6004
  -4786506.77944  -3706030.66846  23422376.853    23422376.6884   23422380.3884
        40.9004         38.5004
 16  6 24  0 33  0.0000000  0  9G22G19G17G 6G23G 2G 9G 3G 7
   3849355.77842   3271782.46045  24939263.874    24939261.6514   24939265.2694
        35.9004         34.1004
  -4065111.81843  -3146699.34746  24227092.610    24227091.9154   24227094.7504
        39.0004         36.6004
   5517510.94641   4311223.60045  25056810.132    25056811.0114   25056816.6074
        33.0004         32.4004
 -12517396.63247  -9730849.30347  20637264.888    20637265.2144   20637270.5394
        49.8004         47.0004
 -19460187.41946 -15137201.66247  21026305.946    21026305.9684   21026306.8104
        48.4004         45.6004
  -4939092.88945  -3825930.81846  23095114.140    23095113.8044   23095113.9974
        43.9004         40.7004
 -21984905.80947 -17118321.84948  20150755.750    20150755.9784   20150760.5384
        50.7004         48.0004
  -7881348.78644  -6116236.77346  22917036.952    22917036.7304   22917041.5644
        43.2004         40.6004
  -4889232.96944  -3786077.00246  23402829.385    23402829.0994   23402830.2594
        40.8004         38.1004
 16  6 24  0 33 30.0000000  0  9G22G19G17G 6G23G 2G 9G 3G 7
   3944354.25142   3345807.22245  24957339.425    24957338.4064   24957342.7774
        35.7004         34.1004
  -3970266.58943  -3072794.04646  24245141.310    24245140.0214   24245142.6624
        39.0004         36.7004
   5616288.78841   4388193.24145  25075607.988    25075608.8584   25075612.6864
        33.5004         32.6004
 -12518689.08047  -9731856.40647  20637018.524    20637019.2964   20637024.6294
        49.6004         46.8004
 -19417118.81846 -15103641.71247  21034502.101    21034501.3884   21034502.5634
        48.4004         45.6004
  -5021240.24644  -3889941.71846  23079481.455    23079481.4274   23079482.2084
        43.4004         40.4004
 -21990844.20047 -17122949.16648  20149625.961    20149626.1804   20149630.5414
        50.8004         48.0004
  -7795553.85544  -6049383.59946  22933361.530    22933362.4994   22933368.2684
        43.2004         40.4004
  -4991796.19844  -3865996.33746  23383309.989    23383310.0664   23383313.9254
        40.6004         38.1004
 16  6 24  0 34  0.0000000  0  9G22G19G17G 6G23G 2G 9G 3G 7
   4039429.00742   3419891.42845  24975430.239    24975429.7064   24975436.9614
        35.9004         34.3004
  -3875229.04443  -2998738.81746  24263227.007    24263226.0224   24263228.5194
        38.9004         36.4004
   5715058.01941   4465156.11645  25094405.493    25094403.5634   25094409.3544
        34.2004         33.1004
 -12519384.94547  -9732398.64547  20636886.200    20636886.9874   20636891.9344
        49.6004         47.0004
 -19373694.01046 -15069804.20047  21042765.052    21042764.8014   21042766.1254
        48.4004         45.4004
  -5103080.62044  -3953713.41746  23063908.556    23063907.3204   23063908.3084
        43.0004         40.4004
 -21996314.14147 -17127211.45948  20148585.374    20148585.2734   20148589.7224
        50.8004         48.0004
  -7709571.46644  -5982384.35346  22949723.612    22949724.0934   22949729.9544
        43.2004         40.6004
  -5094193.78644  -3945786.60546  23363824.717    23363825.5324   23363829.2484
        40.6004         38.1004
 16  6 24  0 34 30.0000000  0  8G22G19G 6G23G 2G 9G 3G 7
   4134579.23042   3494034.45045  24993537.960    24993536.2014   24993539.7714
        36.3004         34.6004
  -3780002.54643  -2924536.36546  24281347.342    24281346.8344   24281349.4944
        38.7004         36.4004
 -12519483.78847  -9732475.67147  20636868.150    20636868.2464   20636873.4414
        49.8004         47.0004
 -19329914.52746 -15035690.31547  21051096.171    21051095.6964   21051096.7624
        48.2004         45.2004
  -5184611.61444  -4017244.03546  23048392.570    23048392.5504   23048393.2404
        42.9004         40.2004
 -22001316.15247 -17131109.12548  20147633.417    20147633.4264   20147637.5764
        50.8004         48.0004
  -7623402.36644  -5915239.62646  22966122.693    22966121.7114   22966127.5714
        43.0004         40.4004
  -5196423.59444  -4025446.15446  23344370.619    23344372.0364   23344374.2704
        40.6004         37.9004
 16  6 24  0 35  0.0000000  0  8G22G19G 6G23G 2G 9G 3G 7
   4229803.92442   3568235.46445  25011658.649    25011660.5824   25011662.1144
        36.3004         34.3004
  -3684590.37543  -2850189.30246  24299505.333    24299504.2864   24299506.1474
        38.5004         36.2004
 -12518985.21647  -9732087.17847  20636962.761    20636963.1094   20636968.3344
        49.8004         47.0004
 -19285781.57446 -15001301.00347  21059494.591    21059494.3284   21059494.9374
        48.2004         45.4004
  -5265830.84544  -4080531.73346  23032937.932    23032936.4094   23032937.7414
        42.7004         40.2004
 -22005850.79447 -17134642.61348  20146770.826    20146770.4114   20146774.7914
        50.8004         48.0004
  -7537047.38844  -5847950.05346  22982554.198    22982554.6764   22982559.9304
        43.0004         40.4004
  -5298483.38444  -4104973.19846  23324949.855    23324950.5104   23324952.7294
        40.6004         38.3004
 16  6 24  0 35 30.0000000  0  8G22G19G 6G23G 2G 9G 3G 7
   4325102.33542   3642493.97945  25029790.862    25029792.9654   25029795.3144
        35.7004         34.1004
  -3588995.90643  -2775700.12245  24317695.323    24317693.7604   24317694.5854
        38.2004         35.7004
 -12517888.82547  -9731232.85347  20637171.313    20637171.7764   20637177.3174
        49.8004         47.2004
 -19241296.63746 -14966637.41347  21067959.598    21067959.5914   21067959.8344
        48.2004         45.4004
  -5346736.05444  -4143574.73146  23017541.718    23017541.4404   23017541.4324
        42.9004         40.2004
 -22009918.61747 -17137812.34048  20145996.501    20145996.5114   20146000.9614
        50.8004         48.0004
  -7450507.19944  -5780516.16546  22999023.929    22999022.9914   22999028.5004
        43.0004         40.2004
  -5400369.87744  -4184365.22946  23305561.116    23305561.5494   23305563.4634
        40.6004         37.9004
 16  6 24  0 36  0.0000000  0  8G22G19G 6G23G 2G 9G 3G 7
   4420473.93442   3716809.52445  25047942.689    25047943.2244   25047943.6004
        35.7004         34.1004
  -3493222.52442  -2701071.53545  24335918.701    24335918.7114   24335920.1654
        37.5004         35.0004
 -12516194.29347  -9729912.44247  20637493.640    20637494.3134   20637499.6654
        50.0004         47.2004
 -19196461.05546 -14931700.59847  21076491.890    21076491.5264   21076491.2674
        48.2004         45.4004
  -5427324.71644  -4206371.08446  23002206.237    23002205.7124   23002205.9444
        42.9004         40.4004
 -22013520.24347 -17140618.79948  20145311.396    20145311.2804   20145315.3104
        50.8004         48.2004
  -7363782.66144  -5712938.61646  23015525.928    23015527.0114   23015531.4284
        43.0004         40.2004
  -5502080.77444  -4263620.43546  23286206.170    23286206.3804   23286209.6624
        40.6004         38.1004
 16  6 24  0 36 30.0000000  0  8G22G19G 6G23G 2G 9G 3G 7
   4515918.02942   3791181.53245  25066108.411    25066104.9174   25066106.2384
        36.1004         34.5004
  -3397272.78743  -2626305.54345  24354179.629    24354178.3174   24354179.8124
        37.8004         35.7004
 -12513901.28047  -9728125.68547  20637929.939    20637930.3754   20637935.7134
        50.0004         47.0004
 -19151276.24146 -14896491.65347  21085089.989    21085090.0914   21085090.2834
        48.1004         45.2004
  -5507594.68244  -4268919.09346  22986932.020    22986930.6094   22986931.4624
        43.0004         40.4004
 -22016656.23547 -17143062.42448  20144714.662    20144714.6754   20144718.6844
        51.0004         48.2004
  -7276874.55244  -5645218.03246  23032064.660    23032064.6764   23032069.9894
        42.9004         39.9004
  -5603613.55244  -4342736.83346  23266884.255    23266885.2154   23266888.2694
        40.6004         38.1004
 16  6 24  0 37  0.0000000  0  8G22G19G 6G23G 2G 9G 3G 7
   4611433.78542   3865609.38245  25084282.562    25084281.0384   25084279.5474
        35.9004         34.1004
  -3301149.92443  -2551404.66045  24372470.131    24372469.7064   24372470.6504
        38.0004         35.9004
 -12511009.47947  -9725872.34147  20638480.357    20638480.7874   20638486.0124
        49.8004         47.0004
 -19105743.60446 -14861011.68747  21093754.960    21093754.3294   21093754.7494
        48.2004         45.2004
  -5587543.74544  -4331217.04146  22971717.609    22971717.7254   22971717.3874
        43.2004         40.7004
 -22019327.21447 -17145143.70648  20144206.161    20144206.0754   20144210.5884
        51.0004         48.4004
  -7189783.63644  -5577355.01246  23048637.339    23048637.1284   23048642.2744
        42.5004         39.7004
  -5704965.53244  -4421712.33346  23247600.077    23247599.3494   23247601.1344
        40.6004         38.1004
 16  6 24  0 37 30.0000000  0  7G19G 6G23G 2G 9G 3G 7
  -3204857.38743  -2476371.55346  24390795.743    24390794.0874   24390794.7334
        38.2004         36.0004
 -12507518.62047  -9723152.19147  20639144.963    20639145.1264   20639150.4854
        49.8004         47.2004
 -19059864.48646 -14825261.72347  21102485.291    21102485.1854   21102485.3324
        48.2004         45.2004
  -5667169.56944  -4393263.10746  22956565.204    22956564.1174   22956565.0074
        43.2004         40.6004
 -22021533.78247 -17146863.10348  20143786.379    20143786.2354   20143790.5414
        51.0004         48.2004
  -7102510.73744  -5509350.17746  23065244.198    23065244.8244   23065250.0184
        42.3004         39.5004
  -5806133.66344  -4500544.59346  23228347.714    23228347.8264   23228349.6294
        40.8004         38.3004
 16  6 24  0 38  0.0000000  0  7G19G 6G23G 2G 9G 3G 7
  -3108398.21143  -2401208.62846  24409150.534    24409148.9304   24409151.1664
        38.2004         36.0004
 -12503428.41647  -9719965.01147  20639922.665    20639923.4284   20639928.9204
        50.0004         47.2004
 -19013640.26546 -14789242.85747  21111281.041    21111281.0954   21111281.3584
        48.1004         45.2004
  -5746469.06944  -4455054.89646  22941474.704    22941473.7894   22941474.9754
        43.2004         40.6004
 -22023276.56047 -17148221.10948  20143454.587    20143454.5194   20143458.8284
        51.0004         48.2004
  -7015056.54844  -5441204.08446  23081885.289    23081885.7924   23081891.3074
        42.0004         39.2004
  -5907115.40644  -4579231.61746  23209131.467    23209130.9214   23209132.9454
        40.9004         38.6004
 16  6 24  0 38 30.0000000  0  7G19G 6G23G 2G 9G 3G 7
  -3011775.55543  -2325918.28546  24427536.764    24427536.3964   24427536.3564
        38.2004         36.0004
 -12498738.61447  -9716310.61947  20640815.361    20640815.8974   20640821.1624
        49.8004         47.0004
 -18967072.47646 -14752956.25847  21120143.348    21120142.8394   21120142.9544
        48.2004         45.4004
  -5825440.38744  -4516590.96746  22926446.318    22926446.9714   22926447.3524
        43.4004         40.7004
 -22024556.18547 -17149218.21348  20143210.820    20143211.1184   20143215.3554
        51.0004         48.4004
  -6927421.92244  -5372917.38046  23098562.964    23098562.5484   23098567.5344
        41.8004         39.2004
  -6007908.52944  -4657771.65746  23189951.733    23189951.0724   23189952.3024
        41.3004         38.8004
 16  6 24  0 39  0.0000000  0  7G19G 6G23G 2G 9G 3G 7
  -2914992.39943  -2250502.87346  24445954.068    24445953.5244   24445955.4124
        38.2004         36.0004
 -12493449.01247  -9712188.85647  20641821.915    20641822.4694   20641827.7404
        49.8004         47.0004
 -18920162.37046 -14716402.93747  21129070.342    21129070.1064   21129070.2624
        48.4004         45.6004
  -5904081.10144  -4577869.42746  22911482.101    22911480.9934   22911482.1684
        43.4004         40.4004
 -22025373.30847 -17149854.93448  20143055.347    20143055.6144   20143059.7454
        51.0004         48.2004
  -6839607.64044  -5304490.68646  23115272.419    23115273.3424   23115278.9144
        41.6004         39.0004
  -6108510.16044  -4736162.49546  23170807.533    23170807.4744   23170809.2524
        41.6004         39.2004
 16  6 24  0 39 30.0000000  0  7G19G 6G23G 2G 9G 3G 7
  -2818052.55843  -2174965.38045  24464400.781    24464400.0084   24464401.9654
        38.2004         35.9004
 -12487559.41947  -9707599.56147  20642942.468    20642943.2674   20642948.4984
        49.6004         46.8004
 -18872911.19146 -14679583.83347  21138061.910    21138061.3074   21138061.5974
        48.4004         45.6004
  -5982388.92244  -4638888.48146  22896580.560    22896579.7764   22896580.3084
        43.2004         40.6004
 -22025728.58847 -17150131.77348  20142987.785    20142987.9814   20142992.2334
        51.0004         48.2004
  -6751614.47044  -5235924.62546  23132017.495    23132018.2054   23132023.2044
        41.6004         39.0004
  -6208917.46144  -4814401.90646  23151699.206    23151700.2134   23151702.0634
        41.8004         39.3004
 16  6 24  0 40  0.0000000  0  7G19G 6G23G 2G 9G 3G 7
  -2720958.69643  -2099307.89346  24482877.646    24482876.6624   24482878.6564
        38.2004         36.0004
 -12481069.67847  -9702542.61947  20644177.345    20644178.1044   20644183.3884
        49.6004         46.6004
 -18825320.77846 -14642500.39747  21147117.153    21147116.9204   21147117.7624
        48.4004         45.4004
  -6060361.44044  -4699646.26846  22881742.986    22881741.8804   22881743.4664
        43.4004         40.7004
 -22025622.68447 -17150049.24248  20143007.830    20143007.8054   20143012.4924
        51.0004         48.4004
  -6663443.24444  -5167219.79146  23148797.418    23148796.4874   23148801.1334
        41.5004         38.8004
  -6309128.54044  -4892488.40746  23132630.236    23132630.8744   23132632.8984
        42.0004         39.5004
 16  6 24  0 40 30.0000000  0  7G19G 6G23G 2G 9G 3G 7
  -2623714.06543  -2023532.89845  24501381.361    24501381.3764   24501384.0164
        38.2004         35.7004
 -12473979.64146  -9697017.91447  20645526.736    20645527.4284   20645532.6054
        49.5004         46.6004
 -18777392.59546 -14605153.75747  21156238.041    21156237.3954   21156238.2434
        48.2004         45.2004
  -6137996.55145  -4760141.13646  22866969.811    22866969.3254   22866969.8674
        43.7004         41.1004
 -22025056.26247 -17149607.87448  20143116.068    20143115.9594   20143120.1924
        51.0004         48.4004
  -6575094.70344  -5098376.79146  23165607.328    23165608.3584   23165614.1484
        41.5004         39.0004
  -6409139.82144  -4970419.20746  23113598.232    23113598.7534   23113602.0584
        42.2004         39.7004
 16  6 24  0 41  0.0000000  0  7G19G 6G23G 2G 9G 3G 7
  -2526322.06343  -1947643.10045  24519915.826    24519914.3924   24519916.5014
        37.8004         35.5004
 -12466289.18946  -9691025.35047  20646989.551    20646990.5984   20646995.8924
        49.5004         46.6004
 -18729127.66346 -14567544.71247  21165422.545    21165421.8504   21165422.5584
        48.2004         45.2004
  -6215291.61745  -4820371.03546  22852261.038    22852260.5064   22852261.1054
        43.9004         41.2004
 -22024030.01747 -17148808.19248  20143311.267    20143311.2084   20143315.7324
        51.0004         48.4004
  -6486569.66244  -5029396.25646  23182454.322    23182454.6514   23182458.8994
        41.5004         38.8004
  -6508949.23144  -5048192.71746  23094605.428    23094605.9694   23094608.8364
        42.3004         39.9004
 16  6 24  0 41 30.0000000  0  7G19G 6G23G 2G 9G 3G 7
  -2428785.60642  -1871640.72145  24538476.079    24538475.0104   24538477.5184
        37.5004         35.3004
 -12457998.20246  -9684564.85247  20648567.922    20648568.3664   20648573.7814
        49.5004         46.8004
 -18680527.53346 -14529674.47747  21174670.062    21174669.8714   21174670.5134
        48.1004         45.2004
  -6292244.57545  -4880334.34846  22837617.405    22837616.6244   22837617.3884
        44.1004         41.4004
 -22022544.66047 -17147650.76548  20143593.385    20143593.5904   20143598.4704
        51.0004         48.2004
  -6397868.91244  -4960278.80646  23199334.381    23199334.8694   23199339.2634
        41.6004         39.3004
  -6608554.06444  -5125806.81546  23075651.868    23075652.3314   23075655.3634
        42.5004         40.0004
 16  6 24  0 42  0.0000000  0  7G19G 6G23G 2G 9G 3G 7
  -2331108.24143  -1795528.57245  24557063.817    24557062.8484   24557064.8194
        37.8004         35.9004
 -12449106.61147  -9677636.34047  20650260.381    20650260.5424   20650265.8204
        49.6004         46.8004
 -18631593.42346 -14491544.01147  21183982.562    21183982.3504   21183982.7534
        48.1004         45.1004
  -6368852.91545  -4940029.14246  22823038.952    22823037.9614   22823039.3254
        43.9004         41.1004
 -22020600.89747 -17146136.13548  20143963.625    20143963.5344   20143968.1114
        51.0004         48.2004
  -6308993.27844  -4891025.06946  23216246.589    23216246.8314   23216250.6144
        41.6004         38.8004
  -6707951.51844  -5203259.32246  23056736.334    23056736.5464   23056740.2654
        42.5004         40.0004
 16  6 24  0 42 30.0000000  0  7G19G 6G23G 2G 9G 3G 7
  -2233292.62243  -1719308.68145  24575677.135    24575676.6824   24575679.9824
        38.0004         35.9004
 -12439614.36047  -9670239.78247  20652066.793    20652066.8344   20652072.2694
        49.6004         46.8004
 -18582326.88446 -14453154.49947  21193358.255    21193357.6644   21193357.7154
        48.1004         45.2004
  -6445114.49545  -4999453.72746  22808526.762    22808526.1284   22808526.8954
        43.9004         40.9004
 -22018199.44447 -17144264.87048  20144420.265    20144420.5184   20144425.2614
        51.0004         48.2004
  -6219943.51444  -4821635.67646  23233190.952    23233191.5514   23233196.7464
        41.5004         38.6004
  -6807139.30344  -5280548.44946  23037862.624    23037862.4344   23037865.5194
        42.7004         40.0004
 16  6 24  0 43  0.0000000  0  7G19G 6G23G 2G 9G 3G 7
  -2135341.89443  -1642983.51746  24594316.483    24594314.9844   24594319.0934
        38.2004         36.0004
 -12429521.41847  -9662375.16047  20653986.504    20653987.3144   20653992.7214
        49.6004         46.8004
 -18532729.15546 -14414506.91547  21202796.223    21202795.7414   21202796.2164
        48.1004         45.2004
  -6521026.76845  -5058606.10046  22794080.824    22794080.7784   22794081.7384
        43.7004         41.1004
 -22015341.02547 -17142037.52648  20144964.576    20144964.5334   20144968.9704
        51.0004         48.2004
  -6130720.46544  -4752111.21846  23250169.151    23250170.0734   23250176.0484
        41.1004         38.5004
  -6906114.68644  -5357672.07746  23019027.730    23019027.9334   23019030.5234
        42.7004         40.0004
 16  6 24  0 43 30.0000000  0  7G19G 6G23G 2G 9G 3G 7
  -2037259.57643  -1566555.80146  24612982.018    24612980.6504   24612982.4054
        38.2004         36.0004
 -12418827.81647  -9654042.49247  20656021.271    20656022.1934   20656027.6714
        49.6004         46.8004
 -18482802.11046 -14375602.72447  21212296.871    21212296.4024   21212296.7024
        48.1004         45.2004
  -6596587.44845  -5117484.50546  22779702.690    22779701.7854   22779703.1424
        43.9004         41.2004
 -22012026.39647 -17139454.69848  20145595.446    20145595.1784   20145599.8664
        51.0004         48.4004
  -6041324.85544  -4682452.34246  23267181.051    23267181.2404   23267187.0994
        41.1004         38.5004
  -7004874.56144  -5434627.78346  23000233.411    23000234.3404   23000237.0674
        42.5004         39.9004
 16  6 24  0 44  0.0000000  0  7G19G 6G23G 2G 9G 3G 7
  -1939048.63543  -1490027.86245  24631670.672    24631669.0494   24631671.4364
        38.0004         35.9004
 -12407533.53147  -9645241.75247  20658170.599    20658171.3544   20658176.9954
        49.6004         46.8004
 -18432547.13346 -14336443.00247  21221859.774    21221859.6464   21221859.8034
        48.1004         45.2004
  -6671794.11545  -5176087.06146  22765390.693    22765390.9544   22765391.7934
        43.9004         41.2004
 -22008256.25747 -17136516.92248  20146312.542    20146312.4044   20146317.2024
        51.0004         48.2004
  -5951757.57344  -4612659.65646  23284224.052    23284225.2844   23284230.8174
        41.1004         38.5004
  -7103416.68444  -5511413.81146  22981482.600    22981482.4044   22981486.7054
        42.7004         40.0004
 16  6 24  0 44 30.0000000  0  7G19G 6G23G 2G 9G 3G 7
  -1840712.33443  -1413402.25446  24650383.834    24650382.3124   24650385.8714
        38.3004         36.2004
 -12395638.63947  -9635973.00747  20660434.934    20660435.4474   20660440.5874
        49.6004         47.0004
 -18381964.89946 -14297028.27047  21231485.090    21231484.4844   21231485.3064
        47.9004         45.1004
  -6746644.57045  -5234412.06546  22751147.825    22751146.5324   22751147.7864
        43.9004         41.1004
 -22004031.44747 -17133224.86248  20147116.665    20147116.6944   20147121.3054
        51.0004         48.4004
  -5862019.37444  -4542733.82046  23301303.389    23301302.8404   23301308.1984
        41.1004         38.6004
  -7201738.78244  -5588028.39346  22962772.806    22962772.1764   22962775.0324
        42.7004         40.0004
 16  6 24  0 45  0.0000000  0  7G19G 6G23G 2G 9G 3G 7
  -1742253.82343  -1336681.43146  24669120.383    24669119.4864   24669120.5484
        38.7004         36.6004
 -12383143.18147  -9626236.28947  20662812.366    20662813.1714   20662818.2704
        49.8004         47.0004
 -18331057.40246 -14257360.08547  21241172.042    21241172.0804   21241173.0884
        47.9004         45.1004
  -6821136.52645  -5292457.72246  22736971.177    22736971.1954   22736972.8054
        43.7004         40.9004
 -21999352.65847 -17129579.04548  20148007.009    20148006.9014   20148011.4894
        51.0004         48.4004
  -5772111.09044  -4472675.41746  23318410.146    23318411.7044   23318417.5774
        41.3004         38.8004
  -7299838.27244  -5664469.51146  22944104.563    22944103.8414   22944107.7544
        42.9004         40.2004
 16  6 24  0 45 30.0000000  0  7G19G 6G23G 2G 9G 3G 7
  -1643675.69943  -1259867.37546  24687878.343    24687878.2564   24687880.9654
        38.7004         36.4004
 -12370047.25147  -9616031.66747  20665304.941    20665305.3924   20665310.1204
        49.8004         47.0004
 -18279826.11146 -14217439.60047  21250921.332    21250921.2194   21250921.5754
        47.9004         44.9004
  -6895267.86545  -5350222.37046  22722865.533    22722864.8614   22722865.8794
        43.7004         41.1004
 -21994220.73047 -17125580.13648  20148983.650    20148983.8304   20148987.8674
        51.0004         48.4004
  -5682033.52044  -4402485.11846  23335552.454    23335553.0944   23335558.2194
        41.5004         38.8004
  -7397711.88244  -5740734.62846  22925479.654    22925480.0614   22925482.7944
        42.9004         40.2004
 16  6 24  0 46  0.0000000  0  7G19G 6G23G 2G 9G 3G 7
  -1544982.14243  -1182963.36846  24706660.214    24706658.8954   24706662.5604
        38.9004         36.7004
 -12356350.95947  -9605359.23047  20667911.261    20667911.7904   20667916.5164
        49.8004         47.0004
 -18228272.30646 -14177267.80047  21260731.275    21260731.2054   21260731.8994
        47.7004         44.9004
  -6969035.89145  -5407703.92846  22708828.163    22708827.4444   22708828.3854
        44.1004         41.4004
 -21988636.41447 -17121228.71648  20150046.276    20150046.2474   20150050.5784
        51.2004         48.4004
  -5591787.46544  -4332163.53646  23352725.930    23352725.9884   23352731.8214
        41.5004         38.8004
  -7495357.55544  -5816822.13046  22906898.168    22906898.8924   22906901.6744
        42.9004         40.2004
 16  6 24  0 46 30.0000000  0  7G19G 6G23G 2G 9G 3G 7
  -1446175.55843  -1105971.30446  24725462.199    24725461.1344   24725464.3544
        38.7004         36.2004
 -12342054.45947  -9594219.10547  20670631.900    20670631.9704   20670637.2944
        49.8004         47.0004
 -18176397.48946 -14136845.86347  21270603.482    21270603.5194   21270603.4284
        47.7004         44.9004
  -7042438.41645  -5464900.66946  22694859.547    22694859.1294   22694860.2924
        43.9004         41.2004
 -21982600.50347 -17116525.41048  20151194.516    20151194.8394   20151199.3764
        51.2004         48.4004
  -5501373.73944  -4261711.29946  23369930.200    23369931.6924   23369936.5244
        41.5004         38.8004
  -7592772.31244  -5892729.72346  22888360.176    22888361.0494   22888363.6324
        43.0004         40.4004
 16  6 24  0 47  0.0000000  0  7G19G 6G23G 2G 9G 3G 7
  -1347259.10043  -1028893.59846  24744285.856    24744283.8234   24744287.3354
        38.5004         36.2004
 -12327157.89247  -9582611.39747  20673465.993    20673466.6854   20673472.0794
        49.8004         47.0004
 -18124203.11046 -14096174.91947  21280536.037    21280535.6094   21280535.2664
        47.9004         44.9004
  -7115473.19845  -5521810.86346  22680961.067    22680961.0554   22680962.1684
        44.1004         41.2004
 -21976113.83147 -17111470.85048  20152428.703    20152428.6604   20152433.7114
        51.0004         48.2004
  -5410793.15044  -4191129.04546  23387168.171    23387168.7654   23387172.9744
        41.3004         38.6004
  -7689954.06744  -5968455.73546  22869867.531    22869867.9034   22869870.4744
        43.0004         40.2004
 16  6 24  0 47 30.0000000  0  7G19G 6G23G 2G 9G 3G 7
  -1248236.19143   -951732.94546  24763128.445    24763128.2914   24763130.2864
        38.7004         36.4004
 -12311661.44747  -9570536.24347  20676415.288    20676415.5824   20676420.7524
        49.8004         46.8004
 -18071690.67646 -14055256.13547  21290528.498    21290528.2934   21290528.4494
        47.9004         45.1004
  -7188137.94245  -5578432.72346  22667133.724    22667133.4234   22667135.0144
        44.1004         41.4004
 -21969177.22647 -17106065.69548  20153748.434    20153748.7244   20153753.4974
        51.0004         48.2004
  -5320046.52344  -4120417.41646  23404437.228    23404437.4204   23404442.3444
        41.3004         38.8004
  -7786899.72144  -6043997.75746  22851419.296    22851420.1444   22851421.8014
        43.2004         40.6004
 16  6 24  0 48  0.0000000  0  7G19G 6G23G 2G 9G 3G 7
  -1149109.66643   -874491.54846  24781992.425    24781990.0824   24781993.1744
        38.3004         36.0004
 -12295565.32847  -9557993.81247  20679478.751    20679479.1384   20679483.4794
        49.8004         46.8004
 -18018861.38146 -14014090.45147  21300581.695    21300581.2754   21300581.4994
        47.7004         44.9004
  -7260430.48645  -5634764.54446  22653376.877    22653376.3024   22653377.3954
        44.1004         41.4004
 -21961791.48047 -17100310.55648  20155154.145    20155154.2534   20155159.0664
        51.0004         48.2004
  -5229134.69244  -4049577.03746  23421735.892    23421737.1064   23421742.7094
        41.3004         38.8004
  -7883606.75144  -6119353.86746  22833017.058    22833017.6844   22833019.2674
        43.4004         40.7004
 16  6 24  0 48 30.0000000  0  7G19G 6G23G 2G 9G 3G 7
  -1049882.83443   -797172.02445  24800872.871    24800871.0014   24800876.3064
        37.8004         35.3004
 -12278869.76546  -9544984.28847  20682654.810    20682655.4094   20682660.4724
        49.5004         46.5004
 -17965716.45446 -13972678.81547  21310694.794    21310694.5994   21310694.6654
        47.9004         44.9004
  -7332348.57145  -5690804.59046  22639691.213    22639690.3424   22639691.8984
        44.1004         41.2004
 -21953957.43747 -17094206.10448  20156645.385    20156645.5674   20156649.8034
        51.0004         48.4004
  -5138058.46144  -3978608.56346  23439069.873    23439068.3054   23439073.4524
        41.1004         38.5004
  -7980072.79345  -6194522.19546  22814660.736    22814660.2134   22814663.0804
        43.6004         40.7004
 16  6 24  0 49  0.0000000  0  7G19G 6G23G 2G 9G 3G 7
   -950558.69542   -719776.67045  24819775.183    24819775.1014   24819778.0824
        37.5004         35.3004
 -12261575.02546  -9531507.87347  20685946.287    20685946.6844   20685951.6684
        49.3004         46.5004
 -17912257.65446 -13931022.60047  21320866.760    21320866.9714   21320867.4844
        47.7004         44.9004
  -7403889.68745  -5746550.89246  22626077.222    22626076.7444   22626077.9944
        43.9004         41.2004
 -21945675.95547 -17087753.00348  20158221.895    20158221.4694   20158225.7024
        51.2004         48.4004
  -5046818.61744  -3907512.60846  23456428.801    23456430.3404   23456435.5074
        40.9004         38.3004
  -8076295.23945  -6269500.69546  22796349.591    22796349.5884   22796352.1254
        43.7004         41.1004
 16  6 24  0 49 30.0000000  0  7G19G 6G23G 2G 9G 3G 7
   -851140.55342   -642308.09745  24838691.982    24838692.1934   24838695.6024
        37.5004         35.2004
 -12243681.38046  -9517564.78247  20689351.115    20689351.3904   20689356.9314
        49.3004         46.5004
 -17858486.32646 -13889122.86147  21331100.162    21331099.5784   21331100.1484
        47.7004         44.9004
  -7475051.82645  -5802001.87946  22612535.356    22612534.4994   22612536.2884
        44.1004         41.4004
 -21936947.87147 -17080951.90248  20159882.633    20159882.3764   20159886.6534
        51.2004         48.5004
  -4955416.01444  -3836289.82046  23473823.539    23473823.7684   23473828.0534
        40.8004         38.1004
  -8172271.34345  -6344287.21846  22778085.488    22778085.4384   22778089.1784
        43.7004         41.1004
 16  6 24  0 50  0.0000000  0  7G19G 6G23G 2G 9G 3G 7
   -751631.48543   -564768.64245  24857629.800    24857628.6624   24857632.5324
        37.8004         35.9004
 -12225189.13146  -9503155.24247  20692869.953    20692870.6034   20692875.8664
        49.3004         46.6004
 -17804403.96546 -13846980.76147  21341391.126    21341390.9084   21341391.7164
        47.7004         44.7004
  -7545832.52945  -5857155.65346  22599066.368    22599066.2084   22599066.5644
        44.2004         41.6004
 -21927774.03547 -17073803.45648  20161628.027    20161628.1074   20161632.3744
        51.2004         48.4004
  -4863851.48244  -3764940.85646  23491247.430    23491248.2684   23491252.8784
        40.6004         37.9004
  -8267998.40845  -6418879.69646  22759868.246    22759868.7374   22759872.4904
        43.7004         40.7004
 16  6 24  0 50 30.0000000  0  7G19G 6G23G 2G 9G 3G 7
   -652034.25643   -487160.48746  24876583.655    24876582.4444   24876584.1074
        38.3004         36.2004
 -12206098.61846  -9488279.51647  20696502.966    20696503.4334   20696508.8644
        49.5004         46.6004
 -17750011.97046 -13804597.38347  21351741.304    21351741.1764   21351742.9874
        47.7004         44.9004
  -7616229.51945  -5912010.42046  22585671.251    22585670.2564   22585670.8824
        44.4004         41.8004
 -21918155.35047 -17066308.36748  20163457.987    20163458.0694   20163462.8544
        51.2004         48.4004
  -4772125.83844  -3693466.34346  23508701.860    23508702.3924   23508707.2614
        40.6004         37.9004
  -8363474.46945  -6493276.58446  22741700.746    22741700.4344   22741703.2834
        43.6004         40.6004
 16  6 24  0 51  0.0000000  0  7G19G 6G23G 2G 9G 3G 7
   -552352.25343   -409486.29446  24895551.749    24895550.7704   24895554.1654
        38.3004         36.0004
 -12186410.17546  -9472937.88947  20700250.059    20700250.4644   20700255.2054
        49.5004         46.6004
 -17695311.61046 -13761973.72847  21362150.606    21362150.7254   21362151.6734
        47.7004         44.7004
  -7686240.55045  -5966564.45246  22572347.940    22572347.1834   22572348.2954
        44.6004         41.8004
 -21908092.72247 -17058467.34148  20165372.460    20165372.6624   20165377.8704
        51.0004         48.4004
  -4680239.95343  -3621866.95846  23526186.694    23526187.5554   23526192.3204
        40.3004         37.6004
  -8458696.56745  -6567475.57446  22723580.724    22723580.6754   22723583.4994
        43.6004         40.6004
 16  6 24  0 51 30.0000000  0  7G19G 6G23G 2G 9G 3G 7
   -452588.52043   -331748.39645  24914536.943    24914535.4144   24914537.9794
        37.6004         35.5004
 -12166124.20146  -9457130.62847  20704109.772    20704110.3704   20704115.7054
        49.5004         46.6004
 -17640304.57846 -13719111.10547  21372618.298    21372618.1984   21372618.9684
        47.7004         44.9004
  -7755863.25945  -6020815.88047  22559099.146    22559098.8484   22559099.6774
        44.8004         42.1004
 -21897586.97547 -17050281.02848  20167372.074    20167371.9704   20167376.7624
        51.0004         48.2004
  -4588194.58743  -3550143.32546  23543701.148    23543701.7824   23543710.5024
        40.1004         37.6004
  -8553661.89045  -6641474.47246  22705508.433    22705508.7684   22705512.4864
        43.6004         40.9004
 16  6 24  0 52  0.0000000  0  7G19G 6G23G 2G 9G 3G 7
   -352746.36042   -253949.38145  24933532.750    24933533.2484   24933537.5484
        37.0004         34.5004
 -12145241.05246  -9440858.04047  20708084.275    20708084.6684   20708089.3014
        49.5004         46.6004
 -17584991.89046 -13676010.31147  21383144.355    21383143.7814   21383144.3074
        47.5004         44.7004
  -7825095.63245  -6074763.16247  22545924.785    22545924.6234   22545924.7634
        44.9004         42.3004
 -21886639.04847 -17041750.16348  20169455.529    20169455.5114   20169460.2014
        51.0004         48.2004
  -4495990.62543  -3478296.09746  23561248.124    23561248.9124   23561255.8454
        40.1004         37.9004
  -8648368.04445  -6715271.45246  22687487.160    22687487.6504   22687489.3424
        43.7004         41.2004
 16  6 24  0 52 30.0000000  0  7G19G 6G23G 2G 9G 3G 7
   -252828.32342   -176091.26345  24952550.026    24952547.1994   24952551.1474
        36.3004         34.3004
 -12123761.17246  -9424120.46847  20712171.221    20712171.8394   20712176.5394
        49.5004         46.6004
 -17529375.27946 -13632672.69447  21393727.317    21393727.2714   21393727.9424
        47.5004         44.5004
  -7893935.39445  -6128404.51947  22532824.932    22532824.2714   22532824.9854
        44.9004         42.1004
 -21875249.82447 -17032875.43548  20171622.990    20171623.0284   20171627.5034
        51.0004         48.2004
  -4403628.81143  -3406325.88246  23578826.524    23578824.6754   23578831.0704
        40.1004         37.8004
  -8742812.58645  -6788864.57946  22669515.319    22669515.7274   22669518.1924
        44.1004         41.4004
 16  6 24  0 53  0.0000000  0  7G19G 6G23G 2G 9G 3G 7
   -152837.90442    -98176.75645  24971577.631    24971575.9644   24971578.9884
        35.9004         34.1004
 -12101685.00646  -9406918.26347  20716372.386    20716372.6204   20716378.0704
        49.5004         46.6004
 -17473456.09846 -13589099.30047  21404368.425    21404367.7264   21404369.1014
        47.4004         44.5004
  -7962380.24545  -6181738.15647  22519800.473    22519799.9794   22519799.5704
        44.9004         42.1004
 -21863420.21747 -17023657.54648  20173873.780    20173873.8514   20173878.2214
        51.0004         48.2004
  -4311110.06643  -3334233.37746  23596429.514    23596431.0934   23596437.8434
        40.3004         37.9004
  -8836992.78045  -6862251.72146  22651593.805    22651593.8094   22651596.4384
        44.2004         41.6004
 16  6 24  0 53 30.0000000  0  7G19G 6G23G 2G 9G 3G 7
    -52778.34142    -20208.35545  24990616.816    24990615.8584   24990619.2474
        35.7004         34.0004
 -12079013.05046  -9389251.79247  20720686.519    20720686.9204   20720692.0814
        49.5004         46.6004
 -17417235.96246 -13545291.40447  21415066.454    21415066.1384   21415067.1354
        47.4004         44.5004
  -8030427.85145  -6234762.24847  22506851.111    22506850.7504   22506851.0724
        44.8004         42.1004
 -21851151.19647 -17014097.25948  20176208.079    20176208.2274   20176212.8154
        50.8004         48.0004
  -4218435.22143  -3262019.21946  23614067.173    23614067.5384   23614072.2214
        40.4004         38.1004
  -8930906.66545  -6935431.34846  22633722.134    22633722.3434   22633724.2024
        44.2004         41.4004
 16  6 24  0 54  0.0000000  0  7G19G 6G23G 2G 9G 3G 7
     47347.79442     57811.98745  25009671.241    25009668.9644   25009673.1164
        35.4004         33.6004
 -12055745.73647  -9371121.42047  20725114.258    20725114.8534   20725119.5184
        49.6004         46.6004
 -17360716.26746 -13501250.08847  21425822.469    21425821.7454   21425822.4704
        47.4004         44.5004
  -8098076.16345  -6287475.20246  22493978.720    22493978.0734   22493978.3934
        44.8004         41.9004
 -21838443.65747 -17004195.26748  20178626.107    20178626.3454   20178631.1214
        50.8004         48.0004
  -4125605.11344  -3189684.11646  23631734.521    23631732.8264   23631737.5424
        40.6004         38.1004
  -9024551.13345  -7008401.03046  22615901.655    22615901.9114   22615904.1994
        44.2004         41.2004
 16  6 24  0 54 30.0000000  0  7G19G 6G23G 2G 9G 3G 7
    147537.06142    135881.46545  25028735.547    25028732.3814   25028737.2354
        35.0004         33.6004
 -12031883.62246  -9352527.57547  20729655.066    20729655.1694   20729660.6264
        49.5004         46.6004
 -17303898.24846 -13456976.30247  21436634.297    21436633.8124   21436634.7064
        47.4004         44.5004
  -8165323.08245  -6339875.38246  22481181.492    22481180.6774   22481181.8284
        44.8004         41.9004
 -21825298.50947 -16993952.28148  20181128.475    20181128.2294   20181132.5234
        50.8004         48.2004
  -4032620.56044  -3117228.61346  23649424.475    23649426.5624   23649431.9884
        40.6004         37.9004
  -9117923.89745  -7081158.99346  22598132.757    22598133.1874   22598136.7724
        44.1004         41.2004
 16  6 24  0 55  0.0000000  0  7G19G 6G23G 2G 9G 3G 7
    247786.53242    213997.94045  25047812.606    25047811.7704   25047817.2064
        35.2004         33.6004
 -12007427.25346  -9333470.66347  20734308.184    20734308.9664   20734314.8584
        49.5004         46.6004
 -17246783.25846 -13412471.11147  21447503.118    21447503.0834   21447503.4544
        47.4004         44.5004
  -8232166.23345  -6391960.94046  22468461.667    22468461.3064   22468462.0934
        44.8004         41.9004
 -21811716.76047 -16983369.09348  20183712.879    20183712.7764   20183717.4314
        51.0004         48.2004
  -3939482.40743  -3044653.46746  23667148.476    23667149.4064   23667156.4284
        40.4004         37.8004
  -9211022.15145  -7153703.05246  22580417.141    22580416.9094   22580420.6924
        43.9004         41.1004
 16  6 24  0 55 30.0000000  0  7G19G 6G23G 2G 9G 3G 7
    348093.44742    292159.13545  25066900.548    25066897.9854   25066904.0894
        35.6004         34.0004
 -11982377.16446  -9313951.11647  20739075.843    20739076.0694   20739081.6594
        49.5004         46.6004
 -17189372.86546 -13367735.73747  21458428.085    21458427.9664   21458427.8984
        47.4004         44.5004
  -8298603.53045  -6443730.25346  22455819.569    22455818.5124   22455819.3784
        44.6004         41.8004
 -21797699.34447 -16972446.42748  20186380.093    20186379.8614   20186384.8564
        51.0004         48.2004
  -3846191.51643  -2971959.26846  23684901.730    23684902.1774   23684907.7434
        40.1004         37.4004
  -9303843.66945  -7226031.46546  22562754.318    22562753.4934   22562756.7344
        43.9004         40.9004
 16  6 24  0 56  0.0000000  0  7G19G 6G23G 2G 9G 3G 7
    448454.00042    370362.12845  25085998.373    25085997.0044   25086001.5164
        35.6004         34.0004
 -11956733.94246  -9293969.40047  20743955.523    20743955.9304   20743960.7804
        49.3004         46.5004
 -17131668.41546 -13322771.23147  21469409.319    21469409.0704   21469409.1154
        47.4004         44.5004
  -8364632.61545  -6495181.47047  22443254.525    22443254.2884   22443254.6924
        44.6004         42.1004
 -21783247.19347 -16961185.00148  20189129.840    20189130.0304   20189135.0354
        51.0004         48.2004
  -3752748.73343  -2899146.75346  23702681.507    23702683.3034   23702689.0524
        39.7004         37.3004
  -9396385.74145  -7298142.13546  22545143.241    22545143.3224   22545147.1474
        43.9004         41.1004
 16  6 24  0 56 30.0000000  0  7G19G 6G23G 2G 9G 3G 7
    548865.66042    448604.92345  25105105.056    25105104.6184   25105111.1204
        35.7004         34.1004
 -11930498.21546  -9273525.97847  20748947.904    20748948.4094   20748953.5734
        49.3004         46.5004
 -17073670.95346 -13277578.40347  21480445.141    21480445.0764   21480445.2874
        47.4004         44.4004
  -8430251.31645  -6546312.92547  22430768.233    22430767.0824   22430767.6004
        44.8004         42.1004
 -21768361.32447 -16949585.60948  20191962.289    20191962.4164   20191967.4234
        51.0004         48.2004
  -3659154.88043  -2826216.48846  23720495.807    23720492.8024   23720500.1274
        39.6004         37.1004
  -9488645.70445  -7370032.98746  22527586.981    22527587.3344   22527589.6464
        43.9004         41.2004
 16  6 24  0 57  0.0000000  0  7G19G 6G23G 2G 9G 3G 7
    649325.28142    526885.06145  25124223.470    25124220.6284   25124224.3944
        35.7004         34.1004
 -11903670.60146  -9252621.35247  20754053.281    20754053.7224   20754058.6544
        49.3004         46.5004
 -17015382.79946 -13232159.06847  21491537.065    21491536.5334   21491537.1684
        47.4004         44.4004
  -8495457.56345  -6597122.97446  22418359.163    22418358.3824   22418359.3354
        44.8004         41.9004
 -21753042.69447 -16937649.01148  20194877.875    20194877.7574   20194882.5444
        51.0004         48.4004
  -3565410.81043  -2753169.19746  23738333.135    23738332.9554   23738337.8014
        39.6004         37.1004
  -9580621.45845  -7441702.36646  22510084.072    22510085.0674   22510087.8024
        44.1004         41.4004
 16  6 24  0 57 30.0000000  0  7G19G 6G23G 2G 9G 3G 7
    749829.99442    605200.37945  25143347.696    25143347.2534   25143349.7134
        35.7004         34.1004
 -11876251.76046  -9231256.02247  20759270.917    20759271.5774   20759276.1494
        49.3004         46.5004
 -16956804.97246 -13186514.01147  21502684.734    21502684.5084   21502684.2734
        47.4004         44.5004
  -8560249.13245  -6647609.90946  22406029.318    22406028.3624   22406029.3724
        44.6004         41.6004
 -21737292.32147 -16925375.98548  20197875.323    20197875.1864   20197879.5804
        51.0004         48.4004
  -3471517.43543  -2680005.53446  23756198.875    23756199.9944   23756206.1284
        39.4004         37.1004
  -9672310.11245  -7513148.04546  22492637.701    22492637.1884   22492640.1394
        44.2004         41.6004
 16  6 24  0 58  0.0000000  0  7G19G 6G23G 2G 9G 3G 7
    850376.38042    683548.15545  25162482.467    25162481.4644   25162484.1334
        35.9004         34.3004
 -11848242.39546  -9209430.54447  20764601.021    20764601.5234   20764606.5464
        49.3004         46.6004
 -16897938.74146 -13140644.21447  21513886.193    21513885.9774   21513885.8284
        47.4004         44.4004
  -8624623.81845  -6697771.99546  22393778.875    22393778.4434   22393779.5074
        44.4004         41.8004
 -21721111.15447 -16912767.29048  20200954.191    20200954.4754   20200959.1654
        51.2004         48.5004
  -3377475.54843  -2606726.16146  23774094.281    23774095.3074   23774101.3634
        39.4004         37.1004
  -9763709.28745  -7584368.14946  22475245.218    22475244.7814   22475248.0454
        44.4004         41.8004
 16  6 24  0 58 30.0000000  0  7G19G 6G23G 2G 9G 3G 7
    950961.82742    761926.38745  25181624.971    25181624.9264   25181625.4414
        36.1004         34.5004
 -11819643.20346  -9187145.46747  20770043.447    20770043.6314   20770048.5714
        49.3004         46.5004
 -16838785.72446 -13094550.96347  21525142.680    21525142.3414   21525142.6394
        47.4004         44.4004
  -8688579.58445  -6747607.64546  22381608.856    22381607.6634   22381609.0794
        44.6004         41.9004
 -21704500.22647 -16899823.70548  20204115.156    20204115.2714   20204119.8924
        51.2004         48.5004
  -3283285.99443  -2533331.75446  23792021.032    23792019.8554   23792025.5924
        39.4004         37.1004
  -9854816.40445  -7655360.68746  22457908.980    22457908.1714   22457910.1914
        44.6004         41.8004
 16  6 24  0 59  0.0000000  0  7G19G 6G23G 2G 9G 3G 7
   1051583.08042    840332.54145  25200770.570    25200768.7894   25200773.9784
        36.4004         34.5004
 -11790454.89246  -9164401.33547  20775597.703    20775598.1494   20775603.2394
        49.5004         46.6004
 -16779347.34846 -13048235.35147  21536453.212    21536453.2074   21536452.7644
        47.4004         44.4004
  -8752114.16745  -6797115.11047  22369518.537    22369517.7024   22369519.0214
        44.8004         42.1004
 -21687460.52047 -16886546.00348  20207357.304    20207357.6964   20207362.5334
        51.2004         48.4004
  -3188949.69043  -2459822.95846  23809969.977    23809971.7704   23809977.2454
        39.4004         37.1004
  -9945629.28345  -7726123.93446  22440626.542    22440626.6644   22440629.3014
        44.6004         41.8004
 16  6 24  0 59 30.0000000  0  7G19G 6G23G 2G 9G 3G 7
   1152236.95342    918764.07445  25219924.457    25219924.9714   25219927.0564
        36.8004         35.0004
 -11760678.23146  -9141198.74647  20781263.753    20781264.2714   20781269.5884
        49.5004         46.6004
 -16719624.66846 -13001698.20147  21547818.823    21547818.0994   21547817.6264
        47.4004         44.4004
  -8815225.37345  -6846292.66347  22357508.656    22357508.3994   22357509.0694
        44.9004         42.1004
 -21669993.05747 -16872934.99148  20210681.247    20210681.7334   20210686.5384
        51.0004         48.4004
  -3094467.45043  -2386200.45446  23827952.266    23827951.5544   23827957.2584
        39.6004         37.3004
 -10036145.30045  -7796655.86646  22423401.507    22423402.2064   22423405.1204
        44.4004         41.6004
 16  6 24  1  0  0.0000000  0  7G19G 6G23G 2G 9G 3G 7
   1252920.77142    997218.89945  25239083.085    25239082.9214   25239086.3934
        37.5004         35.5004
 -11730313.95446  -9117538.27747  20787042.048    20787042.4964   20787047.6344
        49.5004         46.5004
 -16659619.31646 -12954940.79347  21559237.353    21559237.0594   21559236.6374
        47.4004         44.7004
  -8877911.19145  -6895138.75147  22345580.078    22345579.4704   22345580.6094
        44.9004         42.3004
 -21652098.87247 -16858991.46648  20214086.846    20214087.1634   20214091.6294
        51.0004         48.4004
  -2999840.14843  -2312464.90846  23845957.571    23845958.4954   23845964.0544
        39.4004         36.9004
 -10126361.51545  -7866954.19446  22406234.458    22406234.5544   22406236.5574
        44.2004         41.4004
 16  6 24  1  0 30.0000000  0  7G19G 6G23G 2G 9G 3G 7
   1353631.65343   1075694.82445  25258248.803    25258248.1794   25258251.4794
        38.0004         35.9004
 -11699362.91046  -9093420.58547  20792931.514    20792932.1534   20792937.2774
        49.3004         46.3004
 -16599332.78646 -12907964.29047  21570709.341    21570708.8804   21570709.0014
        47.4004         44.5004
  -8940169.29245  -6943651.54247  22333732.692    22333732.3244   22333733.1414
        45.1004         42.5004
 -21633778.99547 -16844716.23348  20217573.133    20217573.0324   20217577.6634
        51.0004         48.2004
  -2905068.60243  -2238617.02146  23863991.815    23863992.0164   23863996.7624
        39.0004         36.4004
 -10216275.88245  -7937017.30146  22389123.538    22389123.8704   22389126.2814
        44.1004         41.2004
 16  6 24  1  1  0.0000000  0  7G19G 6G23G 2G 9G 3G 7
   1454366.34743   1154189.24746  25277417.892    25277416.7434   25277420.3054
        38.3004         36.2004
 -11667825.87346  -9068846.26547  20798932.569    20798933.5944   20798938.7474
        49.1004         46.5004
 -16538766.32646 -12860769.65447  21582235.119    21582234.6594   21582233.9174
        47.4004         44.4004
  -9001997.94345  -6991829.70747  22321967.046    22321966.5744   22321968.1054
        45.1004         42.3004
 -21615034.47847 -16830110.11348  20221140.018    20221140.2474   20221144.3734
        51.0004         48.4004
  -2810153.82243  -2164657.45446  23882052.153    23882053.1094   23882059.0014
        38.7004         36.4004
 -10305885.98445  -8006843.32046  22372072.377    22372072.0964   22372074.3624
        43.9004         41.2004
 16  6 24  1  1 30.0000000  0  7G19G 6G23G 2G 9G 3G 7
   1555121.68943   1232699.78646  25296591.039    25296589.6654   25296593.0324
        38.7004         36.4004
 -11635703.70546  -9043816.00947  20805045.739    20805046.1514   20805051.1744
        49.1004         46.3004
 -16477921.69846 -12813358.25847  21593812.641    21593812.1794   21593812.9284
        47.2004         44.2004
  -9063394.93745  -7039671.51047  22310283.952    22310283.4534   22310283.8194
        45.3004         42.6004
 -21595866.34147 -16815173.90048  20224787.915    20224787.8764   20224791.7974
        51.0004         48.2004
  -2715096.45843  -2090586.82346  23900142.123    23900142.3524   23900149.0894
        38.7004         36.4004
 -10395189.18445  -8076430.20846  22355079.231    22355077.9704   22355081.2274
        44.1004         41.2004
 16  6 24  1  2  0.0000000  0  7G19G 6G23G 2G 9G 3G 7
   1655894.94443   1311224.29646  25315768.133    25315767.4134   25315769.7154
        38.7004         36.4004
 -11602997.25646  -9018330.47747  20811269.464    20811270.0694   20811275.0364
        49.1004         46.3004
 -16416800.09246 -12765731.03247  21605443.761    21605443.5004   21605444.1564
        47.2004         44.4004
  -9124358.06745  -7087175.22947  22298683.201    22298682.7314   22298683.2344
        45.5004         42.6004
 -21576275.66147 -16799908.44048  20228516.030    20228515.8904   20228519.9214
        51.0004         48.2004
  -2619897.59143  -2016405.92346  23918259.866    23918257.9174   23918264.7724
        38.9004         36.6004
 -10484183.17945  -8145776.15546  22338143.498    22338143.0474   22338145.2904
        43.9004         41.2004
 16  6 24  1  2 30.0000000  0  7G19G 6G23G 2G 9G 3G 7
   1756683.06443   1389760.35145  25334946.379    25334945.6694   25334949.6124
        38.2004         35.9004
 -11569707.42046  -8992390.34947  20817604.273    20817604.6094   20817610.3164
        49.3004         46.5004
 -16355402.70346 -12717888.91147  21617127.138    21617126.7044   21617127.5864
        47.0004         44.2004
  -9184885.20245  -7134339.22747  22287165.502    22287164.9224   22287164.8984
        45.3004         42.5004
 -21556263.48547 -16784314.53348  20232323.797    20232323.9244   20232327.9584
        51.0004         48.2004
  -2524557.98443  -1942115.34546  23936401.018    23936401.7614   23936406.3524
        38.9004         36.6004
 -10572865.50345  -8214879.22046  22321267.871    22321267.3744   22321269.6884
        44.1004         41.4004
 16  6 24  1  3  0.0000000  0  7G19G 6G23G 2G 9G 3G 7
   1857483.02343   1468305.59345  25354129.355    25354128.8304   25354131.1784
        38.0004         35.7004
 -11535835.13646  -8965996.36447  20824049.558    20824050.1964   20824055.7914
        49.1004         46.3004
 -16293731.13946 -12669833.15647  21628862.255    21628862.0624   21628863.1744
        46.9004         43.9004
  -9244974.17045  -7181161.77847  22275730.773    22275730.0044   22275730.5844
        45.5004         42.6004
 -21535830.85947 -16768393.00348  20236212.414    20236212.0884   20236216.2434
        51.0004         48.2004
  -2429078.61143  -1867715.84146  23954569.232    23954570.4774   23954576.1144
        39.2004         37.1004
 -10661233.56545  -8283737.42046  22304450.449    22304451.2944   22304454.2394
        44.1004         41.4004
 16  6 24  1  3 30.0000000  0  7G19G 6G23G 2G 9G 3G 7
   1958292.04442   1546857.99145  25373312.454    25373310.0344   25373313.6504
        37.5004         35.2004
 -11501381.31246  -8939149.23047  20830606.259    20830606.9134   20830612.2074
        49.3004         46.5004
 -16231786.84746 -12621564.87247  21640650.370    21640649.6474   21640650.5984
        46.9004         43.9004
  -9304623.19545  -7227641.52047  22264379.530    22264378.9704   22264379.7794
        45.5004         42.6004
 -21514978.86347 -16752144.68348  20240180.004    20240179.9284   20240184.2454
        51.0004         48.2004
  -2333460.23343  -1793208.05546  23972768.463    23972765.9854   23972772.0274
        39.6004         37.3004
 -10749284.98945  -8352348.88146  22287696.158    22287695.4954   22287698.7244
        44.2004         41.6004
 16  6 24  1  4  0.0000000  0  7G19G 6G23G 2G 9G 3G 7
   2059107.15042   1625415.11245  25392497.895    25392497.7184   25392498.2864
        37.0004         34.6004
 -11466346.90346  -8911849.70247  20837273.746    20837274.0974   20837278.8254
        49.3004         46.5004
 -16169571.29946 -12573085.23447  21652490.065    21652489.4524   21652489.7124
        46.9004         44.0004
  -9363830.02045  -7273776.70247  22253113.148    22253112.4014   22253113.1964
        45.5004         42.6004
 -21493708.56647 -16735570.42148  20244227.728    20244227.7364   20244231.9364
        51.0004         48.2004
  -2237703.76143  -1718592.65346  23990989.977    23990988.8744   23990994.5014
        39.6004         37.1004
 -10837017.98745  -8420712.23246  22271001.425    22271000.9394   22271003.0904
        44.2004         41.6004
 16  6 24  1  4 30.0000000  0  7G19G 6G23G 2G 9G 3G 7
   2159925.14342   1703974.46645  25411682.083    25411681.7604   25411684.6254
        36.4004         34.5004
 -11430732.90946  -8884098.54947  20844050.423    20844050.8704   20844055.9644
        49.3004         46.5004
 -16107085.71946 -12524395.17547  21664380.960    21664380.5014   21664380.8224
        46.9004         44.0004
  -9422592.77145  -7319565.83047  22241930.638    22241930.3114   22241930.9774
        45.5004         42.6004
 -21472021.08547 -16718671.08848  20248354.688    20248354.8234   20248358.8724
        51.0004         48.2004
  -2141810.07943  -1643870.31446  24009233.446    24009235.9344   24009241.6384
        39.6004         37.3004
 -10924428.94445  -8488824.64046  22254366.083    22254366.9384   22254369.5604
        44.4004         41.6004
 16  6 24  1  5  0.0000000  0  7G19G 6G23G 2G 9G 3G 7
   2260743.17442   1782533.86445  25430867.759    25430867.1764   25430869.0644
        35.9004         34.0004
 -11394540.31646  -8855896.53547  20850937.506    20850938.0974   20850943.5174
        49.3004         46.6004
 -16044331.57746 -12475495.84647  21676321.812    21676321.7984   21676321.8334
        46.9004         43.9004
  -9480909.23145  -7365007.20947  22230834.075    22230833.4914   22230833.6324
        45.6004         42.8004
 -21449917.49547 -16701447.51148  20252560.929    20252560.8234   20252565.3774
        51.0004         48.2004
  -2045780.11643  -1569041.78146  24027508.501    24027510.0244   24027515.0854
        39.4004         36.9004
 -11011515.89145  -8556684.57046  22237795.226    22237794.8754   22237797.3334
        44.4004         41.8004
 16  6 24  1  5 30.0000000  0  7G19G 6G23G 2G 9G 3G 7
   2361558.45742   1861091.09145  25450052.576    25450050.8474   25450052.0884
        34.9004         33.1004
 -11357770.14946  -8827244.46447  20857934.707    20857935.2434   20857940.1174
        49.3004         46.3004
 -15981310.45846 -12426388.48047  21688315.310    21688314.6614   21688314.7164
        46.9004         43.9004
  -9538777.50745  -7410099.36647  22219821.135    22219821.3454   22219821.7134
        45.6004         42.8004
 -21427398.89047 -16683900.54448  20256846.016    20256846.0674   20256850.5764
        51.0004         48.4004
  -1949614.62643  -1494107.66646  24045810.745    24045810.1904   24045815.6254
        39.2004         36.9004
 -11098276.46545  -8624290.19446  22221284.043    22221284.3004   22221287.3504
        44.4004         41.6004
 16  6 24  1  6  0.0000000  0  7G19G 6G23G 2G 9G 3G 7
   2462367.99741   1939643.89645  25469234.911    25469232.7474   25469237.2634
        33.8004         32.4004
 -11320423.44046  -8798143.13847  20865041.067    20865041.6844   20865047.2834
        49.1004         46.3004
 -15918023.88946 -12377074.28347  21700357.471    21700357.5984   21700358.3654
        46.9004         44.0004
  -9596195.32945  -7454840.53147  22208895.659    22208894.7134   22208895.7374
        45.6004         42.8004
 -21404466.35747 -16666031.03848  20261209.490    20261209.6044   20261214.3614
        51.0004         48.2004
  -1853314.68043  -1419068.75746  24064134.186    24064135.1774   24064139.4924
        39.0004         36.7004
 -11184708.66845  -8691639.93346  22204836.491    22204837.5554   22204839.9594
        44.4004         41.8004
 16  6 24  1  6 30.0000000  0  7G19G 6G23G 2G 9G 3G 7
   2563169.08541   2018190.12845  25488416.129    25488414.9344   25488426.1294
        32.8004         31.7004
 -11282501.26646  -8768593.40947  20872257.740    20872258.3184   20872263.4904
        49.1004         46.3004
 -15854472.49646 -12327553.71047  21712451.521    21712450.7794   21712451.5234
        46.9004         44.0004
  -9653161.01545  -7499229.36547  22198054.613    22198054.6394   22198055.7794
        45.8004         43.2004
 -21381121.05247 -16647839.89148  20265651.914    20265652.2444   20265656.7404
        51.0004         48.2004
  -1756881.04543  -1343925.68246  24082483.736    24082487.1084   24082491.1044
        39.2004         36.9004
 -11270809.87645  -8758731.77146  22188452.919    22188452.8564   22188455.3114
        44.6004         41.8004
 16  6 24  1  7  0.0000000  0  8G30G19G 6G23G 2G 9G 3G 7
                    -41762.84753  24045764.917
                        23.4004
   2663958.54951   2096727.27555  25507595.327    25507595.8834
        32.1004         31.7004
 -11244004.71746  -8738596.10547  20879583.123    20879583.6914   20879589.1524
        48.9004         46.1004
 -15790658.24946 -12277828.33247  21724594.286    21724593.4514   21724594.8484
        46.7004         43.9004
  -9709672.32845  -7543264.13947  22187301.778    22187301.1864   22187301.8784
        46.0004         43.3004
 -21357364.01947 -16629327.91848  20270173.303    20270173.1714   20270177.5184
        51.0004         48.2004
  -1660314.60443  -1268679.14746  24100863.392    24100861.6114   24100866.6334
        38.9004         36.6004
 -11356577.28445  -8825563.50346  22172131.308    22172131.6044   22172134.2534
        44.6004         41.9004
 16  6 24  1  7 30.0000000  0  8G30G19G 6G23G 2G 9G 3G 7
                   -129476.13345  24024347.162
                        35.5004
   2764733.24851   2175252.97055  25526770.992    25526767.0424
        31.9004         31.3004
 -11204934.93646  -8708152.12447  20887017.922    20887018.5674   20887024.0404
        48.9004         46.1004
 -15726582.64846 -12227899.29947  21736787.867    21736787.5014   21736787.9764
        46.7004         43.9004
  -9765727.43245  -7586943.42847  22176634.910    22176634.2764   22176635.0254
        46.2004         43.3004
 -21333196.42547 -16610496.02548  20274772.466    20274772.0744   20274776.2974
        51.0004         48.2004
  -1563616.30643  -1193329.87246  24119263.038    24119262.9044   24119269.4454
        39.0004         36.7004
 -11442008.65045  -8892133.38046  22155874.405    22155875.0154   22155876.8074
        44.8004         41.9004
 16  6 24  1  8  0.0000000  0  8G30G19G 6G23G 2G 9G 3G 7
                   -217121.58446  24002941.863                    24002948.3034
                        36.2004
   2865490.3575    2253764.91355  25545947.239    25545946.1034
        30.9004         31.0004
 -11165293.01546  -8677262.33047  20894562.122    20894562.2644   20894567.6424
        48.9004         46.1004
 -15662246.37146 -12177767.14147  21749030.576    21749029.9854   21749030.8054
        46.7004         43.7004
  -9821324.34645  -7630265.70447  22166055.214    22166054.6544   22166054.8244
        46.2004         43.2004
 -21308619.38847 -16591345.08248  20279448.616    20279448.7934   20279453.1554
        51.0004         48.2004
  -1466787.09643  -1117878.54046  24137687.251    24137688.3914   24137695.2464
        39.2004         36.9004
 -11527101.92345  -8958439.80346  22139682.314    22139681.4284   22139683.9474
        44.8004         41.9004
 16  6 24  1  8 30.0000000  0  8G30G19G 6G23G 2G 9G 3G 7
   -417804.94543   -304697.06046  23981552.295    23981552.3964   23981560.1874
        37.6004         36.4004
                     15085.44153  25565120.556
                        23.4004
 -11125080.13146  -8645927.62547  20902213.893    20902214.1344   20902219.9924
        48.9004         45.9004
 -15597651.50246 -12127433.46947  21761322.106    21761322.2124   21761323.0174
        46.5004         43.7004
  -9876460.87945  -7673229.21547  22155562.486    22155561.4394   22155562.6974
        46.0004         43.2004
 -21283634.01747 -16571875.96248  20284203.099    20284203.3274   20284207.7344
        50.8004         48.2004
  -1369827.71843  -1042325.82346  24156143.588    24156139.2604   24156145.2274
        39.2004         36.9004
 -11611854.74345  -9024480.94246  22123553.544    22123554.2824   22123555.9034
        44.8004         41.9004
 16  6 24  1  9  0.0000000  0  8G30G19G 6G23G 2G 9G 3G 7
   -530101.05443   -392200.44246  23960183.241    23960183.8504   23960190.8334
        38.3004         36.4004
                     93568.60154  25584283.952
                        27.9004
 -11084297.47146  -8614148.93447  20909974.275    20909974.9414   20909980.2934
        48.8004         45.8004
 -15532799.36446 -12076899.33947  21773662.942    21773662.8024   21773664.1234
        46.5004         43.7004
  -9931135.49345  -7715832.80447  22145158.198    22145157.8434   22145158.6274
        46.0004         43.2004
 -21258241.48347 -16552089.56848  20289035.738    20289035.5924   20289039.8734
        50.8004         48.2004
  -1272739.20343   -966672.45946  24174614.983    24174614.7814   24174621.4744
        39.0004         36.7004
 -11696264.46645  -9090254.71847  22107491.723    22107490.2154   22107493.7924
        44.8004         42.1004
 16  6 24  1  9 30.0000000  0  8G30G19G 6G23G 2G 9G 3G 7
   -642302.10753   -479629.77056  23938833.520    23938833.9774   23938839.6134
        38.5004         36.2004
                    172041.68055  25603441.103
                        30.1004
 -11042946.21746  -8581927.18747  20917843.613    20917844.4844   20917849.0954
        48.6004         45.9004
 -15467691.24746 -12026165.74947  21786052.942    21786052.7154   21786053.4674
        46.5004         43.5004
  -9985345.93945  -7758074.70847  22134842.639    22134841.9494   22134842.7054
        46.0004         43.0004
 -21232442.92847 -16531986.79448  20293944.784    20293944.8184   20293949.0674
        51.0004         48.2004
  -1175522.42243   -890919.14246  24193115.447    24193114.1024   24193120.6254
        39.0004         36.7004
 -11780328.96545  -9155759.50347  22091493.878    22091493.8934   22091496.8154
        44.9004         42.3004
 16  6 24  1 10  0.0000000  0  8G30G19G 6G23G 2G 9G 3G 7
   -754405.50643   -566982.99846  23917501.185    23917501.4194   23917507.0174
        38.5004         36.2004
                    250491.70154  25622592.925
                        29.6004
 -11001027.61146  -8549263.33647  20925820.935    20925820.9474   20925826.0994
        48.8004         45.8004
 -15402328.47746 -11975233.72547  21798491.337    21798490.9664   21798491.4884
        46.5004         43.7004
 -10039090.28545  -7799953.41147  22124614.518    22124614.5374   22124615.0904
        45.8004         43.2004
 -21206239.46647 -16511568.51248  20298931.430    20298931.2794   20298935.5644
        51.0004         48.2004
  -1078178.20443   -815066.53246  24211639.103    24211638.2144   24211643.9574
        38.9004         36.6004
 -11864045.80845  -9220993.38847  22075562.548    22075563.0784   22075566.1344
        45.1004         42.5004
 16  6 24  1 10 30.0000000  0  7G30G 6G23G 2G 9G 3G 7
   -866408.65043   -654258.11446  23896187.679    23896188.0494   23896192.4044
        38.5004         36.4004
 -10958542.87546  -8516158.35647  20933904.911    20933905.7694   20933910.6864
        48.6004         45.8004
 -15336712.46846 -11924104.36747  21810977.877    21810977.2394   21810977.9754
        46.5004         43.5004
 -10092366.77045  -7841467.55447  22114476.674    22114476.1684   22114477.4704
        46.0004         43.3004
 -21179632.27847 -16490835.63748  20303994.255    20303994.3744   20303998.7684
        51.0004         48.2004
   -980707.60343   -739115.44446  24230184.240    24230185.5624   24230190.9474
        38.5004         36.2004
 -11947412.44345  -9285954.37547  22059698.089    22059699.2594   22059701.5814
        45.3004         42.5004
 16  6 24  1 11  0.0000000  0  7G30G 6G23G 2G 9G 3G 7
   -978308.93843   -741453.07746  23874893.144    23874893.3704   23874899.4314
        38.7004         36.4004
 -10915493.29746  -8482613.24247  20942096.876    20942097.5924   20942102.9214
        48.6004         45.8004
 -15270844.65545 -11872778.79647  21823511.686    21823511.3474   21823512.5574
        46.3004         43.5004
 -10145173.58445  -7882615.71847  22104428.289    22104427.4054   22104428.8034
        46.2004         43.3004
 -21152622.53747 -16469789.07748  20309133.631    20309134.0154   20309138.5114
        51.0004         48.4004
   -883111.46443   -663066.50846  24248755.416    24248757.0564   24248764.6744
        38.5004         36.0004
 -12030427.29945  -9350641.25547  22043901.979    22043902.4154   22043904.6114
        45.5004         42.6004
 16  6 24  1 11 30.0000000  0  7G30G 6G23G 2G 9G 3G 7
  -1090103.74643   -828565.83546  23853619.355    23853618.4794   23853624.5644
        38.9004         36.6004
 -10871880.14946  -8448628.98047  20950396.334    20950397.2194   20950402.5854
        48.6004         45.9004
 -15204726.39745 -11821258.08347  21836093.645    21836093.0664   21836094.1394
        46.2004         43.3004
 -10197508.49845  -7923396.16347  22094469.455    22094469.1524   22094468.9984
        46.2004         43.3004
 -21125211.35347 -16448429.71248  20314350.443    20314350.3634   20314354.9624
        51.0004         48.4004
   -785390.55843   -586920.37746  24267358.716    24267353.6144   24267360.3504
        38.3004         36.0004
 -12113087.22145  -9415051.54447  22028172.603    22028171.4894   22028174.2214
        45.5004         42.5004
 16  6 24  1 12  0.0000000  0  7G30G 6G23G 2G 9G 3G 7
  -1201790.57443   -915594.46246  23832365.850    23832366.6234   23832370.6404
        38.9004         36.6004
 -10827704.76546  -8414206.61047  20958802.633    20958803.3374   20958808.6204
        48.8004         45.9004
 -15138359.11745 -11769543.32947  21848723.155    21848722.7944   21848723.2164
        46.2004         43.5004
 -10249369.68545  -7963807.47747  22084600.147    22084599.8134   22084600.4384
        46.2004         43.3004
 -21097399.94147 -16426758.47648  20319643.072    20319642.6834   20319647.1474
        51.2004         48.4004
   -687545.99843   -510677.92946  24285973.876    24285973.5774   24285978.5474
        38.3004         36.2004
 -12195389.98445  -9479183.54147  22012511.071    22012510.1794   22012513.1654
        45.5004         42.6004
 16  6 24  1 12 30.0000000  0  7G30G 6G23G 2G 9G 3G 7
  -1313366.77243  -1002536.88746  23811136.541    23811134.4764   23811138.4134
        38.9004         36.7004
 -10782968.44846  -8379347.15447  20967315.905    20967316.3294   20967321.3914
        48.8004         45.9004
 -15071743.89845 -11717635.36947  21861399.278    21861399.0664   21861399.1454
        46.2004         43.2004
 -10300755.35545  -8003848.25747  22074821.969    22074821.7164   22074822.1914
        46.0004         43.0004
 -21069189.47147 -16404776.28848  20325010.770    20325010.9224   20325015.2524
        51.2004         48.4004
   -589578.67743   -434339.73746  24304610.412    24304613.7804   24304620.6114
        38.2004         36.0004
 -12277333.53245  -9543035.62947  21996917.580    21996917.3794   21996920.2424
        45.5004         42.8004
 16  6 24  1 13  0.0000000  0  7G30G 6G23G 2G 9G 3G 7
  -1424829.70843  -1089391.05846  23789924.015    23789922.5924   23789928.5624
        39.0004         36.9004
 -10737672.54846  -8344051.65647  20975935.232    20975935.9574   20975941.3984
        48.8004         46.1004
 -15004882.48445 -11665535.56647  21874122.147    21874122.0954   21874122.9684
        46.2004         43.2004
 -10351663.53845  -8043516.97147  22065134.149    22065133.7424   22065134.6404
        45.8004         43.0004
 -21040581.09947 -16382484.05448  20330454.726    20330454.9104   20330459.3754
        51.0004         48.2004
   -491489.36243   -357906.54045  24323279.910    24323279.4614   24323288.3414
        38.0004         35.9004
 -12358915.66945  -9606606.09847  21981391.823    21981392.0174   21981394.9504
        45.6004         42.8004
 16  6 24  1 13 30.0000000  0  7G30G 6G23G 2G 9G 3G 7
  -1536176.85443  -1176155.00246  23768732.277    23768733.2334   23768739.6834
        39.0004         36.7004
 -10691818.46046  -8308321.20847  20984660.843    20984661.5324   20984666.9424
        48.9004         46.1004
 -14937775.91045 -11613244.74847  21886892.483    21886892.2974   21886892.8574
        46.0004         43.2004
 -10402092.70545  -8082812.42647  22055538.093    22055537.8644   22055537.9924
        45.6004         43.0004
 -21011576.00247 -16359882.68348  20335974.793    20335974.5874   20335978.9014
        51.0004         48.2004
   -393279.11643   -281379.09745  24341970.913    24341970.2844   24341975.4994
        37.8004         35.7004
 -12440134.17145  -9669893.21447  21965936.758    21965937.0524   21965939.7824
        45.8004         43.0004
 16  6 24  1 14  0.0000000  0  7G30G 6G23G 2G 9G 3G 7
  -1647405.57843  -1262826.68246  23747567.487    23747567.8204   23747574.2924
        39.4004         37.1004
 -10645407.56346  -8272156.88647  20993492.849    20993493.3724   20993498.3204
        48.8004         46.1004
 -14870425.70945 -11560764.06847  21899708.142    21899707.7714   21899709.2104
        46.0004         43.2004
 -10452040.82645  -8121733.04647  22046033.338    22046032.8094   22046033.3594
        45.5004         42.5004
 -20982175.40647 -16336973.13048  20341569.242    20341569.2574   20341573.5644
        51.0004         48.2004
   -294948.75442   -204758.09845  24360684.695    24360681.3044   24360688.3274
        37.5004         35.2004
 -12520986.58445  -9732895.06947  21950550.946    21950551.8764   21950554.1264
        46.0004         43.3004
 16  6 24  1 14 30.0000000  0  7G30G 6G23G 2G 9G 3G 7
  -1758513.33743  -1349404.07546  23726423.384    23726423.5144   23726431.4994
        39.4004         36.9004
 -10598441.27746  -8235559.79347  21002430.455    21002431.0054   21002436.1864
        48.9004         46.1004
 -14802833.28945 -11508094.66447  21912571.800    21912571.4014   21912571.5184
        46.0004         43.2004
 -10501506.01745  -8160277.34347  22036620.746    22036619.7854   22036620.7454
        45.3004         42.6004
 -20952380.48647 -16313756.30648  20347238.989    20347238.9444   20347243.4624
        51.0004         48.0004
   -196499.37543   -128044.31045  24379408.058    24379414.3644   24379422.0024
        37.6004         35.5004
 -12601470.39445  -9795609.69447  21935236.655    21935236.8564   21935238.9214
        46.2004         43.3004
 16  6 24  1 15  0.0000000  0  7G30G 6G23G 2G 9G 3G 7
  -1869497.43443  -1435885.11346  23705304.149    23705304.2894   23705311.0804
        39.6004         37.1004
 -10550921.04246  -8198531.04247  21011473.097    21011473.6304   21011479.1294
        48.9004         45.9004
 -14734999.88045 -11455237.46047  21925479.991    21925479.1884   21925479.9424
        46.2004         43.3004
 -10550486.62445  -8198444.04947  22027299.955    22027298.8314   22027299.9294
        45.3004         42.6004
 -20922192.40447 -16290233.12948  20352982.966    20352983.2224   20352987.8074
        50.8004         48.0004
    -97931.74542    -51238.35945  24398168.186    24398169.7944   24398178.7174
        37.5004         35.3004
 -12681583.61745  -9858035.55447  21919991.278    21919991.1334   21919993.8734
        46.2004         43.3004
 16  6 24  1 15 30.0000000  0  7G30G 6G23G 2G 9G 3G 7
  -1980355.26743  -1522267.78246  23684209.803    23684208.7914   23684215.4484
        39.6004         37.1004
 -10502848.30446  -8161071.77147  21020620.842    21020621.2584   21020626.7224
        48.8004         45.9004
 -14666927.05045 -11402193.69947  21938434.115    21938434.1324   21938434.0464
        46.2004         43.5004
 -10598980.80045  -8236231.72047  22018071.818    22018071.0464   22018071.9764
        45.3004         42.5004
 -20891612.37947 -16266404.53448  20358802.229    20358802.4114   20358807.1064
        50.8004         48.0004
       753.12742     25658.90445  24416948.116    24416950.5644   24416958.2214
        37.5004         35.3004
 -12761323.85445  -9920170.78647  21904816.249    21904817.4364   21904819.2484
        46.2004         43.2004
 16  6 24  1 16  0.0000000  0  7G30G 6G23G 2G 9G 3G 7
  -2091084.28343  -1608550.06546  23663138.465    23663138.0804   23663144.0304
        39.4004         37.1004
 -10454224.51446  -8123183.12047  21029873.804    21029874.1424   21029879.7904
        48.6004         45.8004
 -14598615.80645 -11348964.16747  21951432.422    21951432.5184   21951432.8584
        46.2004         43.5004
 -10646986.65245  -8273638.87547  22008936.212    22008935.4814   22008936.7084
        45.1004         42.3004
 -20860641.63647 -16242271.48448  20364695.760    20364695.8604   20364700.9244
        50.8004         48.0004
     99554.45142    102646.91945  24435755.946    24435753.1264   24435759.9934
        37.5004         35.5004
 -12840689.03845  -9982013.75747  21889714.574    21889714.1354   21889716.7174
        46.0004         43.2004
 16  6 24  1 16 30.0000000  0  7G30G 6G23G 2G 9G 3G 7
  -2201681.92043  -1694729.96646  23642092.141    23642091.7504   23642097.9954
        39.6004         37.1004
 -10405051.22246  -8084866.27547  21039231.528    21039231.7294   21039237.2854
        48.6004         45.8004
 -14530067.95145 -11295550.25347  21964477.997    21964477.6044   21964476.7474
        46.2004         43.3004
 -10694502.81945  -8310664.47047  21999894.407    21999894.0644   21999894.5404
        45.1004         42.5004
 -20829281.36447 -16217834.90348  20370663.571    20370663.7254   20370668.4674
        50.8004         48.0004
    198471.15842    179724.81645  24454579.840    24454576.3344   24454582.6564
        37.5004         35.3004
 -12919676.87045 -10043562.69147  21874683.334    21874682.9434   21874686.0734
        46.0004         43.2004
 16  6 24  1 17  0.0000000  0  7G30G 6G23G 2G 9G 3G 7
  -2312145.51343  -1780805.42646  23621071.807    23621072.1784   23621077.4704
        39.6004         37.3004
 -10355329.88546  -8046122.39347  21048692.946    21048693.1754   21048698.4284
        48.6004         45.8004
 -14461284.51845 -11241952.78347  21977566.362    21977565.9994   21977566.0644
        46.0004         43.2004
 -10741526.87545  -8347306.59147  21990945.887    21990945.2384   21990945.7694
        45.3004         42.6004
 -20797532.78447 -16193095.74448  20376705.423    20376705.2454   20376709.7504
        50.8004         48.0004
    297502.31543    256891.94845  24473418.561    24473422.3114   24473426.8194
        38.0004         35.9004
 -12998285.30845 -10104816.00347  21859724.383    21859724.1494   21859726.7844
        46.0004         43.2004
 16  6 24  1 17 30.0000000  0  8G30G 6G23G 2G 9G 3G16G 7
  -2422472.46643  -1866774.42146  23600078.920    23600078.1994   23600083.0714
        39.6004         37.3004
 -10305062.11446  -8006952.70747  21058258.598    21058258.9944   21058264.1654
        48.4004         45.6004
 -14392266.89745 -11188172.82147  21990699.830    21990699.6264   21990700.1354
        46.0004         43.0004
 -10788057.45845  -8383564.19247  21982091.534    21982091.2064   21982091.8844
        45.5004         42.8004
 -20765397.09847 -16168054.95148  20382820.729    20382820.5124   20382825.1834
        50.8004         48.0004
    396646.95643    334147.52445  24492285.404    24492287.5304   24492293.7994
        37.8004         35.7004
                    -60125.19455  24418218.091
                        33.1004
 -13076512.39445 -10165772.15647  21844838.417    21844838.1534   21844840.9824
        46.0004         43.2004
 16  6 24  1 18  0.0000000  0  7G30G 6G23G 2G 9G 3G 7
  -2532660.24243  -1952634.96046  23579110.919    23579109.3354   23579114.7844
        39.7004         37.4004
 -10254249.41246  -7967358.39847  21067927.692    21067928.2554   21067933.5364
        48.4004         45.6004
 -14323016.50645 -11134211.48047  22003877.240    22003877.0954   22003877.4104
        45.8004         43.0004
 -10834093.07445  -8419436.10747  21973331.575    21973330.9144   21973331.2124
        45.8004         43.0004
 -20732875.53147 -16142713.46748  20389008.912    20389009.3424   20389013.8514
        50.8004         48.0004
    495904.24643    411490.86145  24511173.202    24511175.0694   24511182.3824
        37.8004         35.5004
 -13154355.32845 -10226428.95847  21830026.149    21830026.0834   21830028.1174
        46.2004         43.3004
 16  6 24  1 18 30.0000000  0  7G30G 6G23G 2G 9G 3G 7
  -2642706.14443  -2038384.94446  23558169.760    23558168.8234   23558174.8824
        39.9004         37.6004
 -10202893.36546  -7927340.71147  21077700.182    21077700.3564   21077705.9074
        48.4004         45.4004
 -14253534.70345 -11080069.82247  22017100.282    22017099.9594   22017099.4844
        45.8004         43.0004
 -10879631.93545  -8454920.94047  21964665.195    21964664.8014   21964665.7334
        45.8004         43.0004
 -20699969.34047 -16117072.27748  20395270.948    20395271.0794   20395275.5874
        50.8004         48.0004
    595273.24043    488921.20645  24530090.048    24530084.7224   24530090.9384
        37.6004         35.3004
 -13231811.74845 -10286784.59247  21815285.884    21815286.0794   21815288.1104
        46.2004         43.3004
 16  6 24  1 19  0.0000000  0  7G30G 6G23G 2G 9G 3G 7
  -2752607.61643  -2124022.39246  23537254.633    23537254.7484   23537260.3744
        40.1004         37.8004
 -10150995.58946  -7886900.89647  21087575.691    21087576.3664   21087581.9924
        48.2004         45.4004
 -14183822.78445 -11025748.84647  22030364.629    22030365.0684   22030365.3344
        45.8004         43.0004
 -10924671.98745  -8490017.08347  21956094.412    21956093.4684   21956094.2494
        45.6004         43.0004
 -20666679.71347 -16091132.31647  20401606.071    20401605.9894   20401610.2264
        50.7004         47.8004
    694752.92743    566437.77645  24549021.906    24549018.1824   24549022.7674
        37.8004         35.5004
 -13308880.12145 -10346837.85147  21800620.692    21800619.8604   21800622.7434
        46.0004         43.2004
 16  6 24  1 19 30.0000000  0  7G30G 6G23G 2G 9G 3G 7
  -2862362.02743  -2209545.23946  23516368.192    23516368.0064   23516374.9914
        40.3004         37.8004
 -10098557.67746  -7846040.20647  21097554.795    21097555.0414   21097560.3294
        48.2004         45.4004
 -14113881.93145 -10971249.48647  22043674.962    22043674.7304   22043675.0724
        45.6004         42.8004
 -10969211.81845  -8524723.45247  21947618.877    21947618.3914   21947619.0234
        45.8004         42.8004
 -20633007.88447 -16064894.52548  20408013.684    20408013.8014   20408017.9104
        50.7004         48.0004
    794342.24843    644039.88245  24567957.649    24567964.9714   24567973.0224
        37.6004         35.3004
 -13385558.06045 -10406586.87947  21786028.699    21786028.6334   21786031.3954
        46.0004         43.2004
 16  6 24  1 20  0.0000000  0  7G30G 6G23G 2G 9G 3G 7
  -2971966.78643  -2294951.48246  23495510.966    23495511.1364   23495517.0884
        40.3004         37.9004
 -10045581.28446  -7804759.90347  21107635.654    21107636.2464   21107641.5734
        48.2004         45.4004
 -14043713.63045 -10916572.88347  22057027.154    22057027.0554   22057027.2234
        45.6004         42.8004
 -11013249.31845  -8559038.39847  21939238.629    21939237.5284   21939238.8784
        45.5004         42.5004
 -20598955.11447 -16038359.89448  20414493.319    20414493.4164   20414497.9724
        50.7004         48.0004
    894040.51542    721726.86645  24586937.622    24586937.0784   24586945.3074
        37.3004         35.2004
 -13461843.14645 -10466029.78347  21771511.991    21771512.4894   21771515.6014
        45.8004         43.2004
 16  6 24  1 20 30.0000000  0  7G30G 6G23G 2G 9G 3G 7
  -3081419.31043  -2380239.09046  23474685.163    23474683.2894   23474689.3304
        40.3004         37.9004
  -9992068.04746  -7763061.28947  21117819.405    21117819.6314   21117825.2994
        48.2004         45.4004
 -13973319.29145 -10861720.16447  22070423.663    22070423.6084   22070422.3194
        45.6004         42.8004
 -11056783.16345  -8592960.86847  21930954.260    21930953.7024   21930954.2844
        45.5004         42.6004
 -20564522.62547 -16011529.38447  20421045.411    20421045.4654   20421050.1104
        50.7004         47.8004
    993846.63842    799497.81545  24605929.870    24605930.6464   24605937.5664
        37.3004         35.2004
 -13537733.66645 -10525165.22047  21757071.247    21757071.1004   21757073.3474
        46.0004         43.3004
 16  6 24  1 21  0.0000000  0  7G30G 6G23G 2G 9G 3G 7
  -3190716.98543  -2465406.03746  23453884.759    23453884.3014   23453890.3914
        40.4004         37.9004
  -9938019.65846  -7720945.67147  21128104.181    21128104.4584   21128110.0594
        48.1004         45.1004
 -13902700.28345 -10806692.36947  22083860.733    22083860.8284   22083861.6834
        45.5004         42.6004
 -11099811.94245  -8626489.79447  21922766.782    21922765.7644   21922766.8894
        45.6004         42.8004
 -20529711.66747 -15984403.96247  20427670.183    20427669.9084   20427674.6904
        50.7004         47.8004
   1093759.68642    877352.10045  24624946.389    24624945.3624   24624949.0114
        37.5004         35.5004
 -13613227.46345 -10583991.53047  21742705.477    21742705.1404   21742707.0514
        46.2004         43.3004
 16  6 24  1 21 30.0000000  0  7G30G 6G23G 2G 9G 3G 7
  -3299857.15743  -2550450.25546  23433115.085    23433115.5874   23433121.5004
        40.4004         37.9004
  -9883437.82246  -7678414.38447  21138490.286    21138490.9084   21138496.6404
        48.1004         45.2004
 -13831857.81245 -10751490.44447  22097342.710    22097341.9094   22097341.8594
        45.5004         42.8004
 -11142333.98445  -8659623.84447  21914674.553    21914673.8114   21914675.7754
        45.6004         42.8004
 -20494523.48847 -15956984.59348  20434365.997    20434366.2734   20434370.5844
        50.7004         48.0004
   1193778.70942    955288.97245  24643979.773    24643978.8894   24643982.5694
        37.3004         35.0004
 -13688322.36845 -10642507.01747  21728414.400    21728414.8774   21728417.1254
        46.3004         43.5004
 16  6 24  1 22  0.0000000  0  7G30G 6G23G 2G 9G 3G 7
  -3408837.28844  -2635369.79446  23412376.352    23412377.4534   23412382.4364
        40.6004         38.1004
  -9828324.22346  -7635468.73347  21148978.732    21148978.7714   21148984.5724
        47.9004         45.1004
 -13760793.24945 -10696115.46647  22110865.731    22110864.6624   22110864.9584
        45.6004         42.8004
 -11184347.56545  -8692361.69647  21906680.088    21906679.1424   21906680.7804
        45.6004         43.0004
 -20458959.30747 -15929272.24547  20441133.911    20441133.9434   20441138.1284
        50.7004         47.8004
   1293902.58442   1033307.57145  24663028.328    24663030.6284   24663034.3744
        37.3004         35.3004
 -13763015.84045 -10700709.71147  21714201.281    21714201.3324   21714202.7494
        46.3004         43.5004
 16  6 24  1 22 30.0000000  0  7G30G 6G23G 2G 9G 3G 7
  -3517654.70844  -2720162.53746  23391670.238    23391670.4304   23391674.6494
        40.8004         38.3004
  -9772680.60146  -7592110.07347  21159567.237    21159567.7274   21159572.8004
        47.9004         45.1004
 -13689507.63645 -10640568.22847  22124429.883    22124430.4014   22124431.1734
        45.5004         42.6004
 -11225851.13445  -8724702.13247  21898782.006    21898781.3014   21898782.4344
        45.8004         43.2004
 -20423020.39747 -15901267.90648  20447972.872    20447973.0554   20447977.2934
        50.7004         48.0004
   1394130.55342   1111407.30745  24682103.590    24682103.0064   24682109.3874
        37.3004         35.3004
 -13837305.97645 -10758598.11747  21700064.393    21700063.9474   21700066.2884
        46.3004         43.5004
 16  6 24  1 23  0.0000000  0  7G30G 6G23G 2G 9G 3G 7
  -3626306.87044  -2804826.50446  23370994.684    23370994.6524   23370999.2944
        40.8004         38.1004
  -9716508.71346  -7548339.78747  21170256.788    21170257.0464   21170261.8254
        48.1004         45.2004
 -13618002.14445 -10584849.68147  22138036.818    22138036.1674   22138037.6534
        45.5004         42.5004
 -11266842.90945  -8756643.77847  21890981.632    21890980.8404   21890981.7884
        46.0004         43.2004
 -20386708.01747 -15872972.54148  20454883.114    20454882.9724   20454887.4424
        50.8004         48.0004
   1494461.66242   1189587.32545  24701197.188    24701195.7904   24701201.5624
        37.3004         35.3004
 -13911190.91145 -10816170.77747  21686003.926    21686004.0844   21686006.8784
        46.3004         43.7004
 16  6 24  1 23 30.0000000  0  7G30G 6G23G 2G 9G 3G 7
  -3734791.13044  -2889359.64446  23350351.731    23350351.1304   23350355.6344
        40.8004         38.3004
  -9659810.34246  -7504159.24547  21181046.212    21181046.7584   21181051.5634
        48.1004         45.2004
 -13546278.62745 -10528961.22447  22151685.170    22151685.0914   22151686.0844
        45.3004         42.5004
 -11307321.56845  -8788185.58347  21883279.041    21883278.4054   21883279.1944
        46.2004         43.5004
 -20350023.41247 -15844387.13548  20461864.243    20461863.8894   20461868.3594
        50.8004         48.0004
   1594894.81542   1267846.93745  24720306.775    24720308.0664   24720314.3214
        37.5004         35.3004
 -13984668.73745 -10873426.20647  21672021.631    21672021.4314   21672024.1044
        46.3004         43.7004
 16  6 24  1 24  0.0000000  0  7G30G 6G23G 2G 9G 3G 7
  -3843104.91244  -2973759.93346  23329739.538    23329739.6944   23329744.6434
        40.9004         38.5004
  -9602587.27446  -7459569.85047  21191934.856    21191935.3294   21191940.6554
        48.1004         45.2004
 -13474338.19845 -10472903.74847  22165374.796    22165374.5734   22165376.9774
        45.1004         42.5004
 -11347285.63245  -8819326.39847  21875673.781    21875673.2094   21875673.9374
        46.2004         43.3004
 -20312967.84547 -15815512.66448  20468915.294    20468915.3574   20468920.0034
        50.8004         48.0004
   1695429.15143   1346185.33745  24739441.231    24739440.0324   24739445.0824
        37.6004         35.7004
 -14057736.80146 -10930362.32447  21658116.838    21658117.2694   21658119.9654
        46.5004         43.7004
 16  6 24  1 24 30.0000000  0  7G30G 6G23G 2G 9G 3G 7
  -3951245.58744  -3058025.33146  23309160.658    23309160.2724   23309165.6344
        41.1004         38.6004
  -9544841.30146  -7414572.99547  21202923.454    21202924.0484   21202929.6234
        48.1004         45.2004
 -13402182.04745 -10416678.18447  22179106.272    22179105.4794   22179107.5434
        45.3004         42.5004
 -11386733.39845  -8850064.89747  21868167.315    21868167.3874   21868167.0254
        46.2004         43.5004
 -20275542.58647 -15786350.12748  20476037.425    20476037.3924   20476041.4444
        50.8004         48.0004
   1796063.65643   1424601.79345  24758589.887    24758589.0624   24758594.4934
        37.6004         35.3004
 -14130393.66246 -10986978.03847  21644290.323    21644290.7694   21644293.4344
        46.5004         43.7004
 16  6 24  1 25  0.0000000  0  8G30G 6G23G 2G 9G 3G16G 7
  -4059210.55044  -3142153.80246  23288615.795    23288614.6364   23288620.6464
        41.3004         39.0004
  -9486574.25846  -7369170.11547  21214011.838    21214011.9404   21214017.5424
        48.1004         45.2004
 -13329811.75145 -10360285.75047  22192877.575    22192877.2044   22192879.2034
        45.3004         42.3004
 -11425663.40445  -8880399.96847  21860759.564    21860758.8514   21860759.1234
        46.2004         43.2004
 -20237748.89047 -15756900.48848  20483228.920    20483229.0044   20483233.5594
        50.8004         48.0004
   1896797.36843   1503095.59945  24777755.620    24777757.0214   24777765.0024
        37.6004         35.5004
                     -8158.81253  24298972.103
                        23.4004
 -14202636.93546 -11043271.46347  21630543.784    21630543.5514   21630546.8104
        46.5004         43.9004
 16  6 24  1 25 30.0000000  0  8G30G 6G23G26G 2G 9G 3G 7
  -4166997.23844  -3226143.37846  23268103.208    23268103.8614   23268109.9064
        41.6004         39.2004
  -9427787.97046  -7323362.63047  21225198.116    21225198.4584   21225203.8534
        48.1004         45.1004
 -13257228.54145 -10303727.40247  22206690.605    22206690.0244   22206691.0594
        45.3004         42.6004
                      5410.98853  24990929.388
                        23.4004
 -11464074.42845  -8910330.62047  21853449.744    21853449.4074   21853449.4424
        46.2004         43.3004
 -20199588.03547 -15727164.76147  20490490.333    20490490.8264   20490494.9264
        50.7004         47.8004
   1997629.31043   1581665.91245  24796942.491    24796944.8524   24796951.3814
        37.8004         35.7004
 -14274464.35046 -11099240.85447  21616875.918    21616875.0834   21616877.4334
        46.5004         43.9004
 16  6 24  1 26  0.0000000  0  9G30G29G 6G23G 2G 9G 3G16G 7
  -4274602.97844  -3309991.95246  23247628.450    23247627.9024   23247632.8504
        42.0004         39.5004
                    -58075.03155  24887642.660
                        30.0004
  -9368484.31946  -7277152.00847  21236483.558    21236483.7954   21236489.1374
        48.1004         45.2004
 -13184433.33345 -10247003.88047  22220542.360    22220541.6504   22220543.0884
        45.1004         42.3004
 -11501964.45545  -8939855.29247  21846239.359    21846239.0724   21846239.7614
        46.2004         43.3004
 -20161061.25247 -15697143.88447  20497821.657    20497821.8654   20497826.5004
        50.5004         47.7004
   2098558.56043   1660312.05745  24816152.425    24816151.1374   24816157.9874
        37.6004         35.5004
                    -66320.20345  24284766.169
                        32.0004
 -14345874.21346 -11154884.87847  21603285.896    21603286.4794   21603288.7964
        46.7004         43.9004
 16  6 24  1 26 30.0000000  0  7G30G 6G23G 2G 9G 3G 7
  -4382025.23244  -3393697.54746  23227187.213    23227186.1254   23227191.4094
        42.2004         39.5004
  -9308665.19346  -7230539.70847  21247866.500    21247867.0834   21247872.3874
        48.1004         45.1004
 -13111427.71745 -10190116.39247  22234435.741    22234435.3284   22234435.5574
        45.1004         42.3004
 -11539332.18845  -8968972.99447  21839128.990    21839128.3664   21839128.6274
        46.2004         43.2004
 -20122169.87147 -15666838.90847  20505222.206    20505222.0564   20505226.9924
        50.5004         47.5004
   2199584.03143   1739033.18045  24835380.884    24835376.4864   24835383.2264
        37.8004         35.7004
 -14416864.69246 -11210202.11847  21589776.807    21589777.3084   21589780.0384
        46.7004         44.0004
 16  6 24  1 27  0.0000000  0  9G30G 6G23G26G 2G 9G 3G16G 7
  -4489261.40644  -3477258.15346  23206780.601    23206779.4114   23206785.1334
        42.3004         39.5004
  -9248332.47546  -7183527.21047  21259346.811    21259347.8834   21259353.2484
        47.9004         45.1004
 -13038212.95045 -10133065.92147  22248367.445    22248367.0084   22248367.5964
        45.1004         42.3004
                      5183.29243  24999807.763
                        23.4004
 -11576176.25445  -8997682.63547  21832117.209    21832117.2184   21832117.6394
        46.0004         43.2004
 -20082915.14047 -15636250.80647  20512692.053    20512692.3264   20512696.8364
        50.3004         47.5004
   2300704.78143   1817828.54645  24854620.688    24854619.0134   24854624.9794
        37.6004         35.5004
                    -30176.43955  24270970.815
                        31.9004
 -14487433.40746 -11265190.70647  21576348.040    21576348.6454   21576351.0874
        46.9004         44.0004
 16  6 24  1 27 30.0000000  0  9G30G 6G23G26G 2G 9G 3G16G 7
  -4596308.87744  -3560671.71446  23186409.964    23186409.2434   23186414.9364
        42.2004         39.7004
  -9187488.08346  -7136116.00647  21270926.228    21270926.3084   21270931.7624
        47.9004         45.1004
 -12964790.28645 -10075853.46747  22262340.259    22262339.7484   22262339.6224
        45.1004         42.3004
                     18164.76545  25002979.465
                        34.6004
 -11612495.43745  -9025983.28447  21825206.051    21825205.5804   21825205.7624
        46.0004         43.3004
 -20043298.35647 -15605380.58247  20520231.026    20520230.9824   20520235.7044
        50.3004         47.5004
   2401919.93142   1896697.47445  24873881.639    24873879.9264   24873884.7664
        37.3004         35.3004
                    -57787.53444  24264227.485
                        29.6004
 -14557578.47946 -11319849.18547  21562999.859    21563000.2064   21563002.5164
        46.9004         44.0004
 16  6 24  1 28  0.0000000  0  8G30G 6G23G 2G 9G 3G16G 7
  -4703165.06444  -3643936.23646  23166075.368    23166074.5414   23166080.7234
        42.2004         39.7004
  -9126133.93846  -7088307.58647  21282600.307    21282601.1384   21282607.0704
        47.7004         44.9004
 -12891161.03245 -10018480.02147  22276350.517    22276350.6204   22276350.6834
        44.9004         42.3004
 -11648288.06545  -9053873.63347  21818394.928    21818394.2044   21818395.2054
        46.2004         43.3004
 -20003320.76147 -15574229.20547  20527838.511    20527838.9174   20527843.1614
        50.3004         47.5004
   2503228.32042   1975639.03945  24893159.915    24893157.7994   24893163.9524
        37.5004         35.5004
                    -84975.15845  24257587.697                    24257588.8244
                        33.8004
 -14627298.07346 -11374176.12247  21549732.937    21549733.3404   21549735.6474
        47.0004         44.2004
 16  6 24  1 28 30.0000000  0  9G30G 6G23G26G 2G 9G 3G16G 7
  -4809827.34644  -3727049.65746  23145778.828    23145777.7704   23145783.1124
        42.2004         39.5004
  -9064272.00346  -7040103.49847  21294373.491    21294374.0484   21294379.2304
        47.7004         45.1004
 -12817326.59045  -9960946.68147  22290401.035    22290400.3514   22290400.8764
        44.9004         42.1004
                     45418.04345  25009635.111                    25009641.9824
                        35.2004
 -11683553.04745  -9081352.83747  21811685.099    21811684.3054   21811685.0424
        46.3004         43.7004
 -19962983.67347 -15542797.69947  20535514.788    20535514.5344   20535519.3624
        50.3004         47.5004
   2604629.08343   2054652.61645  24912452.411    24912453.1494   24912461.2614
        37.6004         35.5004
   -148650.50742   -111737.42045  24251052.118    24251053.4294   24251054.5924
        36.1004         35.2004
 -14696590.12546 -11428169.90947  21536547.354    21536547.4894   21536549.6774
        47.0004         44.2004
 16  6 24  1 29  0.0000000  0  9G30G 6G23G26G 2G 9G 3G16G 7
  -4916293.16944  -3810009.97946  23125519.576    23125518.9964   23125523.8264
        42.3004         39.9004
  -9001904.22846  -6991505.24147  21306241.487    21306241.7834   21306247.4874
        47.9004         45.1004
 -12743287.94045  -9903254.24546  22304490.603    22304489.3844   22304490.5154
        44.9004         41.9004
    127662.43942     59688.73345  25013119.311    25013119.6464   25013127.2224
        37.1004         35.5004
 -11718288.64746  -9108419.52347  21805074.784    21805074.1824   21805074.4664
        46.5004         43.7004
 -19922288.36247 -15511087.07047  20543259.207    20543258.8974   20543263.2454
        50.3004         47.7004
   2706121.19542   2133737.37145  24931760.637    24931765.9834   24931772.8394
        37.5004         35.3004
   -182448.31642   -138073.38145  24244621.538    24244621.1464   24244623.0094
        37.1004         35.2004
 -14765452.95046 -11481829.22547  21523442.718    21523443.3384   21523445.8444
        47.0004         44.2004
 16  6 24  1 29 30.0000000  0  9G30G 6G23G26G 2G 9G 3G16G 7
  -5022559.88444  -3892815.16546  23105295.941    23105295.5784   23105301.9764
        42.3004         39.7004
  -8939032.66046  -6942514.41247  21318205.019    21318205.9254   21318211.4174
        47.9004         44.9004
 -12669046.48845  -9845403.75146  22318617.134    22318617.4384   22318618.0884
        44.8004         41.9004
    146527.30452     74388.55655  25016709.659    25016711.4614   25016716.8454
        37.3004         35.3004
 -11752493.60445  -9135072.72947  21798565.453    21798564.9424   21798565.8574
        46.3004         43.5004
 -19881236.09547 -15479098.28747  20551071.281    20551071.2124   20551075.5354
        50.5004         47.7004
   2807703.72852   2212892.59555  24951095.881    24951096.8054   24951104.1884
        37.3004         35.2004
   -215697.36052   -163981.72455  24238295.048    24238293.2834   24238293.2724
        37.1004         35.2004
 -14833884.11146 -11535152.19447  21510420.008    21510420.5594   21510423.6634
        46.9004         44.0004
 16  6 24  1 30  0.0000000  0  9G30G 6G23G26G 2G 9G 3G16G 7
  -5128624.95944  -3975463.23346  23085111.876    23085111.9554   23085118.8274
        42.5004         39.9004
  -8875659.24446  -6893132.54247  21330265.083    21330265.7814   21330270.2954
        47.7004         44.9004
 -12594603.50845  -9787396.26046  22332784.289    22332783.1594   22332783.8174
        44.6004         41.9004
    165942.39242     89517.05945  25020404.917    25020404.5564   25020411.1434
        37.3004         35.3004
 -11786166.82345  -9161311.58947  21792157.678    21792157.2514   21792157.9044
        46.3004         43.5004
 -19839828.17847 -15446832.37647  20558950.571    20558950.7574   20558955.2824
        50.5004         47.7004
   2909375.67242   2292117.45545  24970449.599    24970445.6294   24970451.1124
        37.3004         35.2004
   -248395.80642   -189460.99545  24232071.538    24232071.5734   24232073.9374
        37.3004         35.5004
 -14901882.09046 -11588137.61147  21497480.984    21497481.4484   21497484.4854
        47.0004         44.2004
 16  6 24  1 30 30.0000000  0  9G30G 6G23G26G 2G 9G 3G16G 7
  -5234485.78144  -4057952.14646  23064968.116    23064968.2154   23064974.4384
        42.5004         39.9004
  -8811786.02746  -6843361.21447  21342419.592    21342419.9764   21342425.0844
        47.7004         44.7004
 -12519960.30645  -9729232.71646  22346987.767    22346987.0634   22346988.1814
        44.6004         41.8004
    185907.46142    105074.21445  25024203.209    25024203.2574   25024210.6484
        37.5004         35.5004
 -11819306.72645  -9187134.88747  21785851.299    21785850.7644   21785851.2394
        46.3004         43.3004
 -19798065.88647 -15414290.32147  20566897.410    20566897.5964   20566902.2634
        50.5004         47.7004
   3011135.98042   2371411.21345  24989810.871    24989810.1374   24989816.4464
        37.5004         35.3004
   -280541.47742   -214509.54545  24225953.119    24225951.7904   24225955.0534
        37.0004         34.8004
 -14969445.08546 -11640784.08447  21484624.760    21484624.5464   21484627.4784
        47.0004         44.2004
 16  6 24  1 31  0.0000000  0  9G30G 6G23G26G 2G 9G 3G16G 7
  -5340139.74544  -4140279.87246  23044863.244    23044861.8284   23044869.2524
        42.5004         39.9004
  -8747415.02146  -6793202.00447  21354669.801    21354669.9564   21354674.5454
        47.7004         44.9004
 -12445118.09045  -9670914.11446  22361230.347    22361229.3064   22361229.9504
        44.6004         41.6004
    206421.87543    121059.50645  25028108.539    25028108.5704   25028116.3454
        37.6004         35.5004
 -11851912.14645  -9212541.69647  21779646.718    21779646.2434   21779646.5394
        46.2004         43.3004
 -19755950.60347 -15381473.20847  20574911.969    20574911.9084   20574916.4394
        50.5004         47.7004
   3112983.66443   2450773.07245  25009185.558    25009189.9934   25009194.8234
        37.6004         35.7004
   -312133.00142   -239126.31545  24219939.672    24219939.2154   24219944.5884
        36.4004         34.5004
 -15036570.83046 -11693089.83947  21471851.216    21471851.0124   21471853.3984
        47.0004         44.2004
 16  6 24  1 31 30.0000000  0  9G30G 6G23G26G 2G 9G 3G16G 7
  -5445584.26944  -4222444.39746  23024796.883    23024796.6274   23024803.3254
        42.3004         39.7004
  -8682548.29846  -6742656.51047  21367012.116    21367012.7534   21367018.1624
        47.7004         44.7004
 -12370078.25745  -9612441.51246  22375509.574    22375509.1884   22375509.4484
        44.6004         41.8004
    227485.17642    137472.44945  25032116.167    25032116.3264   25032121.6774
        37.3004         35.0004
 -11883981.65345  -9237530.91047  21773544.225    21773543.7674   21773543.6914
        46.0004         43.2004
 -19713483.46747 -15348381.93047  20582993.219    20582993.1884   20582997.7874
        50.3004         47.7004
   3214917.72742   2530202.24545  25028582.821    25028586.2174   25028593.2524
        37.3004         35.3004
   -343168.54342   -263309.84645  24214037.536    24214034.0774   24214037.9464
        36.4004         34.6004
 -15103257.50846 -11745053.46747  21459160.415    21459160.5654   21459163.5024
        47.0004         44.2004
 16  6 24  1 32  0.0000000  0  9G30G 6G23G26G 2G 9G 3G16G 7
  -5550816.73944  -4304443.68246  23004770.623    23004771.3644   23004777.6424
        42.3004         39.7004
  -8617187.88046  -6691726.33147  21379450.080    21379451.2064   21379455.6154
        47.5004         44.7004
 -12294841.85145  -9553815.75446  22389826.914    22389826.8934   22389827.0624
        44.8004         41.9004
    249096.75942    154312.72345  25036229.192    25036228.2884   25036236.4504
        37.0004         34.8004
 -11915514.07145  -9262101.60947  21767543.619    21767542.8864   21767543.3834
        46.0004         43.0004
 -19670665.84847 -15315017.54647  20591140.397    20591140.6964   20591145.6414
        50.3004         47.5004
   3316937.19542   2609697.92445  25048000.269    25048000.9984   25048006.2354
        37.0004         35.0004
   -373646.14142   -287058.62945  24208233.201    24208234.1354   24208239.2094
        36.6004         34.6004
 -15169503.37946 -11796673.61847  21446554.640    21446554.8874   21446556.8664
        47.2004         44.2004
 16  6 24  1 32 30.0000000  0  9G30G 6G23G26G 2G 9G 3G16G 7
  -5655834.59744  -4386275.72946  22984787.442    22984787.0764   22984794.3124
        42.3004         39.7004
  -8551335.85946  -6640413.08447  21391981.325    21391982.0684   21391987.2134
        47.4004         44.5004
 -12219410.04245  -9495037.74146  22404182.155    22404181.2184   22404180.7594
        44.8004         41.8004
    271256.03342    171579.67945  25040444.727    25040445.1664   25040452.0114
        37.1004         35.3004
 -11946508.20445  -9286252.86647  21761645.109    21761644.8614   21761645.0314
        45.8004         42.6004
 -19627499.07347 -15281381.09647  20599355.014    20599355.2904   20599359.7344
        50.3004         47.5004
   3419041.06542   2689259.42745  25067430.609    25067429.3044   25067438.0404
        37.0004         34.8004
   -403564.16642   -310371.36645  24202543.788    24202543.2344   24202544.3344
        36.4004         34.5004
 -15235306.57846 -11847948.82947  21434032.677    21434033.3134   21434035.3404
        47.2004         44.4004
 16  6 24  1 33  0.0000000  0  9G30G 6G23G26G 2G 9G 3G16G 7
  -5760635.29144  -4467938.56846  22964844.760    22964844.1904   22964850.7284
        42.3004         39.7004
  -8484994.39746  -6588718.44347  21404605.716    21404606.5754   21404611.4154
        47.4004         44.5004
 -12143784.36845  -9436108.63746  22418571.914    22418571.8104   22418572.1174
        44.6004         41.6004
    293962.36642    189272.95145  25044767.105    25044766.1054   25044773.3584
        37.3004         35.5004
 -11976962.79645  -9309983.70947  21755850.275    21755849.3954   21755849.2204
        45.5004         42.6004
 -19583984.37247 -15247473.53747  20607635.769    20607635.9954   20607639.9834
        50.3004         47.5004
   3521228.35142   2768885.91945  25086876.521    25086876.5634   25086882.4164
        37.1004         35.3004
   -432921.04542   -333246.81645  24196955.286    24196956.4814   24196959.4384
        36.3004         34.3004
 -15300665.08246 -11898877.52447  21421595.295    21421595.4974   21421597.6914
        47.0004         44.2004
 16  6 24  1 33 30.0000000  0  9G30G 6G23G26G 2G 9G 3G16G 7
  -5865216.22544  -4549430.17146  22944943.185    22944942.6304   22944949.3744
        42.3004         39.7004
  -8418165.56846  -6536644.04047  21417323.454    21417324.2084   21417328.6404
        47.4004         44.5004
 -12067965.76045  -9377029.21746  22432999.912    22432999.7504   22432999.7174
        44.6004         41.8004
    317215.34642    207392.20645  25049190.702    25049191.3384   25049197.3614
        37.5004         35.3004
 -12006876.72245  -9333293.25947  21750158.210    21750157.3804   21750156.8574
        45.6004         43.0004
 -19540123.05847 -15213295.88547  20615982.766    20615982.7384   20615986.7384
        50.3004         47.5004
   3623498.05742   2848576.59645  25106338.760    25106337.4774   25106343.3064
        37.1004         35.0004
   -461715.15942   -355683.79145  24191480.287    24191477.4624   24191479.0524
        36.3004         34.5004
 -15365577.17346 -11949458.36147  21409243.175    21409243.4684   21409245.4184
        47.0004         44.2004
 16  6 24  1 34  0.0000000  0  9G30G 6G23G26G 2G 9G 3G16G 7
  -5969574.80044  -4630748.52246  22925084.306    22925084.3724   22925090.4914
        42.5004         39.7004
  -8350851.50346  -6484191.54047  21430132.523    21430132.6524   21430137.8864
        47.2004         44.4004
 -11991955.71245  -9317800.62246  22447464.297    22447463.8344   22447463.9274
        44.4004         41.4004
    341014.19642    225936.85345  25053719.793    25053719.6404   25053725.9444
        37.3004         35.3004
 -12036248.40345  -9356180.27147  21744568.633    21744568.1004   21744568.3834
        46.0004         43.2004
 -19495916.46547 -15178849.18247  20624394.614    20624394.8794   20624399.1274
        50.3004         47.5004
   3725849.08642   2928330.65545  25125810.793    25125814.9724   25125820.2624
        36.3004         34.3004
   -489944.67242   -377680.80245  24186105.284    24186106.2024   24186104.6354
        36.1004         34.3004
 -15430041.20146 -11999690.05147  21396976.524    21396976.4094   21396978.2014
        47.0004         44.4004
 16  6 24  1 34 30.0000000  0  9G30G 6G23G26G 2G 9G 3G16G 7
  -6073708.48044  -4711891.61246  22905269.706    22905269.0134   22905273.9314
        42.5004         39.9004
  -8283054.35146  -6431362.60647  21443033.865    21443034.2394   21443039.7784
        47.2004         44.4004
 -11915755.27345  -9258423.66446  22461963.449    22461963.2204   22461964.1094
        44.2004         41.4004
    365358.20142    244906.25645  25058351.082    25058352.1284   25058359.9844
        37.5004         35.3004
 -12065077.09145  -9378644.17447  21739081.845    21739081.3454   21739082.4174
        46.0004         43.2004
 -19451365.87747 -15144134.43147  20632872.700    20632872.3554   20632876.9924
        50.3004         47.5004
   3828280.47242   3008147.36745  25145301.046    25145306.9854   25145310.6154
        36.3004         34.6004
   -517608.24342   -399236.82445  24180840.821    24180840.8434   24180841.8734
        36.1004         34.3004
 -15494055.46146 -12049571.28747  21384794.935    21384794.6524   21384796.5304
        47.2004         44.4004
 16  6 24  1 35  0.0000000  0  9G30G 6G23G26G 2G 9G 3G16G 7
  -6177614.67944  -4792857.42646  22885495.450    22885495.3684   22885501.9794
        42.5004         39.9004
  -8214776.25546  -6378158.91047  21456026.820    21456027.2554   21456032.6534
        47.2004         44.4004
 -11839365.78045  -9198899.39746  22476500.311    22476499.8044   22476501.7584
        44.2004         41.6004
    390246.60842    264299.74445  25063089.051    25063088.2744   25063094.7144
        37.3004         35.3004
 -12093361.64445  -9400684.08747  21733699.526    21733698.7994   21733700.0674
        46.0004         43.2004
 -19406472.58347 -15109152.63947  20641415.325    20641415.4514   20641419.7314
        50.3004         47.5004
   3930791.23242   3088025.95945  25164813.509    25164813.4254   25164820.3754
        35.7004         34.1004
   -544704.27142   -420350.62345  24175685.617    24175684.5954   24175686.8264
        36.4004         34.8004
 -15557618.10946 -12099100.61747  21372699.413    21372699.3394   21372700.8864
        47.2004         44.4004
 16  6 24  1 35 30.0000000  0  9G30G 6G23G26G 2G 9G 3G16G 7
  -6281290.76944  -4873643.96246  22865765.917    22865765.6194   22865772.3434
        42.5004         39.9004
  -8146019.42646  -6324582.16947  21469111.364    21469111.8464   21469116.1584
        47.4004         44.5004
 -11762788.42145  -9139228.74646  22491073.151    22491072.1754   22491072.6964
        44.2004         41.6004
    415678.95742    284117.10545  25067927.037    25067926.9504   25067934.2904
        37.1004         35.2004
 -12121100.71445  -9422298.95247  21728421.526    21728420.5394   21728421.8774
        46.0004         43.2004
 -19361237.88747 -15073904.82047  20650022.661    20650022.9424   20650027.6324
        50.2004         47.3004
   4033380.36942   3167965.54145  25184339.300    25184336.7174   25184340.5114
        36.4004         34.6004
   -571231.06042   -441020.86445  24170637.066    24170636.9294   24170639.6054
        36.6004         34.6004
 -15620726.92046 -12148276.30047  21360689.830    21360689.9724   21360691.9394
        47.2004         44.4004
 16  6 24  1 36  0.0000000  0  9G30G 6G23G26G 2G 9G 3G16G 7
  -6384734.29444  -4954249.26546  22846081.672    22846081.8564   22846088.0304
        42.5004         39.9004
  -8076786.08246  -6270634.11247  21482285.592    21482286.1034   21482291.0044
        47.4004         44.5004
 -11686024.48445  -9079412.68346  22505680.522    22505679.9804   22505680.8124
        44.2004         41.6004
    441654.33742    304357.65145  25072870.715    25072870.9794   25072878.0764
        36.8004         35.0004
 -12148293.06245  -9443487.79247  21723246.281    21723245.7924   21723246.5214
        45.8004         43.2004
 -19315663.10347 -15038391.99947  20658695.649    20658695.6184   20658700.5024
        50.2004         47.3004
   4136046.79842   3247965.40145  25203875.546    25203873.3334   25203875.5664
        36.4004         34.6004
   -597186.84542   -461246.18645  24165697.608    24165698.3084   24165700.3674
        36.8004         35.0004
 -15683380.42846 -12197097.20447  21348767.199    21348767.2454   21348769.5714
        47.2004         44.5004
 16  6 24  1 36 30.0000000  0  9G30G 6G23G26G 2G 9G 3G16G 7
  -6487942.59044  -5034671.28046  22826442.067    22826442.1814   22826448.0904
        42.5004         39.9004
  -8007078.38746  -6216316.43647  21495550.453    21495550.8104   21495556.3954
        47.4004         44.5004
 -11609074.86445  -9019451.95846  22520323.073    22520322.6154   22520324.9954
        44.1004         41.4004
    468172.24942    325020.87845  25077917.581    25077917.8954   25077923.7634
        36.8004         34.8004
 -12174938.12745  -9464250.17347  21718176.166    21718175.6424   21718177.1264
        46.0004         43.3004
 -19269749.56147 -15002615.20947  20667432.407    20667432.6754   20667437.4824
        50.2004         47.2004
   4238789.50642   3328024.67545  25223426.957    25223424.2954   25223428.3134
        36.6004         34.8004
   -622570.47342   -481025.63645  24160867.512    24160868.0804   24160869.7774
        37.3004         35.5004
 -15745577.00346 -12245562.06047  21336931.101    21336931.6024   21336934.3914
        47.4004         44.7004
 16  6 24  1 37  0.0000000  0  9G30G 6G23G26G 2G 9G 3G16G 7
  -6590913.12944  -5114908.02846  22806847.341    22806847.0724   22806853.1524
        42.5004         39.9004
  -7936898.57046  -6161630.88347  21508905.391    21508906.3944   21508910.9464
        47.4004         44.5004
 -11531941.34045  -8959347.93146  22535002.765    22535001.5094   22535000.7534
        44.1004         41.2004
    495231.76142    346106.25245  25083065.846    25083065.4954   25083072.3664
        36.8004         34.8004
 -12201034.46745  -9484584.97147  21713211.312    21713210.0164   21713211.0304
        46.2004         43.7004
 -19223498.48847 -14966575.41247  20676234.196    20676234.1644   20676238.7744
        50.2004         47.2004
   4341607.45442   3408142.58245  25242990.786    25242988.7794   25242995.9234
        36.4004         34.5004
   -647380.13843   -500357.84445  24156149.842    24156148.8274   24156149.9864
        37.8004         35.9004
 -15807315.04946 -12293669.60847  21325182.498    21325183.3244   21325186.2354
        47.5004         44.9004
 16  6 24  1 37 30.0000000  0  8G30G 6G23G26G 2G 9G16G 7
  -6693643.35844  -5194957.52346  22787299.808    22787299.5694   22787304.1794
        42.5004         40.0004
  -7866248.85046  -6106579.16747  21522349.577    21522350.0394   21522355.0104
        47.4004         44.4004
 -11454624.68645  -8899101.19446  22549714.096    22549714.1804   22549714.4564
        43.9004         41.1004
    522832.07742    367612.91245  25088317.948    25088318.2964   25088325.8184
        37.3004         35.7004
 -12226580.83945  -9504491.23847  21708349.816    21708348.5614   21708349.1684
        46.3004         43.5004
 -19176911.24547 -14930273.65847  20685099.421    20685099.1914   20685103.8774
        50.2004         47.3004
   -671614.58043   -519241.81146  24151535.924    24151535.6494   24151537.3734
        38.2004         36.0004
 -15868592.34946 -12341418.12947  21313522.137    21313522.4224   21313525.5184
        47.7004         45.1004
 16  6 24  1 38  0.0000000  0  8G30G 6G23G26G 2G 9G16G 7
  -6796130.73544  -5274817.78246  22767797.649    22767795.9324   22767801.1294
        42.7004         40.0004
  -7795131.51746  -6051163.06947  21535882.129    21535882.8064   21535888.2984
        47.2004         44.2004
 -11377126.24745  -8838712.80246  22564461.248    22564461.6584   22564461.2884
        43.7004         40.9004
    550972.52442    389540.53145  25093674.435    25093673.3844   25093678.3384
        37.3004         35.3004
 -12251576.55445  -9523968.41847  21703593.573    21703592.5974   21703592.4634
        46.3004         43.5004
 -19129989.14747 -14893710.98347  20694028.877    20694028.7194   20694032.8694
        50.2004         47.3004
   -695271.92343   -537676.13345  24147036.274    24147034.6214   24147037.3154
        37.6004         35.5004
 -15929407.35746 -12388806.42547  21301949.580    21301950.0124   21301952.6614
        47.9004         45.2004
 16  6 24  1 38 30.0000000  0  8G30G 6G23G26G 2G 9G16G 7
  -6898372.71344  -5354486.82746  22748340.452    22748339.9134   22748345.5554
        42.7004         40.0004
  -7723548.81246  -5995384.36347  21549504.586    21549505.2434   21549510.2204
        47.2004         44.4004
 -11299447.33445  -8778183.80046  22579242.541    22579243.0734   22579243.7084
        43.7004         41.1004
    579652.10242    411888.22145  25099130.535    25099130.8064   25099136.8224
        37.3004         35.3004
 -12276020.56545  -9543015.69347  21698941.400    21698940.8324   21698941.2624
        46.3004         43.5004
 -19082733.48747 -14856888.39147  20703020.734    20703020.7144   20703025.2534
        50.2004         47.2004
   -718351.37942   -555660.11945  24142643.085    24142642.2034   24142644.8284
        37.3004         35.0004
 -15989758.67546 -12435833.40847  21290465.988    21290465.9714   21290468.1354
        48.1004         45.2004
 16  6 24  1 39  0.0000000  0  8G30G 6G23G26G 2G 9G16G 7
  -7000366.73244  -5433962.65546  22728931.245    22728931.3454   22728936.8944
        42.7004         40.2004
  -7651503.06146  -5939244.81747  21563214.563    21563214.3374   21563219.9954
        47.2004         44.2004
 -11221588.77745  -8717514.80746  22594059.726    22594060.0604   22594059.9634
        43.7004         41.1004
    608869.96042    434655.24145  25104691.635    25104692.4984   25104695.8164
        37.3004         35.3004
 -12299911.87445  -9561632.29747  21694394.619    21694393.9754   21694395.2164
        46.3004         43.5004
 -19035145.58247 -14819806.90347  20712076.681    20712076.7394   20712081.0354
        50.2004         47.3004
   -740851.16642   -573192.44845  24138359.771    24138360.4724   24138362.8424
        37.1004         35.0004
 -16049644.38246 -12482497.58247  21279069.883    21279070.1084   21279072.2964
        48.1004         45.2004
 16  6 24  1 39 30.0000000  0  8G30G 6G23G26G 2G 9G16G 7
  -7102110.24844  -5513243.29246  22709570.946    22709570.6084   22709575.6004
        43.0004         40.6004
  -7578996.49746  -5882746.21747  21577012.053    21577012.5954   21577017.5334
        47.0004         44.2004
 -11143551.91845  -8656706.89446  22608909.011    22608908.9054   22608909.9924
        43.7004         40.9004
    638625.46442    457841.31745  25110352.608    25110353.6854   25110357.5294
        36.8004         34.6004
 -12323249.42046  -9579817.39047  21689954.323    21689954.0124   21689953.8194
        46.5004         43.7004
 -18987226.72647 -14782467.53647  20721195.721    20721195.5254   20721199.6274
        50.2004         47.3004
   -762769.93342   -590272.00445  24134188.581    24134189.5424   24134189.0834
        37.0004         35.0004
 -16109062.94146 -12528797.74347  21267763.052    21267762.6284   21267764.8084
        48.1004         45.1004
 16  6 24  1 40  0.0000000  0  9G30G29G 6G23G26G 2G 9G16G 7
  -7203600.71444  -5592326.73546  22690258.794    22690257.3164   22690262.4534
        43.2004         40.6004
                     -6189.13453  24784373.630
                        23.4004
  -7506031.44346  -5825890.34347  21590896.502    21590897.7614   21590902.1694
        46.9004         44.0004
 -11065337.86745  -8595760.88346  22623794.658    22623794.3194   22623793.6254
        43.7004         41.1004
    668917.44542    481445.35245  25116117.666    25116117.7554   25116122.8524
        36.6004         34.6004
 -12346031.96446  -9597570.02347  21685618.412    21685618.2964   21685618.7064
        46.5004         43.5004
 -18938978.21747 -14744871.29147  20730375.756    20730376.5544   20730381.2414
        50.2004         47.2004
   -784106.70042   -606898.05845  24130125.685    24130127.2284   24130132.2984
        37.0004         35.0004
 -16168012.71646 -12574732.62347  21256544.370    21256544.8744   21256547.0894
        47.9004         45.1004
 16  6 24  1 40 30.0000000  0  9G30G29G 6G23G26G 2G 9G16G 7
  -7304835.59844  -5671211.03746  22670992.965    22670993.5734   22670998.9014
        43.4004         40.7004
                    -14989.83545  24782224.443
                        35.5004
  -7432610.24946  -5768679.03847  21604868.070    21604869.1764   21604873.7304
        46.9004         43.9004
 -10986948.17645  -8534678.03046  22638710.526    22638710.3324   22638710.2784
        43.9004         41.1004
    699745.42842    505467.20845  25121984.213    25121984.5554   25121990.1874
        36.8004         35.0004
 -12368258.80046  -9614889.63947  21681388.909    21681388.5824   21681389.0724
        46.5004         43.7004
 -18890401.37047 -14707019.20247  20739620.063    20739619.9944   20739625.0284
        50.0004         47.2004
   -804859.89442   -623069.39745  24126179.565    24126176.6474   24126183.8284
        36.8004         34.6004
 -16226492.54146 -12620301.30447  21245416.918    21245416.4354   21245418.5634
        47.9004         45.1004
 16  6 24  1 41  0.0000000  0  9G30G29G 6G23G26G 2G 9G16G 7
  -7405812.36645  -5749894.20846  22651778.062    22651778.4004   22651783.4134
        43.6004         40.9004
                    -23353.14445  24780180.804                    24780183.8814
                        35.5004
  -7358735.24746  -5711114.10947  21618926.218    21618926.7504   21618932.3234
        46.7004         43.9004
 -10908383.97645  -8473459.18946  22653660.693    22653660.8484   22653661.4214
        43.9004         41.1004
    731108.00242    529905.60545  25127952.109    25127950.8184   25127956.4704
        36.8004         34.8004
 -12389929.11446  -9631775.60147  21677265.918    21677265.1984   21677265.4754
        46.7004         44.0004
 -18841497.51547 -14668912.29747  20748926.025    20748926.1404   20748931.3944
        50.0004         47.2004
   -825028.05742   -638784.88145  24122339.033    24122340.2834   24122343.9954
        36.8004         35.0004
 -16284500.11846 -12665502.00447  21234377.841    21234377.8614   21234380.1964
        47.9004         45.1004
 16  6 24  1 41 30.0000000  0  9G30G29G 6G23G26G 2G 9G16G 7
  -7506528.46245  -5828374.24946  22632612.124    22632612.2114   22632616.8884
        43.6004         40.7004
    -42266.46942    -31278.99945  24778245.447    24778245.5654   24778248.9614
        36.6004         35.2004
  -7284408.76946  -5653197.38947  21633070.141    21633070.1584   21633075.3784
        46.9004         43.9004
 -10829646.04145  -8412104.97046  22668644.798    22668644.5474   22668645.1094
        43.7004         41.1004
    763004.35542    554759.90845  25134021.264    25134019.9474   25134027.8604
        36.4004         34.3004
 -12411041.98746  -9648227.18347  21673248.129    21673247.4274   21673247.9094
        46.9004         43.9004
 -18792267.91947 -14630551.57147  20758294.405    20758294.4104   20758299.4354
        49.8004         47.0004
   -844610.11242   -654043.62445  24118614.140    24118613.9784   24118620.1184
        37.1004         35.2004
 -16342033.89046 -12710333.50447  21223429.818    21223429.9964   21223432.0214
        47.9004         45.1004
 16  6 24  1 42  0.0000000  0  9G30G29G 6G23G26G 2G 9G16G 7
  -7606981.38644  -5906649.22446  22613495.988    22613495.9774   22613501.2684
        43.4004         40.7004
    -51876.95642    -38767.65345  24776415.213    24776415.1204   24776420.8844
        36.4004         34.3004
  -7209633.17946  -5594930.71347  21647299.457    21647300.2714   21647305.3844
        46.9004         44.0004
 -10750735.82745  -8350616.50746  22683661.708    22683660.7774   22683659.5294
        43.9004         41.1004
    795433.53442    580029.39845  25140191.843    25140193.0134   25140199.2794
        36.1004         34.5004
 -12431596.43846  -9664243.64847  21669336.665    21669336.1554   21669336.2694
        46.7004         44.0004
 -18742713.93047 -14591938.06947  20767724.043    20767723.8724   20767729.0894
        49.8004         47.0004
   -863604.63142   -668844.53945  24115000.452    24114999.5704   24115002.9574
        37.1004         35.0004
 -16399092.41546 -12754794.67747  21212571.733    21212572.0054   21212574.1524
        47.9004         45.1004
 16  6 24  1 42 30.0000000  0  9G30G29G 6G23G26G 2G 9G16G 7
  -7707168.58845  -5984717.13946  22594431.799    22594431.1414   22594436.3994
        43.6004         40.9004
    -60925.82652    -45818.66255  24774692.611    24774691.7904   24774698.3204
        35.7004         33.8004
  -7134410.86846  -5536315.93547  21661613.540    21661614.1484   21661619.4864
        46.7004         43.9004
 -10671654.53745  -8288994.74946  22698709.120    22698709.3504   22698709.3814
        43.7004         40.9004
    828394.49242    605713.27545  25146465.688    25146465.3264   25146471.3254
        36.1004         34.1004
 -12451591.79846  -9679824.44247  21665531.634    21665530.8984   21665531.4174
        46.7004         44.0004
 -18692836.84347 -14553072.81547  20777215.558    20777215.5704   20777220.2944
        49.8004         47.0004
   -882010.43542   -683186.73345  24111498.459    24111496.8024   24111500.2864
        37.0004         34.8004
 -16455674.26546 -12798884.42747  21201804.027    21201804.2974   21201806.7504
        47.7004         44.9004
 16  6 24  1 43  0.0000000  0  9G30G29G 6G23G26G 2G 9G16G 7
  -7807087.58845  -6062576.07346  22575416.823    22575417.0664   22575422.5354
        43.6004         40.9004
    -69413.39742    -52432.38645  24773077.639    24773076.4274   24773081.7144
        35.0004         33.4004
  -7058744.20146  -5477354.91047  21676012.728    21676012.8864   21676018.2534
        46.5004         43.7004
 -10592403.26645  -8227240.53546  22713791.840    22713791.5284   22713791.3674
        43.7004         41.1004
    861886.23142    631810.79845  25152836.789    25152837.6544   25152845.8354
        35.7004         34.0004
 -12471027.04146  -9694968.78847  21661832.280    21661832.3574   21661832.4284
        46.7004         43.7004
 -18642637.97347 -14513956.81647  20786768.189    20786768.0734   20786772.8044
        49.8004         47.0004
   -899826.31642   -697069.24145  24108108.152    24108107.1804   24108109.3984
        37.1004         35.2004
 -16511777.94246 -12842601.52847  21191128.061    21191127.7174   21191130.9574
        47.7004         44.9004
 16  6 24  1 43 30.0000000  0  9G30G29G 6G23G26G 2G 9G16G 7
  -7906735.82745  -6140224.01846  22556454.233    22556454.1164   22556460.4034
        43.6004         40.9004
    -77339.30442    -58608.33445  24771568.989    24771568.3114   24771572.0814
        35.2004         33.8004
  -6982635.60746  -5418049.52947  21690495.657    21690495.7314   21690501.4054
        46.5004         43.7004
 -10512983.18544  -8165354.76346  22728902.936    22728902.8224   22728902.1844
        43.4004         40.6004
    895907.66142    658321.10545  25159313.440    25159311.7544   25159317.4194
        35.2004         33.4004
 -12489901.62746  -9709676.25547  21658241.205    21658240.9194   21658240.5194
        46.7004         43.9004
 -18592118.61747 -14474591.08447  20796381.855    20796381.7534   20796385.9424
        49.8004         47.0004
   -917051.50542   -710491.43745  24104828.700    24104829.5374   24104832.3144
        37.3004         35.3004
 -16567401.68546 -12885944.69847  21180543.368    21180543.3464   21180546.0194
        47.7004         44.9004
 16  6 24  1 44  0.0000000  0  9G30G29G 6G23G26G 2G 9G16G 7
  -8006110.83045  -6217659.05046  22537544.072    22537543.6924   22537550.0014
        43.6004         40.9004
    -84703.42442    -64346.59345  24770169.395    24770168.7464   24770173.7794
        36.1004         34.6004
  -6906087.49446  -5358401.65847  21705062.773    21705063.1684   21705067.9604
        46.5004         43.7004
 -10433395.43044  -8103338.37046  22744048.832    22744049.0634   22744048.0004
        43.4004         40.7004
    930457.68042    685243.21745  25165884.232    25165884.9444   25165892.6164
        34.7004         33.1004
 -12508214.38746  -9723945.93947  21654756.303    21654755.7184   21654756.5104
        46.9004         44.0004
 -18541280.08347 -14434976.65047  20806056.476    20806056.2674   20806060.2314
        49.8004         47.0004
   -933684.46442   -723452.19845  24101667.065    24101666.0854   24101667.1434
        37.3004         35.3004
 -16622544.26146 -12928912.92447  21170049.877    21170050.3174   21170052.3864
        47.7004         44.9004
 16  6 24  1 44 30.0000000  0  9G30G29G 6G23G26G 2G 9G16G 7
  -8105210.11245  -6294879.23046  22518685.492    22518685.6344   22518692.1514
        43.7004         41.1004
    -91506.12242    -69647.38245  24768874.761    24768876.2554   24768877.8914
        36.3004         34.5004
  -6829102.26246  -5298413.18547  21719712.483    21719712.9544   21719718.0104
        46.5004         43.7004
 -10353640.96445  -8041192.06246  22759226.747    22759225.2884   22759225.5754
        43.6004         40.9004
    965535.28342    712576.32745  25172561.904    25172561.6974   25172568.3894
        35.0004         33.8004
 -12525964.92046  -9737777.52847  21651377.237    21651377.5304   21651378.4874
        46.7004         43.7004
 -18490123.68147 -14395114.51647  20815790.579    20815790.7874   20815794.7994
        49.8004         47.0004
   -949724.16343   -735950.65245  24098612.272    24098613.1184   24098617.5934
        37.6004         35.7004
 -16677204.12146 -12971505.01647  21159648.696    21159649.0814   21159651.1334
        47.9004         45.1004
 16  6 24  1 45  0.0000000  0  9G30G29G 6G23G26G 2G 9G16G 7
  -8204031.11545  -6371882.58146  22499880.065    22499880.5814   22499886.6624
        43.7004         41.1004
    -97747.19242    -74510.52445  24767687.750    24767688.8794   24767688.8484
        36.3004         34.5004
  -6751682.40346  -5238086.03447  21734444.859    21734445.5714   21734450.9764
        46.5004         43.7004
 -10273721.06245  -7978916.82646  22774433.410    22774433.2294   22774433.5784
        43.6004         40.9004
   1001139.32542    740319.77645  25179335.490    25179335.5784   25179345.0754
        34.9004         33.3004
 -12543152.38546  -9751170.35747  21648107.925    21648107.1314   21648107.9024
        46.5004         43.9004
 -18438650.72547 -14355005.72747  20825586.245    20825585.8544   20825590.1714
        49.8004         47.0004
   -965169.53343   -747986.02645  24095672.950    24095673.2394   24095676.5364
        37.6004         35.5004
 -16731379.21846 -13013719.36347  21149339.969    21149339.7614   21149341.7024
        47.9004         45.1004
 16  6 24  1 45 30.0000000  0  9G30G29G 6G23G26G 2G 9G16G 7
  -8302571.35245  -6448667.15646  22481130.115    22481129.6714   22481134.8574
        43.9004         41.2004
   -103426.54642    -78935.86045  24766607.374    24766606.3534   24766607.2314
        36.1004         34.3004
  -6673830.32946  -5177422.09947  21749259.646    21749259.9724   21749265.5804
        46.5004         43.7004
 -10193637.03045  -7916513.72646  22789674.164    22789673.0894   22789672.5164
        43.6004         40.9004
   1037268.64242    768472.48245  25186212.285    25186213.9414   25186218.6714
        34.5004         33.1004
 -12559775.98346  -9764123.81047  21644943.676    21644943.1464   21644945.0284
        46.5004         43.5004
 -18386862.51147 -14314651.28147  20835440.506    20835440.5274   20835444.8254
        49.8004         46.8004
   -980019.47042   -759557.40445  24092848.020    24092847.6154   24092850.8544
        37.5004         35.2004
 -16785068.71746 -13055555.32447  21139122.682    21139122.8734   21139124.8694
        47.9004         45.1004
 16  6 24  1 46  0.0000000  0  9G30G29G 6G23G26G 2G 9G16G 7
  -8400828.37045  -6525231.02446  22462432.156    22462431.1214   22462437.6214
        43.9004         41.2004
   -108544.59442    -82924.00045  24765631.966    24765632.9554   24765635.3674
        35.9004         34.1004
  -6595548.52046  -5116423.30447  21764155.785    21764156.5474   21764162.1614
        46.5004         43.9004
 -10113390.02845  -7853983.59846  22804942.822    22804942.7134   22804944.1454
        43.6004         40.7004
   1073922.19241    797033.62045  25193185.189    25193187.6424   25193194.2584
        34.2004         32.9004
 -12575834.95245  -9776637.30647  21641887.505    21641887.0444   21641888.8644
        46.3004         43.7004
 -18334760.36547 -14274052.20447  20845355.175    20845355.2064   20845359.3574
        49.6004         46.8004
   -994272.87042   -770663.96445  24090134.537    24090133.1694   24090139.5484
        37.1004         35.2004
 -16838271.03846 -13097011.67247  21128998.583    21128998.6004   21129000.8234
        47.9004         45.1004
 16  6 24  1 46 30.0000000  0  9G30G29G 6G23G26G 2G 9G16G 7
  -8498799.63145  -6601572.24246  22443788.263    22443788.4754   22443793.6454
        43.9004         41.2004
   -113101.44942    -86474.84945  24764765.363    24764764.9884   24764768.0394
        36.1004         34.1004
  -6516839.45245  -5055091.57647  21779133.835    21779134.1554   21779138.9944
        46.3004         43.5004
 -10032981.02045  -7791327.26446  22820244.789    22820244.9304   22820244.7634
        43.6004         40.9004
   1111098.85241    826002.40045  25200259.673    25200261.4454   25200264.6064
        33.5004         32.2004
 -12591328.59845  -9788710.27147  21638939.905    21638938.7854   21638940.2964
        46.3004         43.7004
 -18282345.57747 -14233209.51647  20855329.695    20855329.6574   20855333.6864
        49.6004         46.8004
  -1007928.63042   -781304.85045  24087537.335    24087536.9084   24087538.7254
        37.3004         35.2004
 -16890985.35346 -13138087.75347  21118967.609    21118967.6274   21118969.9904
        48.1004         45.2004
 16  6 24  1 47  0.0000000  0  9G30G29G 6G23G26G 2G 9G16G 7
  -8596482.69745  -6677688.88046  22425199.688    22425199.6964   22425205.4094
        43.9004         41.2004
   -117096.57342    -89587.94645  24764004.889    24764004.7324   24764006.6984
        35.9004         34.3004
  -6437705.61045  -4993428.86047  21794192.306    21794193.1774   21794198.8334
        46.3004         43.5004
  -9952410.87644  -7728545.36846  22835576.033    22835575.2674   22835577.0474
        43.4004         40.6004
   1148797.29151    855377.85255  25207434.126    25207430.6524   25207444.8954
        33.7004         32.7004
 -12606256.35245  -9800342.28847  21636098.558    21636098.0884   21636099.4604
        46.3004         43.7004
 -18229619.45147 -14192124.22847  20865362.618    20865362.8504   20865367.5894
        49.6004         46.8004
  -1020985.86842   -791479.28245  24085048.180    24085048.7804   24085053.9004
        37.3004         35.3004
 -16943208.87346 -13178781.38847  21109029.968    21109029.5094   21109032.3564
        48.1004         45.2004
 16  6 24  1 47 30.0000000  0  9G30G29G 6G23G26G 2G 9G16G 7
  -8693875.06745  -6753579.01046  22406665.514    22406666.1184   22406672.8584
        43.9004         41.2004
   -120530.85242    -92263.93245  24763349.665    24763347.9284   24763353.7384
        35.7004         34.1004
  -6358149.49745  -4931437.09347  21809330.824    21809332.0524   21809337.9424
        46.3004         43.5004
  -9871681.01844  -7665639.02746  22850939.053    22850938.5064   22850939.1774
        43.0004         40.4004
   1187016.32841    885158.92245  25214707.613    25214706.7164   25214716.8224
        34.2004         32.9004
 -12620617.48546  -9811532.79447  21633367.524    21633366.6184   21633367.1094
        46.9004         44.2004
 -18176583.29447 -14150797.35547  20875455.897    20875455.7014   20875459.4524
        49.6004         46.8004
  -1033443.59342   -801186.60645  24082678.941    24082679.8054   24082683.9614
        37.1004         35.0004
 -16994940.98746 -13219092.11747  21099185.260    21099185.5764   21099187.8394
        48.2004         45.4004
 16  6 24  1 48  0.0000000  0  9G30G29G 6G23G26G 2G 9G16G 7
  -8790974.28045  -6829240.70646  22388190.131    22388189.5124   22388194.8664
        43.9004         41.1004
   -123404.05642    -94502.77945  24762803.605    24762805.3194   24762807.9074
        35.6004         34.0004
  -6278173.58845  -4869118.21447  21824550.839    21824550.7514   21824556.0934
        46.2004         43.3004
  -9790792.77344  -7602609.23546  22866329.686    22866330.1724   22866332.2254
        42.9004         40.0004
   1225754.79841    915344.71345  25222077.573    25222080.4984   25222085.1974
        33.8004         32.4004
 -12634411.80746  -9822281.62047  21630741.527    21630741.1854   21630741.4764
        46.9004         43.9004
 -18123238.43347 -14109229.92847  20885606.030    20885606.1784   20885611.1874
        49.6004         46.8004
  -1045301.17742   -810426.29745  24080424.253    24080423.1724   24080425.5994
        37.0004         34.8004
 -17046180.24146 -13259018.79747  21089435.031    21089435.2784   21089437.5984
        48.2004         45.2004
 16  6 24  1 48 30.0000000  0  9G30G29G 6G23G26G 2G 9G16G 7
  -8887777.83645  -6904672.01846  22369768.565    22369767.8424   22369773.5994
        43.9004         41.1004
   -125716.52442    -96304.67545  24762363.626    24762363.5104   24762366.5404
        35.7004         34.1004
  -6197780.47345  -4806474.23647  21839847.987    21839848.8904   21839854.8354
        46.0004         43.2004
  -9709747.10344  -7539456.80646  22881752.806    22881754.1674   22881754.9064
        42.9004         40.4004
   1265011.39241    945934.29345  25229552.776    25229551.5794   25229555.8354
        33.8004         32.7004
 -12647638.18646  -9832587.89047  21628224.900    21628224.2924   21628224.5434
        46.7004         43.7004
 -18069586.15447 -14067422.96247  20895816.541    20895816.3554   20895820.8254
        49.6004         46.8004
  -1056557.57242   -819197.55045  24078280.449    24078283.2344   24078286.2314
        37.0004         35.2004
 -17096925.74946 -13298560.74047  21079777.833    21079778.5984   21079780.5964
        48.1004         45.4004
 16  6 24  1 49  0.0000000  0  9G30G29G 6G23G26G 2G 9G16G 7
  -8984283.29645  -6979871.05046  22351404.031    22351403.7504   22351409.0164
        43.9004         41.2004
   -127468.60542    -97669.87145  24762030.443    24762029.6784   24762036.1584
        36.1004         34.6004
  -6116972.61445  -4743507.10147  21855226.484    21855226.9974   21855231.6254
        46.0004         43.3004
  -9628544.95044  -7476182.42446  22897206.058    22897205.5844   22897206.6374
        42.9004         40.2004
   1304784.87151    976926.56655  25237117.904    25237117.2684   25237126.8434
        33.7004         32.4004
 -12660296.11246  -9842451.20947  21625816.262    21625816.2544   21625816.0674
        46.7004         44.0004
 -18015627.74347 -14025377.45147  20906083.822    20906084.1014   20906088.8984
        49.6004         46.6004
  -1067211.95942   -827499.66045  24076256.791    24076255.4774   24076259.4074
        37.0004         34.8004
 -17147175.23046 -13337716.16647  21070215.662    21070215.8044   21070218.4684
        48.1004         45.2004
 16  6 24  1 49 30.0000000  0  9G30G29G 6G23G26G 2G 9G16G 7
  -9080488.21245  -7054835.89446  22333097.893    22333097.1434   22333102.4884
        44.1004         41.4004
   -128660.22442    -98598.39945  24761802.618    24761802.8704   24761808.0634
        36.4004         34.5004
  -6035752.57745  -4680218.78547  21870681.042    21870681.7054   21870687.1354
        46.0004         43.2004
  -9547187.39244  -7412786.93946  22912686.964    22912687.8394   22912687.9054
        42.9004         39.9004
   1345073.76941   1008320.52945  25244785.840    25244787.4364   25244794.6344
        33.7004         32.6004
 -12672385.27846  -9851871.35247  21623516.012    21623515.6484   21623515.3314
        46.9004         43.9004
 -17961364.55347 -13983094.45147  20916410.182    20916410.3374   20916415.1674
        49.6004         46.8004
  -1077263.11442   -835331.75545  24074343.093    24074341.5374   24074346.6254
        37.0004         35.2004
 -17196927.65146 -13376484.27547  21060748.752    21060748.9844   21060750.6664
        48.1004         45.2004
 16  6 24  1 50  0.0000000  0  9G30G29G 6G23G26G 2G 9G16G 7
  -9176390.12745  -7129564.62646  22314847.608    22314846.8354   22314853.0104
        44.1004         41.4004
   -129291.76142    -99090.48945  24761683.228    24761683.3724   24761688.1274
        36.1004         34.1004
  -5954122.93645  -4616611.28547  21886215.456    21886216.3014   21886221.6804
        46.2004         43.5004
  -9465675.67644  -7349271.35046  22928198.253    22928197.8614   22928200.0324
        42.5004         39.9004
   1385876.98451   1040115.25255  25252550.578    25252546.5214   25252562.3304
        33.1004         32.0004
 -12683904.97546  -9860847.74447  21621323.252    21621323.1124   21621323.2834
        46.7004         43.9004
 -17906797.83047 -13940574.92847  20926794.270    20926794.0024   20926798.7344
        49.6004         46.6004
  -1086710.59142   -842693.42345  24072546.636    24072545.6274   24072547.6564
        37.1004         35.0004
 -17246182.00046 -13414864.27647  21051376.161    21051375.8894   21051378.1534
        48.1004         45.2004
 16  6 24  1 50 30.0000000  0  9G30G29G 6G23G26G 2G 9G16G 7
  -9271986.59245  -7204055.34946  22296656.260    22296655.9294   22296660.7254
        44.1004         41.4004
   -129363.50942    -99146.36345  24761669.166    24761668.2004   24761673.0444
        35.9004         34.0004
  -5872086.24745  -4552686.60847  21901825.472    21901826.1364   21901832.3094
        46.2004         43.2004
  -9384010.97844  -7285636.54646  22943738.710    22943739.4904   22943739.5144
        42.7004         40.2004
   1427193.14641   1072309.61745  25260412.741    25260415.5624   25260416.6824
        32.6004         32.0004
 -12694854.72846  -9869380.02447  21619240.679    21619240.1974   21619239.9334
        46.7004         44.0004
 -17851928.88446 -13897819.90547  20937234.916    20937235.0354   20937239.7834
        49.5004         46.6004
  -1095553.27842   -849583.84045  24070862.687    24070861.2444   24070864.6554
        37.1004         35.2004
 -17294937.27646 -13452855.39647  21042097.373    21042098.2034   21042100.0224
        48.1004         45.2004
 16  6 24  1 51  0.0000000  0  9G30G29G 6G23G26G 2G 9G16G 7
  -9367275.14745  -7278306.13146  22278524.392    22278522.3984   22278528.6204
        44.2004         41.6004
   -128876.04242    -98766.51745  24761761.819    24761759.6114   24761766.9014
        36.1004         34.5004
  -5789645.09845  -4488446.77747  21917514.754    21917515.1884   21917521.2544
        46.0004         43.3004
  -9302194.28244  -7221883.32046  22959307.918    22959308.3054   22959308.0284
        42.5004         39.9004
   1469020.89841   1104902.57145  25268372.756    25268372.7274
        32.4004         32.2004
 -12705234.30346  -9877468.00447  21617264.650    21617263.9394   21617264.4484
        46.7004         43.7004
 -17796759.02346 -13854830.41247  20947733.549    20947733.6214   20947738.8864
        49.5004         46.6004
  -1103790.64042   -856002.59045  24069294.777    24069295.0424   24069297.7234
        37.1004         35.0004
 -17343192.04946 -13490456.50247  21032915.097    21032915.7084   21032916.9644
        47.9004         45.1004
 16  6 24  1 51 30.0000000  0  9G30G29G 6G23G26G 2G 9G16G 7
  -9462253.39345  -7352315.12546  22260449.210    22260449.0744   22260454.6974
        44.4004         41.8004
   -127829.36842    -97950.93345  24761961.568    24761961.8314   24761966.8144
        36.1004         34.3004
  -5706802.04045  -4423893.75447  21933278.430    21933278.7904   21933285.3894
        46.0004         43.2004
  -9220226.76344  -7158012.54346  22974905.290    22974905.9814   22974909.2894
        42.5004         40.0004
   1511358.83541   1137893.23545  25276429.900    25276427.5924   25276437.2194
        32.8004         32.4004
 -12715042.86646  -9885111.04147  21615397.917    21615397.4264   21615397.7674
        46.5004         43.5004
 -17741289.58346 -13811607.47347  20958288.241    20958288.6184   20958293.7114
        49.5004         46.5004
  -1111421.84543   -861948.95945  24067844.344    24067842.1314   24067845.5384
        37.6004         35.5004
 -17390944.11546 -13527665.89247  21023828.195    21023828.8104   21023830.4074
        48.1004         45.2004
 16  6 24  1 52  0.0000000  0  9G30G29G 6G23G26G 2G 9G16G 7
  -9556918.86845  -7426080.39847  22242435.555    22242435.0064   22242440.2414
        44.6004         42.1004
   -126223.38442    -96699.48745  24762265.268    24762264.6344   24762270.7144
        35.7004         34.0004
  -5623559.70845  -4359029.62247  21949119.599    21949120.2854   21949126.1654
        46.0004         43.3004
  -9138109.63544  -7094025.18646  22990532.452    22990532.2444   22990534.6944
        42.5004         39.9004
   1554205.68241   1171280.32045  25284582.515    25284582.1524   25284592.4524
        33.0004         31.9004
 -12724280.34746  -9892309.07747  21613640.374    21613639.9764   21613639.9994
        46.5004         43.7004
 -17685521.76446 -13768152.03847  20968901.784    20968901.5494   20968905.8534
        49.5004         46.5004
  -1118445.93743   -867422.26045  24066503.996    24066504.8604   24066508.9854
        37.8004         35.7004
 -17438192.83546 -13564483.07347  21014837.597    21014837.3674   21014839.8084
        48.1004         45.2004
 16  6 24  1 52 30.0000000  0  9G30G29G 6G23G26G 2G 9G16G 7
  -9651269.19345  -7499600.10347  22224481.531    22224481.1814   22224486.5374
        44.9004         42.1004
   -124059.33342    -95013.20345  24762677.308    24762677.7704   24762683.7554
        35.2004         33.6004
  -5539920.68945  -4293856.36947  21965034.935    21965035.9654   21965041.8084
        46.2004         43.2004
  -9055843.66644  -7029921.87246  23006186.611    23006187.9694   23006188.1864
        42.3004         39.7004
   1597559.94641   1205062.75545  25292832.226    25292834.3524   25292838.8744
        33.0004         31.9004
 -12732945.90745  -9899061.47247  21611990.781    21611990.4014   21611990.8844
        46.3004         43.5004
 -17629456.97046 -13724465.18447  20979569.905    20979569.8824   20979574.2444
        49.3004         46.5004
  -1124862.56443   -872422.21945  24065285.936    24065284.2564   24065288.1384
        37.8004         35.7004
 -17484937.33346 -13600907.34847  21005941.485    21005942.0364   21005944.4994
        48.1004         45.4004
 16  6 24  1 53  0.0000000  0  9G30G29G 6G23G26G 2G 9G16G 7
  -9745301.92145  -7572872.32346  22206585.818    22206585.2874   22206592.2484
        44.9004         41.9004
   -121337.13142    -92891.98345  24763196.038    24763194.5514   24763199.5994
        35.6004         34.0004
  -5455887.61345  -4228376.06647  21981026.213    21981027.2844   21981031.7804
        46.0004         43.0004
  -8973430.04044  -6965703.49846  23021871.077    23021870.4674   23021871.5994
        42.5004         40.2004
   1641420.29241   1239239.67245  25301178.193    25301176.4194   25301182.0204
        32.8004         31.9004
 -12741039.32546  -9905368.03947  21610451.208    21610450.3684   21610451.7044
        46.5004         43.9004
 -17573096.45846 -13680547.91147  20990295.685    20990295.5504   20990299.5364
        49.5004         46.6004
  -1130671.05742   -876948.33445  24064178.267    24064177.4024   24064183.3844
        37.0004         34.6004
 -17531176.18446 -13636937.60347  20997142.633    20997143.2524   20997145.4534
        48.2004         45.6004
 16  6 24  1 53 30.0000000  0  9G30G29G 6G23G26G 2G 9G16G 7
  -9839014.65545  -7645895.20647  22188753.869    22188753.5744   22188759.1434
        44.9004         42.3004
   -118057.80842    -90336.70145  24763820.003    24763821.3594   24763825.0954
        35.9004         34.3004
  -5371463.09245  -4162590.73247  21997092.111    21997092.5244   21997098.3044
        46.0004         43.2004
  -8890869.96344  -6901370.98146  23037580.752    23037581.5514   23037582.2194
        42.9004         40.0004
   1685785.06741   1273809.59245  25309621.322    25309621.8694
        32.1004         31.2004
 -12748560.41046  -9911228.64047  21609020.223    21609019.4014   21609019.8874
        46.7004         43.9004
 -17516441.47146 -13636401.16747  21001076.720    21001076.2324   21001080.6834
        49.5004         46.6004
  -1135870.80142   -881000.11045  24063187.332    24063188.6344   24063194.5834
        36.6004         34.6004
 -17576907.94446 -13672572.73047  20988440.666    20988440.8114   20988442.9584
        48.2004         45.6004
 16  6 24  1 54  0.0000000  0  9G30G29G 6G23G26G 2G 9G16G 7
  -9932405.00345  -7718666.85647  22170983.077    22170981.6294   22170987.6244
        44.9004         42.3004
   -114221.17342    -87347.17145  24764550.122    24764551.7354   24764553.9204
        35.9004         34.3004
  -5286649.76145  -4096502.42547  22013230.309    22013231.4224   22013237.5344
        45.8004         43.0004
  -8808164.22544  -6836924.99746  23053319.561    23053318.7294   23053320.8064
        42.5004         39.7004
                   1308771.40445  25318161.613
                        31.2004
 -12755508.76746  -9916642.94447  21607698.600    21607698.2844   21607697.8074
        46.9004         44.2004
 -17459493.35046 -13592026.01647  21011913.239    21011913.4164   21011917.5134
        49.3004         46.5004
  -1140460.92842   -884576.83445  24062317.022    24062314.6134   24062320.3584
        37.0004         35.0004
 -17622131.59246 -13707811.92347  20979835.165    20979835.0024   20979837.0694
        48.2004         45.6004
 16  6 24  1 54 30.0000000  0  9G30G29G 6G23G26G 2G 9G16G 7
 -10025470.50545  -7791185.40447  22153271.725    22153271.3294   22153277.6644
        45.1004         42.5004
   -109827.95042    -83923.89345  24765387.168    24765385.9714   24765389.7254
        36.4004         34.8004
  -5201450.25345  -4030113.22047  22029443.780    22029444.9344   22029450.2794
        45.8004         43.0004
  -8725314.15744  -6772366.52846  23069086.163    23069085.4134   23069086.1754
        42.5004         39.9004
                   1344124.43945  25326793.619
                        31.0004
 -12761883.91846  -9921610.59547  21606485.438    21606484.7394   21606484.7774
        47.2004         44.2004
 -17402253.39046 -13547423.45847  21022805.843    21022805.6844   21022809.7824
        49.3004         46.3004
  -1144440.92842   -887678.16045  24061555.617    24061556.6714   24061563.6494
        37.1004         35.3004
 -17666845.89746 -13742654.22947  20971325.510    20971325.6804   20971327.9434
        48.2004         45.4004
 16  6 24  1 55  0.0000000  0  9G30G29G 6G23G26G 2G 9G16G 7
 -10118208.84545  -7863449.01847  22135625.666    22135625.0504   22135630.5264
        45.3004         42.6004
   -104878.74642    -80067.39845  24766327.204    24766328.5574   24766332.8234
        36.4004         34.3004
  -5115867.23745  -3963425.16747  22045729.917    22045730.6954   22045736.7424
        45.8004         43.0004
  -8642320.78944  -6707696.40846  23084878.186    23084878.7394   23084880.2104
        42.7004         40.0004
                      5106.08143  25335520.476
                        23.4004
 -12767685.73946  -9926131.50347  21605380.667    21605380.0864   21605380.6544
        47.0004         44.0004
 -17344722.89246 -13502594.49647  21033753.050    21033753.5174   21033757.8854
        49.3004         46.3004
  -1147810.39843   -890303.75445  24060920.726    24060918.0624   24060920.0594
        37.6004         35.9004
 -17711049.85346 -13777098.86847  20962913.872    20962914.1614   20962916.4514
        48.2004         45.4004
 16  6 24  1 55 30.0000000  0  9G30G29G 6G23G26G 2G 9G16G 7
 -10210617.64345  -7935455.83847  22118040.266    22118039.6394   22118045.2514
        45.5004         42.6004
    -99373.72542    -75777.76045  24767376.330    24767375.1874   24767377.8644
        36.1004         34.1004
  -5029903.38445  -3896440.36647  22062088.389    22062088.8394   22062094.0904
        45.8004         42.8004
  -8559185.13444  -6642915.40446  23100699.239    23100698.1284   23100699.9884
        42.3004         39.5004
                     41228.12344  25344347.612
                        29.3004
 -12772913.53046  -9930205.11047  21604386.566    21604385.4424   21604385.3594
        46.9004         44.0004
 -17286903.07046 -13457540.09947  21044756.033    21044756.0714   21044759.9054
        49.3004         46.3004
  -1150568.61943   -892452.99845  24060393.053    24060392.9734   24060396.6794
        38.0004         35.7004
 -17754742.37146 -13811144.97247  20954599.931    20954600.5134   20954602.3054
        48.4004         45.6004
 16  6 24  1 56  0.0000000  0  9G30G29G 6G23G26G 2G 9G16G 7
 -10302694.47545  -8007203.99447  22100518.271    22100517.4704   22100523.5504
        45.3004         42.5004
    -93313.44142    -71055.50445  24768530.364    24768528.4104   24768533.9834
        35.6004         34.0004
  -4943561.39345  -3829160.90347  22078517.661    22078519.1464   22078525.6944
        45.6004         43.0004
  -8475908.37244  -6578024.46346  23116545.299    23116544.7474   23116546.7224
        42.2004         39.3004
                     77716.70645  25353263.583
                        30.3004
 -12777567.43046  -9933831.52747  21603499.766    21603499.1464   21603499.9534
        46.9004         43.9004
 -17228795.28946 -13412261.30547  21055813.406    21055813.4884   21055817.9774
        49.1004         46.3004
  -1152714.95742   -894125.50345  24059983.065    24059983.5104   24059988.2574
        37.5004         35.5004
 -17797922.31746 -13844791.66747  20946383.156    20946383.4914   20946385.3324
        48.4004         45.6004
 16  6 24  1 56 30.0000000  0  8G30G29G 6G23G 2G 9G16G 7
 -10394437.05045  -8078691.69147  22083060.860    22083060.2414   22083065.4804
        45.1004         42.3004
    -86698.78942    -65901.20745  24769788.196    24769787.0884   24769791.8664
        35.7004         34.0004
  -4856843.86345  -3761588.82147  22095020.550    22095021.5384   22095027.2704
        45.6004         42.8004
  -8392491.49544  -6513024.34346  23132420.100    23132419.1014   23132420.6444
        42.0004         39.3004
 -12781647.07346  -9937010.47447  21602723.602    21602723.6054   21602723.7164
        46.7004         43.7004
 -17170400.76646 -13366759.08347  21066925.732    21066925.5504   21066930.2324
        49.1004         46.1004
  -1154249.23042   -895321.04645  24059693.386    24059691.2674   24059695.3804
        37.5004         35.3004
 -17840588.70146 -13878038.18747  20938264.071    20938264.0904   20938265.8084
        48.4004         45.6004
 16  6 24  1 57  0.0000000  0  8G30G29G 6G23G 2G 9G16G 7
 -10485842.89445  -8149917.00347  22065665.652    22065666.0954   22065671.6844
        44.9004         42.1004
    -79530.46442    -60315.51145  24771152.319    24771151.5544   24771155.4754
        36.3004         34.6004
  -4769753.55245  -3693726.25647  22111593.456    22111593.5314   22111599.7784
        45.3004         42.5004
  -8308935.29344  -6447915.64246  23148317.970    23148318.9924   23148320.5314
        41.8004         39.2004
 -12785152.44846  -9939741.94047  21602056.975    21602056.2564   21602057.0544
        46.9004         44.0004
 -17111720.85546 -13321034.48747  21078091.918    21078092.2904   21078096.3444
        48.9004         46.1004
  -1155170.98742   -896039.27945  24059515.004    24059516.1444   24059520.3454
        37.5004         35.5004
 -17882740.15846 -13910883.46947  20930242.944    20930243.1004   20930245.3074
        48.4004         45.8004
 16  6 24  1 57 30.0000000  0  8G30G29G 6G23G 2G 9G16G 7
 -10576909.72145  -8220878.14847  22048337.464    22048337.0934   22048341.3964
        44.9004         42.1004
    -71808.77942    -54298.65545  24772621.775    24772623.1894   24772626.1324
        36.8004         35.0004
  -4682293.13745  -3625575.28947  22128236.132    22128236.8394   22128243.1314
        45.1004         42.3004
  -8225241.13344  -6382699.44146  23164246.040    23164245.9274   23164247.4484
        41.8004         39.2004
 -12788083.21246  -9942025.66147  21601499.437    21601498.5684   21601499.7424
        46.9004         44.0004
 -17052756.79146 -13275088.46247  21089313.032    21089312.7064   21089316.9444
        48.9004         46.1004
  -1155479.66143   -896279.83645  24059459.694    24059458.5004   24059460.1014
        37.8004         35.7004
 -17924375.62846 -13943326.67447  20922320.314    20922319.8534   20922321.7344
        48.6004         45.8004
 16  6 24  1 58  0.0000000  0  8G30G29G 6G23G 2G 9G16G 7
 -10667635.17545  -8291573.28147  22031072.856    22031072.7414   22031077.0214
        45.1004         42.5004
    -63534.40442    -47851.02945  24774197.276    24774197.9684   24774200.5584
        37.3004         35.5004
  -4594465.32145  -3557138.04547  22144950.208    22144950.2804   22144954.9094
        45.1004         42.3004
  -8141409.73644  -6317376.31646  23180199.001    23180198.3424   23180200.5644
        41.8004         39.3004
 -12790439.19246  -9943861.49247  21601050.811    21601050.0914   21601051.2224
        46.9004         44.0004
 -16993509.84146 -13228922.00747  21100586.626    21100587.1354   21100591.2484
        48.9004         46.1004
  -1155175.07942   -896042.50145  24059515.667    24059515.5164   24059518.2074
        37.5004         35.3004
 -17965494.38446 -13975367.23747  20914494.965    20914494.8074   20914497.2084
        48.6004         45.8004
 16  6 24  1 58 30.0000000  0  8G30G29G 6G23G 2G 9G16G 7
 -10758016.91345  -8362000.57447  22013873.591    22013872.9944   22013878.6124
        45.3004         42.6004
    -54707.90343    -40973.21445  24775877.329    24775877.2844   24775879.6824
        37.6004         35.7004
  -4506272.82845  -3488416.63147  22161731.673    22161732.3074   22161737.7514
        45.1004         42.1004
  -8057442.45944  -6251947.30846  23196175.757    23196175.9754   23196177.9964
        41.6004         39.2004
 -12792220.33846  -9945249.39147  21600711.844    21600711.1274   21600711.5494
        46.9004         43.9004
 -16933981.32746 -13182536.15247  21111915.056    21111914.9514   21111919.2154
        48.9004         46.3004
  -1154256.88542   -895327.00845  24059691.504    24059690.9324   24059693.2944
        37.3004         35.2004
 -18006095.29046 -14007004.29847  20906768.310    20906768.8794   20906771.1234
        48.6004         45.8004
 16  6 24  1 59  0.0000000  0  8G30G29G 6G23G 2G 9G16G 7
 -10848052.58545  -8432158.21547  21996740.300    21996739.7584   21996745.6494
        45.6004         42.8004
    -45330.42443    -33666.08645  24777660.855    24777661.1304   24777664.8004
        37.6004         35.7004
  -4417718.36245  -3419413.15347  22178583.591    22178584.0874   22178589.2764
        44.9004         42.3004
  -7973340.00344  -6186412.96946  23212183.998    23212180.9714   23212183.3824
        41.8004         39.2004
 -12793426.43146  -9946189.21147  21600482.314    21600481.8884   21600482.1044
        46.7004         43.7004
 -16874172.48546 -13135931.86547  21123295.877    21123295.9974   21123300.6164
        48.9004         46.1004
  -1152724.44142   -894132.90045  24059984.648    24059984.0874   24059983.3334
        37.1004         35.0004
 -18046177.71946 -14038237.33947  20899141.676    20899141.3754   20899144.0924
        48.6004         45.8004
 16  6 24  1 59 30.0000000  0  8G30G29G 6G23G 2G 9G16G 7
 -10937739.92545  -8502044.42647  21979672.862    21979673.1694   21979678.5094
        45.8004         43.2004
    -35402.23143    -25929.78845  24779551.011    24779551.2064   24779554.2394
        38.0004         35.9004
  -4328804.66745  -3350129.77447  22195502.757    22195503.0264   22195508.7394
        44.9004         42.1004
  -7889103.71144  -6120774.31446  23228208.687    23228209.4694   23228212.6014
        41.6004         38.8004
 -12794057.44246  -9946680.91447  21600362.278    21600361.2834   21600361.9754
        46.7004         43.9004
 -16814084.61646 -13089110.15447  21134731.036    21134730.8364   21134734.6604
        48.9004         46.1004
  -1150577.50242   -892459.96645  24060388.258    24060390.4894   24060393.7954
        36.8004         34.8004
 -18085740.12846 -14069065.17447  20891613.297    20891613.1944   20891615.6254
        48.6004         45.9004
 16  6 24  2  0  0.0000000  0  8G30G29G 6G23G 2G 9G16G 7
 -11027076.56445  -8571657.35747  21962673.067    21962672.8944   21962678.4224
        46.0004         43.2004
    -24924.44843    -17765.23845  24781544.966    24781544.6574   24781546.8184
        37.8004         35.7004
  -4239534.48845  -3280568.61347  22212490.530    22212490.8714   22212496.2774
        44.9004         42.1004
  -7804734.50444  -6055032.13546  23244266.874    23244264.8454   23244267.7274
        41.6004         39.2004
 -12794113.19046  -9946724.36147  21600351.371    21600350.9584   21600351.4274
        46.7004         43.9004
 -16753719.01246 -13042072.01847  21146217.950    21146217.8674   21146221.6434
        48.9004         46.1004
  -1147815.95642   -890308.12745  24060918.986    24060917.3304   24060919.8034
        36.6004         34.8004
 -18124781.58146 -14099487.07147  20884183.755    20884183.7064   20884185.8624
        48.6004         45.8004
 16  6 24  2  0 30.0000000  0  8G30G29G 6G23G 2G 9G16G 7
 -11116060.23145  -8640995.25347  21945739.447    21945739.7374   21945745.1314
        46.0004         43.3004
    -13897.47943     -9172.80145  24783642.192    24783642.3944   24783646.4494
        37.8004         35.5004
  -4149910.57345  -3210731.82047  22229544.674    22229545.5384   22229552.2954
        44.9004         42.3004
  -7720233.33644  -5989187.11546  23260344.459    23260345.4024   23260346.8164
        41.5004         39.0004
 -12793593.66946  -9946319.54747  21600450.202    21600449.8974   21600450.2504
        46.7004         44.0004
 -16693076.87546 -12994818.41247  21157757.836    21157757.9264   21157761.8684
        48.9004         46.1004
  -1144439.50742   -887677.11245  24061556.836    24061558.4964   24061561.3194
        36.3004         34.3004
 -18163301.26646 -14129502.40147  20876852.908    20876853.2634   20876855.9514
        48.6004         45.6004
 16  6 24  2  1  0.0000000  0  8G30G29G 6G23G 2G 9G16G 7
 -11204688.58645  -8710056.29247  21928874.879    21928874.8284   21928879.2744
        46.2004         43.3004
     -2322.12843      -153.07145  24785845.323    24785845.7634   24785848.3334
        37.6004         35.5004
  -4059935.64745  -3140621.50047  22246667.172    22246667.4184   22246673.1174
        44.9004         42.3004
  -7635601.30144  -5923240.12146  23276450.166    23276449.8644   23276451.2204
        41.1004         38.1004
 -12792498.88746  -9945466.46047  21600658.871    21600658.1114   21600658.6484
        46.9004         43.9004
 -16632159.54546 -12947350.36247  21169349.055    21169349.2944   21169353.8574
        48.8004         45.9004
  -1140447.90742   -884566.80045  24062317.401    24062318.2284   24062321.9554
        36.3004         34.6004
 -18201298.42346 -14159110.58447  20869622.194    20869622.6864   20869624.8894
        48.4004         45.8004
 16  6 24  2  1 30.0000000  0  8G30G29G 6G23G 2G 9G16G 7
 -11292959.35845  -8778838.70147  21912077.549    21912077.3764   21912081.6864
        46.0004         43.2004
      9800.59543      9293.24745  24788151.867    24788151.5914   24788155.3804
        37.8004         35.7004
  -3969612.48845  -3070239.83947  22263855.786    22263856.1514   22263861.2074
        44.9004         42.1004
  -7550839.40044  -5857191.92046  23292580.153    23292580.0204   23292580.6074
        40.8004         38.3004
 -12790829.02146  -9944165.26747  21600976.644    21600976.0084   21600975.8274
        46.9004         43.9004
 -16570968.24646 -12899668.83047  21180993.812    21180993.9764   21180998.6114
        48.8004         45.9004
  -1135840.78742   -880976.81045  24063197.314    24063194.9424   24063198.2174
        37.0004         35.0004
 -18238772.02546 -14188310.78047  20862491.744    20862491.9874   20862494.2484
        48.6004         45.8004
 16  6 24  2  2  0.0000000  0  8G30G29G 6G23G 2G 9G16G 7
 -11380870.27745  -8847340.68847  21895348.391    21895348.1494   21895352.9764
        46.0004         43.2004
     22470.05343     19165.60145  24790562.644    24790563.8654   24790564.9574
        37.6004         35.5004
  -3878943.88045  -2999588.98947  22281109.014    22281109.1504   22281115.2124
        44.9004         42.1004
  -7465948.60244  -5791043.26246  23308731.878    23308733.7434   23308735.9714
        40.8004         38.5004
 -12788583.57946  -9942415.58047  21601404.107    21601403.8034   21601403.8024
        46.9004         44.0004
 -16509504.25346 -12851774.81647  21192689.686    21192690.1104   21192694.3704
        48.8004         45.8004
  -1130617.82142   -876906.94645  24064187.489    24064187.7624   24064194.2244
        37.3004         35.3004
 -18275721.25646 -14217102.38247  20855461.078    20855461.0924   20855462.7294
        48.6004         45.9004
 16  6 24  2  2 30.0000000  0  8G30G29G 6G23G 2G 9G16G 7
 -11468419.03445  -8915560.48547  21878688.000    21878687.8844   21878692.8364
        46.2004         43.3004
     35685.08442     29463.06145  24793076.863    24793077.6734   24793081.1414
        37.3004         35.2004
  -3787932.55345  -2928671.09746  22298428.288    22298428.2214   22298433.6644
        44.8004         41.9004
  -7380929.83844  -5724794.93346  23324914.795    23324913.7654   23324913.9194
        40.8004         38.3004
 -12785763.25446  -9940217.92747  21601941.026    21601940.1894   21601940.8074
        46.9004         44.0004
 -16447768.82446 -12803669.28647  21204437.870    21204437.7204   21204442.4494
        48.6004         45.8004
  -1124779.42542   -872357.55945  24065303.377    24065301.2464   24065303.4044
        37.3004         35.3004
 -18312145.49346 -14245484.87147  20848529.250    20848529.5294   20848531.7524
        48.8004         45.9004
 16  6 24  2  3  0.0000000  0  8G30G29G 6G23G 2G 9G16G 7
 -11555603.39645  -8983496.32647  21862097.019    21862097.5754   21862103.1344
        46.2004         43.5004
     49444.89442     40184.99045  24795695.058    24795696.0344   24795700.1924
        37.1004         35.0004
  -3696581.34445  -2857488.34946  22315809.573    22315811.2344   22315817.5534
        44.6004         41.4004
  -7295784.30544  -5658447.75846  23341113.750    23341114.7454   23341117.1694
        40.8004         37.9004
 -12782367.67546  -9937572.01947  21602586.607    21602586.0164   21602586.8674
        46.9004         44.0004
 -16385763.24346 -12755353.24847  21216236.473    21216236.9244   21216241.9164
        48.6004         45.8004
  -1118325.45442   -867328.47145  24066528.025    24066527.7644   24066531.8164
        37.1004         35.2004
 -18348043.37646 -14273457.23147  20841698.033    20841697.9434   20841700.5244
        48.8004         45.9004
 16  6 24  2  3 30.0000000  0  8G30G29G 6G23G 2G 9G16G 7
 -11642421.10145  -9051146.46147  21845577.658    21845577.5864   21845581.4744
        46.3004         43.5004
     63748.84642     51330.97045  24798417.813    24798418.2934   24798420.6564
        37.1004         35.2004
  -3604893.00945  -2786042.91646  22333259.628    22333259.3884   22333265.0614
        44.2004         41.4004
  -7210512.73044  -5592002.47746  23357343.820    23357343.2584   23357343.2454
        40.6004         38.1004
 -12778397.09546  -9934478.05547  21603342.220    21603341.5244   21603342.3644
        46.9004         44.0004
 -16323488.71546 -12706827.64547  21228087.198    21228087.4884   21228092.0304
        48.6004         45.8004
  -1111255.50942   -861819.43345  24067874.147    24067875.3274   24067876.7374
        37.5004         35.5004
 -18383414.01846 -14301018.76147  20834966.982    20834967.2524   20834969.4744
        48.8004         45.9004
 16  6 24  2  4  0.0000000  0  8G30G29G 6G23G 2G 9G16G 7
 -11728869.86845  -9118509.10947  21829126.274    21829126.1364   21829130.9044
        46.3004         43.5004
     78595.87742     62900.08945  24801243.625    24801244.0034   24801246.1144
        37.3004         35.3004
  -3512870.33045  -2714336.96246  22350768.658    22350770.0864   22350775.9114
        44.1004         41.2004
  -7125116.30343  -5525459.81046  23373593.208    23373592.7364   23373594.8704
        40.4004         37.9004
 -12773851.73746  -9930936.21447  21604207.190    21604207.2384   21604207.1494
        46.9004         44.0004
 -16260946.53346 -12658093.48247  21239988.777    21239988.5984   21239993.8104
        48.4004         45.6004
  -1103569.56443   -855830.36446  24069339.876    24069338.0404   24069339.9114
        38.0004         36.0004
 -18418257.09246 -14328169.19047  20828336.533    20828336.8674   20828339.2454
        48.8004         45.9004
 16  6 24  2  4 30.0000000  0  8G30G29G 6G23G 2G 9G16G 7
 -11814947.49945  -9185582.56947  21812746.826    21812746.3614   21812750.7794
        46.3004         43.5004
     93985.01442     74891.59845  24804171.174    24804171.7274   24804173.6024
        37.5004         35.5004
  -3420516.12445  -2642372.67446  22368345.039    22368345.7024   22368350.4544
        43.9004         41.2004
  -7039595.78744  -5458820.49946  23389866.269    23389865.8804   23389867.1564
        40.6004         37.9004
 -12768731.65046  -9926946.53347  21605182.100    21605181.1424   21605181.3684
        46.9004         44.0004
 -16198137.96146 -12609151.74047  21251941.359    21251941.6354   21251945.9504
        48.4004         45.8004
  -1095267.33543   -849361.11045  24070914.634    24070915.7164   24070920.1604
        37.8004         35.7004
 -18452571.84446 -14354907.94747  20821806.668    20821806.8734   20821809.1724
        48.8004         45.9004
 16  6 24  2  5  0.0000000  0  8G30G29G 6G23G 2G 9G16G 7
 -11900651.73845  -9252365.07347  21796437.569    21796437.0264   21796441.3004
        46.3004         43.5004
    109915.25043     87304.79545  24807202.802    24807202.2634   24807205.7844
        37.6004         35.5004
  -3327833.22745  -2570152.25046  22385981.483    22385981.7444   22385988.0494
        44.1004         41.4004
  -6953952.42444  -5392085.45546  23406166.617    23406164.4494   23406165.2904
        40.6004         38.1004
 -12763036.95846  -9922509.09647  21606265.459    21606264.8554   21606264.9424
        46.9004         44.0004
 -16135064.22646 -12560003.37347  21263943.480    21263943.2714   21263948.4984
        48.4004         45.6004
  -1086349.39943   -842412.08345  24072616.198    24072613.6304   24072615.7454
        38.0004         35.9004
 -18486356.72946 -14381233.81747  20815377.824    20815377.7864   20815380.2154
        48.8004         45.9004
 16  6 24  2  5 30.0000000  0  8G30G29G 6G23G 2G 9G16G 7
 -11985980.37345  -9318854.88747  21780199.679    21780199.6344   21780204.2924
        46.3004         43.5004
    126385.53443    100138.79545  24810337.074    24810337.6424   24810340.2274
        37.6004         35.5004
  -3234824.41345  -2497677.87746  22403681.371    22403682.0374   22403686.9744
        44.1004         41.4004
  -6868186.96244  -5325255.27646  23422484.453    23422484.6444   23422487.0804
        40.8004         38.6004
 -12756767.66146  -9917623.93347  21607458.771    21607457.9744   21607457.9354
        46.9004         43.9004
 -16071726.57546 -12510649.36147  21275995.536    21275995.8804   21276001.3324
        48.4004         45.6004
  -1076815.26543   -834982.86745  24074426.734    24074426.1464   24074432.1094
        37.8004         35.7004
 -18519611.81246 -14407146.86347  20809049.313    20809049.8544   20809052.2834
        48.8004         46.1004
 16  6 24  2  6  0.0000000  0  8G30G29G 6G23G 2G 9G16G 7
 -12070931.15446  -9385050.28247  21764034.338    21764034.4274   21764039.0824
        46.5004         43.9004
    143395.29242    113393.21045  24813573.411    24813573.6864   24813577.1114
        37.5004         35.5004
  -3141492.50345  -2424951.74446  22421441.802    22421442.1584   22421447.0714
        44.1004         41.2004
  -6782300.47644  -5258330.80046  23438830.828    23438829.5044   23438831.0024
        40.9004         38.5004
 -12749924.30146  -9912291.44247  21608760.941    21608760.3034   21608760.6454
        46.9004         44.0004
 -16008126.26746 -12461090.68647  21288099.139    21288098.6944   21288103.8614
        48.2004         45.4004
  -1066665.27043   -827073.80545  24076357.947    24076358.3664   24076362.8614
        37.6004         35.5004
 -18552336.12946 -14432646.31447  20802822.260    20802822.2964   20802824.6674
        48.8004         45.9004
 16  6 24  2  6 30.0000000  0  8G30G29G 6G23G 2G 9G16G 7
 -12155501.92046  -9450949.55747  21747940.808    21747940.8494   21747945.5314
        46.7004         43.9004
    160942.95042    127066.75045  24816913.112    24816914.6864   24816915.2244
        36.8004         34.5004
  -3047840.34845  -2351976.06446  22439262.817    22439263.6524   22439268.8604
        43.9004         41.2004
  -6696294.10044  -5191312.85346  23455193.411    23455195.5414   23455196.7904
        40.9004         38.5004
 -12742507.07946  -9906511.78547  21610172.031    21610171.9034   21610172.2834
        46.9004         44.0004
 -15944264.53046 -12411328.29047  21300251.474    21300251.2494   21300256.5884
        48.2004         45.4004
  -1055899.60443   -818684.95245  24078408.209    24078407.7464   24078409.9894
        37.6004         35.5004
 -18584528.82146 -14457731.51547  20796696.243    20796696.2304   20796698.7244
        48.8004         45.9004
 16  6 24  2  7  0.0000000  0  8G30G29G 6G23G 2G 9G16G 7
 -12239690.48646  -9516551.00447  21731919.998    21731919.6664   21731925.2634
        46.7004         43.9004
    179027.95542    141158.94645  24820353.799    24820355.6434   24820357.3174
        36.1004         34.0004
  -2953870.73745  -2278753.00246  22457145.311    22457146.2274   22457150.5354
        44.1004         41.4004
  -6610168.43944  -5124202.01546  23471586.150    23471584.7864   23471587.1244
        40.8004         38.1004
 -12734516.09746  -9900285.04247  21611693.108    21611692.2394   21611693.2044
        47.0004         44.2004
 -15880142.62346 -12361363.17547  21312453.528    21312453.9554   21312458.5344
        48.2004         45.6004
  -1044517.66343   -809815.91745  24080572.626    24080573.6604   24080578.3074
        37.8004         35.7004
 -18616189.28446 -14482401.99747  20790670.936    20790671.5574   20790673.8494
        48.8004         46.1004
 16  6 24  2  7 30.0000000  0  8G30G29G 6G23G 2G 9G16G 7
 -12323494.64046  -9581852.92347  21715972.145    21715972.6384   21715977.7374
        46.9004         44.0004
    197648.87642    155668.78945  24823895.782    24823895.1954   24823902.5934
        35.6004         33.8004
  -2859586.55245  -2205284.82246  22475085.831    22475086.3764   22475092.1124
        43.9004         41.1004
  -6523924.78144  -5056999.20546  23487995.522    23487995.5684   23487998.1834
        40.8004         38.3004
 -12725951.53546  -9893611.35347  21613322.773    21613322.6474   21613322.6924
        47.0004         44.0004
 -15815761.76046 -12311196.27247  21324704.700    21324705.0224   21324709.8334
        48.2004         45.4004
  -1032520.01443   -800467.09745  24082857.386    24082856.2824   24082861.1494
        37.8004         35.9004
 -18647317.08746 -14506657.41447  20784748.151    20784748.5094   20784750.5874
        48.9004         46.3004
 16  6 24  2  8  0.0000000  0  8G30G29G 6G23G 2G 9G16G 7
 -12406912.11846  -9646853.53347  21700098.780    21700098.9724   21700104.2514
        46.9004         44.2004
    216804.37742    170595.16145  24827543.167    24827543.5104   24827543.5274
        34.9004         33.3004
  -2764990.57845  -2131573.70746  22493087.420    22493088.0614   22493094.1514
        43.9004         41.1004
  -6437563.92643  -4989705.06346  23504430.938    23504429.8544   23504431.4214
        40.4004         37.9004
 -12716814.01946  -9886491.20747  21615061.466    21615061.2784   21615060.8914
        46.7004         43.7004
 -15751123.21346 -12260828.57047  21337005.210    21337005.2314   21337010.0064
        48.2004         45.4004
  -1019907.26343   -790638.93145  24085257.104    24085256.5224   24085259.7464
        38.0004         35.7004
 -18677911.21046 -14530496.97847  20778926.301    20778926.5314   20778928.5574
        48.9004         46.3004
 16  6 24  2  8 30.0000000  0  8G30G29G 6G23G 2G 9G16G 7
 -12489940.92846  -9711551.29547  21684298.929    21684299.0174   21684303.8684
        46.9004         44.0004
    236493.50341    185937.33745  24831289.077    24831287.1324   24831294.0654
        34.3004         33.1004
  -2670085.70145  -2057621.87646  22511146.788    22511147.6944   22511153.7294
        43.9004         41.1004
  -6351086.79543  -4922320.30246  23520884.218    23520885.2274   23520888.1094
        40.3004         37.6004
 -12707103.50545  -9878924.57347  21616908.977    21616908.0654   21616908.3684
        46.3004         43.2004
 -15686228.17946 -12210261.01847  21349354.251    21349354.0414   21349358.8794
        48.2004         45.4004
  -1006679.25043   -780331.38745  24087773.425    24087773.7694   24087777.7134
        38.0004         35.9004
 -18707971.42346 -14553920.51647  20773207.110    20773206.8314   20773208.1804
        49.1004         46.3004
 16  6 24  2  9  0.0000000  0  8G30G29G 6G23G 2G 9G16G 7
 -12572578.88146  -9775944.48247  21668573.421    21668573.0964   21668578.9574
        46.9004         44.0004
    256715.71641    201694.93745  24835138.529    24835140.6224   24835140.5244
        34.2004         32.9004
  -2574874.79645  -1983431.57946  22529265.137    22529265.5564   22529270.6394
        43.7004         40.7004
  -6264494.62743  -4854845.94246  23537364.849    23537364.8834   23537366.6444
        40.3004         37.9004
 -12696820.58945  -9870911.91647  21618865.787    21618865.2634   21618865.2304
        46.0004         43.3004
 -15621077.91446 -12159494.56947  21361751.684    21361751.9004   21361756.5294
        48.2004         45.2004
   -992836.17743   -769544.60145  24090409.263    24090408.8814   24090412.7974
        37.8004         35.9004
 -18737496.61146 -14576927.14047  20767587.972    20767587.4694   20767589.4164
        48.9004         46.1004
 16  6 24  2  9 30.0000000  0  8G30G29G 6G23G 2G 9G16G 7
 -12654823.80146  -9840031.41647  21652922.194    21652922.2474   21652927.5014
        46.9004         44.0004
    277469.22041    217866.52245  24839086.709    24839085.6524   24839088.3174
        34.2004         33.1004
  -2479360.65245  -1909005.01746  22547441.026    22547441.2884   22547447.1654
        43.6004         40.7004
  -6177787.99343  -4787282.36446  23553863.081    23553863.6594   23553864.4604
        40.1004         37.6004
 -12685965.66645  -9862453.54847  21620931.834    21620930.9484   21620931.4154
        46.3004         43.7004
 -15555673.64246 -12108530.21347  21374198.331    21374198.1204   21374202.4264
        48.1004         45.2004
   -978378.24743   -758278.67446  24093160.595    24093159.3794   24093162.0124
        38.0004         36.0004
 -18766486.35846 -14599516.54047  20762070.454    20762070.8644   20762073.0754
        48.9004         46.1004
 16  6 24  2 10  0.0000000  0  8G30G29G 6G23G 2G 9G16G 7
 -12736673.52446  -9903810.40247  21637346.656    21637346.5874   21637352.3764
        46.9004         44.0004
    298752.80141    234451.11445  24843136.504    24843134.0114   24843140.5874
        33.7004         32.4004
  -2383546.17144  -1834344.40646  22565672.084    22565673.7724   22565680.0794
        43.2004         40.6004
  -6090968.08043  -4719630.53046  23570385.206    23570385.1754   23570386.0354
        40.1004         37.6004
 -12674539.14446  -9853549.76147  21623106.393    21623105.4704   21623106.1504
        46.5004         43.9004
 -15490016.60646 -12057368.88447  21386691.795    21386692.4234   21386696.8054
        48.1004         45.1004
   -963305.75243   -746533.90245  24096026.587    24096026.4604   24096030.3874
        38.0004         35.9004
 -18794940.14146 -14621688.30847  20756655.510    20756656.1314   20756658.4784
        48.9004         46.1004
 16  6 24  2 10 30.0000000  0  8G30G29G 6G23G 2G 9G16G 7
 -12818125.94746  -9967279.80547  21621847.425    21621847.2504   21621852.5204
        47.0004         44.2004
    320564.99141    251447.63045  24847286.566    24847285.1914
        32.4004         31.7004
  -2287434.23144  -1759452.01646  22583963.801    22583964.1864   22583969.3494
        43.2004         40.4004
  -6004035.59643  -4651890.98246  23586929.056    23586927.7794   23586927.7744
        40.1004         37.8004
 -12662541.35546  -9844200.82547  21625389.247    21625388.3364   21625388.7164
        46.5004         43.5004
 -15424107.98946 -12006011.52847  21399234.353    21399234.5344   21399238.5614
        47.9004         45.1004
   -947618.53843   -734310.09346  24099015.359    24099013.6544   24099017.3324
        38.2004         36.0004
 -18822857.40346 -14643442.00947  20751343.837    20751344.0974   20751346.4994
        48.9004         46.3004
 16  6 24  2 11  0.0000000  0  8G30G29G 6G23G 2G 9G16G 7
 -12899178.94946 -10030437.97247  21606423.211    21606423.2044   21606428.3754
        47.2004         44.4004
    342905.06341    268855.46145  24851538.784    24851537.6334
        32.1004         31.7004
  -2191027.67244  -1684330.05446  22602308.902    22602309.7164   22602315.3524
        43.2004         40.6004
  -5916991.54843  -4584064.47246  23603490.786    23603492.3334   23603491.7154
        40.1004         37.8004
 -12649972.93045  -9834407.25347  21627780.681    21627779.8384   21627780.5184
        46.3004         43.3004
 -15357949.07246 -11954459.12247  21411823.636    21411823.7484   21411828.2434
        47.9004         45.1004
   -931317.55043   -721608.04845  24102114.499    24102114.1114   24102118.3044
        37.8004         35.7004
 -18850237.65646 -14664777.26247  20746133.769    20746133.8794   20746136.2844
        49.1004         46.5004
 16  6 24  2 11 30.0000000  0  8G30G29G 6G23G 2G 9G16G 7
 -12979830.46346 -10093283.28547  21591075.465    21591075.5464   21591081.2664
        47.2004         44.5004
    365771.70941    286673.65245  24855888.602    24855889.4074
        32.1004         31.5004
  -2094329.43444  -1608980.79446  22620710.773    22620711.0084   22620716.9204
        43.4004         40.9004
  -5829836.98043  -4516151.86046  23620079.902    23620077.1304   23620076.9584
        39.9004         37.4004
 -12636834.04345  -9824169.17047  21630280.730    21630280.1344   21630280.5364
        46.2004         43.3004
 -15291540.96946 -11902712.56747  21424460.500    21424460.7014   21424465.7584
        47.9004         45.1004
   -914403.12543   -708428.00145  24105334.202    24105332.3534   24105335.5174
        37.6004         35.3004
 -18877080.38546 -14685693.66247  20741026.153    20741026.1174   20741028.1014
        49.3004         46.5004
 16  6 24  2 12  0.0000000  0  8G30G29G 6G23G 2G 9G16G 7
 -13060078.35946 -10155814.09547  21575805.031    21575805.3934   21575810.8514
        47.4004         44.7004
    389163.80351    304901.21155  24860341.227    24860340.7164
        31.6004         31.5004
  -1997342.30945  -1533406.43446  22639167.623    22639167.8474   22639172.4204
        43.6004         40.9004
  -5742572.55543  -4448153.62146  23636681.752    23636682.7014   23636684.7894
        40.3004         37.8004
 -12623125.40145  -9813487.12647  21632889.687    21632889.1384   21632889.8414
        46.3004         43.5004
 -15224884.96546 -11850772.83047  21437145.995    21437145.2704   21437149.4844
        47.9004         45.1004
   -896875.55342   -694770.15245  24108670.771    24108670.4034   24108673.1354
        37.5004         35.3004
 -18903385.05946 -14706190.79747  20736020.274    20736019.9224   20736022.1764
        49.1004         46.3004
 16  6 24  2 12 30.0000000  0  8G30G29G 6G23G 2G 9G16G 7
 -13139920.56146 -10218028.78347  21560611.540    21560611.4214   21560616.8744
        47.4004         44.4004
                    323537.01345  24864892.702
                        31.3004
  -1900069.23344  -1457609.26046  22657676.981    22657677.5634   22657683.0994
        43.4004         40.6004
  -5655199.44243  -4380070.71546  23653311.070    23653310.5844   23653311.3214
        40.1004         37.4004
 -12608847.48146  -9802361.47447  21635606.765    21635606.3824   21635607.0804
        46.5004         43.9004
 -15157982.26746 -11798640.86647  21449876.419    21449876.7644   21449880.8464
        47.9004         45.1004
   -878734.96542   -680634.64845  24112120.113    24112121.7154   24112125.0304
        37.5004         35.3004
 -18929150.86046 -14726268.03247  20731116.663    20731116.7464   20731118.8194
        49.1004         46.1004
 16  6 24  2 13  0.0000000  0  8G30G29G 6G23G 2G 9G16G 7
 -13219355.02846 -10279925.75047  21545495.837    21545496.0754   21545500.6974
        47.2004         44.4004
    437518.5685     342580.28055  24869543.415    24869545.2044
        31.4004         31.3004
  -1802513.05744  -1381591.48746  22676241.774    22676241.5284   22676246.9374
        43.2004         40.4004
  -5567718.56743  -4311903.83046  23669957.079    23669956.4694   23669957.9284
        39.7004         37.3004
 -12594000.82246  -9790792.64347  21638432.196    21638431.7274   21638432.5874
        46.5004         43.9004
 -15090834.07646 -11746317.61347  21462655.205    21462655.0564   21462658.5774
        47.9004         45.1004
   -859981.88142   -666021.88045  24115691.045    24115690.4814   24115692.4804
        37.1004         35.0004
 -18954377.79346 -14745925.37347  20726316.501    20726316.2484   20726318.2494
        48.9004         46.1004
 16  6 24  2 13 30.0000000  0  8G30G29G 6G23G 2G 9G16G 7
 -13298379.65146 -10341503.36447  21530457.265    21530457.3924   21530463.0094
        47.0004         44.2004
                     13509.64253  24874291.366
                        23.4004
  -1704676.71144  -1305355.40846  22694858.232    22694859.1454   22694865.4914
        43.0004         40.4004
  -5480130.76043  -4243653.64246  23686624.177    23686623.7874   23686625.9204
        39.7004         37.4004
 -12578585.95745  -9778781.05047  21641364.624    21641364.1014   21641365.1964
        46.3004         43.3004
 -15023441.61146 -11693804.00847  21475478.795    21475478.5734   21475483.1964
        47.9004         44.9004
   -840616.69342   -650932.08945  24119374.156    24119373.9164   24119377.0004
        36.8004         34.6004
 -18979065.25146 -14765162.34747  20721618.283    20721618.5484   20721620.6534
        48.9004         46.3004
 16  6 24  2 14  0.0000000  0  8G30G29G 6G23G 2G 9G16G 7
 -13376992.41546 -10402760.05247  21515499.138    21515498.9074   21515503.4924
        47.2004         44.5004
                     33490.87054  24879142.039
                        29.3004
  -1606563.08644  -1228903.25846  22713529.192    22713530.2384   22713535.0144
        43.0004         40.4004
  -5392436.84643  -4175320.74046  23703310.615    23703311.6064   23703313.8434
        39.9004         37.6004
 -12562603.45445  -9766327.16947  21644406.301    21644405.8184   21644406.7364
        46.3004         43.5004
 -14955806.07846 -11641100.99547  21488349.081    21488349.1694   21488353.8884
        47.7004         44.9004
   -820639.99342   -635365.84345  24123174.007    24123174.2264   24123179.3094
        36.6004         34.8004
 -19003212.80946 -14783978.61947  20717023.611    20717024.0014   20717025.7304
        49.1004         46.5004
 16  6 24  2 14 30.0000000  0  8G30G29G 6G23G 2G 9G16G 7
 -13455191.30046 -10463694.23647  21500617.521    21500617.3824   21500622.9814
        47.4004         44.5004
                     53898.36054  24884086.953
                        29.3004
  -1508175.09344  -1152237.32246  22732252.179    22732252.7314   22732257.7094
        43.0004         40.2004
  -5304637.71343  -4106905.87246  23720020.447    23720018.8854   23720020.9444
        39.9004         37.4004
 -12546054.08846  -9753431.57947  21647555.807    21647555.1514   21647555.8854
        46.5004         43.7004
 -14887928.64346 -11588209.49647  21501265.174    21501265.5824   21501270.5124
        47.7004         44.7004
   -800052.64342   -619323.78445  24127094.281    24127092.8154   24127097.7034
        36.6004         34.8004
 -19026820.28146 -14802374.04347  20712531.352    20712531.2624   20712533.7104
        49.3004         46.5004
 16  6 24  2 15  0.0000000  0  8G30G29G 6G23G 2G 9G16G 7
 -13532974.23946 -10524304.31347  21485816.173    21485815.9634   21485820.7814
        47.4004         44.7004
                     12628.02353  24889135.362
                        23.4004
  -1409515.59844  -1075359.79846  22751025.504    22751026.6124   22751032.5594
        42.9004         40.0004
  -5216734.79843  -4038410.10946  23736744.784    23736745.4264   23736747.0834
        39.6004         36.9004
 -12528938.36745  -9740094.64747  21650812.813    21650812.1824   21650812.5924
        46.3004         43.5004
 -14819810.49846 -11535130.42247  21514227.729    21514227.8804   21514232.7504
        47.5004         44.5004
   -778854.81842   -602806.00945  24131126.636    24131125.3784   24131130.1144
        36.4004         34.5004
 -19049886.78346 -14820347.92247  20708142.363    20708141.7304   20708144.1684
        49.3004         46.5004
 16  6 24  2 15 30.0000000  0  8G30G29G 6G23G 2G 9G16G 7
 -13610339.27646 -10584588.73447  21471094.269    21471094.1084   21471098.5674
        47.4004         44.5004
                     33599.96554  24894279.213
                        29.8004
  -1310587.49944   -998272.99946  22769851.989    22769851.7204   22769857.3454
        42.7004         39.9004
  -5128728.18343  -3969833.54246  23753494.067    23753492.5994   23753493.9944
        39.2004         36.6004
 -12511256.92645  -9726316.89247  21654177.326    21654177.1574   21654176.8264
        46.3004         43.5004
 -14751452.90146 -11481864.77647  21527236.328    21527236.3704   21527240.7404
        47.5004         44.7004
   -757047.01842   -585812.91145  24135277.991    24135276.5164   24135281.2264
        36.6004         35.0004
 -19072412.39146 -14837900.33747  20703854.889    20703854.9564   20703857.4134
        49.1004         46.3004
 16  6 24  2 16  0.0000000  0  8G30G29G 6G23G 2G 9G16G 7
 -13687284.32246 -10644545.89747  21456451.393    21456451.4094   21456456.7094
        47.2004         44.4004
                     54944.70754  24899521.185
                        29.6004
  -1211393.73044   -920979.17946  22788725.735    22788726.6074   22788733.3124
        42.5004         39.5004
  -5040619.15843  -3901177.15046  23770260.573    23770259.9624   23770260.7404
        39.0004         36.6004
 -12493010.45945  -9712098.87747  21657650.029    21657649.2284   21657648.9674
        46.3004         43.5004
 -14682857.02046 -11428413.45647  21540289.232    21540289.7274   21540294.2694
        47.5004         44.7004
   -734629.75942   -568344.90545  24139545.095    24139544.7264   24139546.3544
        37.0004         35.0004
 -19094396.58546 -14855030.86547  20699671.305    20699671.6954   20699674.0754
        49.1004         46.5004
 16  6 24  2 16 30.0000000  0  8G30G29G 6G23G 2G 9G16G 7
 -13763807.45046 -10704174.29347  21441889.478    21441889.6394   21441894.4694
        47.4004         44.5004
                     11539.45853  24904859.208
                        23.4004
  -1111937.17844   -843480.58946  22807653.054    22807653.5904   22807660.0144
        42.2004         39.7004
  -4952408.67543  -3832441.70146  23787046.799    23787045.6854   23787044.9724
        38.9004         36.4004
 -12474199.68545  -9697441.14347  21661228.787    21661228.5554   21661229.2414
        46.3004         43.7004
 -14614024.00646 -11374777.34647  21553388.358    21553388.3654   21553392.9134
        47.4004         44.5004
   -711603.88942   -550402.68845  24143925.050    24143924.2614   24143927.2584
        36.6004         35.0004
 -19115839.17846 -14871739.37047  20695590.848    20695591.1494   20695593.8724
        49.1004         46.3004
 16  6 24  2 17  0.0000000  0  8G30G29G 6G23G 2G 9G16G 7
 -13839906.64646 -10763472.35647  21427409.109    21427408.8414   21427413.6834
        47.4004         44.7004
                     33876.84154  24910295.074
                        29.3004
  -1012220.78644   -765779.54146  22826627.964    22826629.1144   22826633.9544
        42.2004         39.5004
  -4864097.49343  -3763627.84146  23803850.833    23803850.8504   23803850.3554
        38.9004         36.7004
 -12454825.27745  -9682344.19647  21664915.740    21664915.5584   21664916.0514
        46.3004         43.3004
 -14544955.08746 -11320957.42647  21566530.967    21566531.3134   21566536.3334
        47.4004         44.5004
   -687969.96542   -531986.64845  24148422.112    24148421.7324   24148425.1314
        37.0004         35.2004
 -19136739.70046 -14888025.48147  20691613.510    20691613.5014   20691616.5054
        49.1004         46.3004
 16  6 24  2 17 30.0000000  0  8G30G29G 6G23G 2G 9G16G 7
 -13915579.98546 -10822438.57147  21413008.574    21413008.3884   21413013.1974
        47.5004         44.9004
                     56646.62754  24915828.055
                        29.6004
   -912247.48544   -687878.30746  22845654.371    22845654.2024   22845657.7974
        42.0004         39.3004
  -4775686.67143  -3694736.30346  23820675.054    23820675.1814   23820675.0904
        39.2004         36.9004
 -12434888.04845  -9666808.69247  21668710.175    21668709.0064   21668710.0164
        46.3004         43.5004
 -14475651.43146 -11266954.59247  21579719.700    21579720.0044   21579723.6424
        47.2004         44.5004
   -663728.82042   -513097.43545  24153034.572    24153033.6504   24153038.2574
        37.1004         35.2004
 -19157098.03346 -14903889.11247  20687739.533    20687739.9664   20687742.1984
        49.1004         46.3004
 16  6 24  2 18  0.0000000  0  7G30G 6G23G 2G 9G16G 7
 -13990825.46746 -10881071.39947  21398690.276    21398690.1854   21398694.8804
        47.9004         45.2004
   -812020.13944   -609779.10946  22864724.866    22864726.2954   22864732.0834
        42.0004         39.3004
  -4687176.85243  -3625767.59646  23837519.376    23837517.7964   23837517.3654
        38.9004         36.6004
 -12414388.90745  -9650835.33847  21672611.654    21672610.7314   21672610.5764
        46.3004         43.5004
 -14406114.21246 -11212769.74647  21592951.350    21592951.4794   21592956.7124
        47.2004         44.4004
   -638880.93642   -493735.46945  24157763.585    24157763.4444   24157768.5614
        37.0004         35.2004
 -19176913.75446 -14919329.91847  20683968.829    20683969.1864   20683971.6854
        49.3004         46.5004
 16  6 24  2 18 30.0000000  0  7G30G 6G23G 2G 9G16G 7
 -14065641.18946 -10939369.34647  21384453.282    21384452.7554   21384458.2244
        48.1004         45.4004
   -711541.74044   -531484.27746  22883846.224    22883846.6174   22883852.7824
        42.0004         39.2004
  -4598569.01843  -3556722.53146  23854380.115    23854379.5254   23854379.0614
        38.7004         36.6004
 -12393328.47645  -9634424.61947  21676618.988    21676618.3844   21676617.8804
        46.3004         43.3004
 -14336344.58446 -11158403.82347  21606228.729    21606228.3544   21606233.6624
        47.2004         44.4004
   -613427.15242   -473901.36845  24162604.748    24162604.1884   24162610.2074
        37.0004         35.0004
 -19196186.63546 -14934347.73647  20680302.122    20680301.9974   20680304.2574
        49.3004         46.6004
 16  6 24  2 19  0.0000000  0  7G30G 6G23G 2G 9G16G 7
 -14140025.18746 -10997330.88247  21370298.996    21370298.1054   21370302.8304
        48.2004         45.4004
   -610815.18144   -452996.07446  22903012.127    22903013.2904   22903019.0834
        41.6004         39.0004
  -4509864.02843  -3487601.75246  23871260.835    23871260.1954   23871261.7714
        39.2004         37.1004
 -12371707.43345  -9617577.04647  21680732.828    21680732.4714   21680733.0954
        46.3004         43.5004
 -14266343.75746 -11103857.73847  21619548.147    21619548.7144   21619554.3054
        47.0004         44.2004
   -587368.12642   -453595.69445  24167566.023    24167566.6394   24167572.0464
        36.8004         34.8004
 -19214916.58546 -14948942.48947  20676737.175    20676737.5524   20676739.8964
        49.3004         46.5004
 16  6 24  2 19 30.0000000  0  7G30G 6G23G 2G 9G16G 7
 -14213975.55046 -11054954.51447  21356225.023    21356225.1464   21356230.7834
        48.2004         45.2004
   -509843.36044   -374316.76846  22922227.039    22922228.5214   22922234.0794
        41.6004         39.2004
  -4421062.52843  -3418405.82146  23888159.275    23888159.1894   23888159.1424
        39.4004         37.1004
 -12349526.96345  -9600293.55947  21684953.305    21684952.7724   21684953.5834
        46.3004         43.5004
 -14196112.89946 -11049132.39847  21632914.089    21632913.9554   21632918.8904
        47.0004         44.4004
   -560704.60142   -432818.91545  24172639.420    24172639.4944   24172644.4264
        36.8004         34.8004
 -19233103.24946 -14963113.91047  20673276.413    20673276.4804   20673278.9724
        49.3004         46.5004
 16  6 24  2 20  0.0000000  0  7G30G 6G23G 2G 9G16G 7
 -14287490.42546 -11112238.81147  21342236.714    21342235.8934   21342241.4084
        48.1004         45.2004
   -408629.24144   -295448.65746  22941488.607    22941489.1484   22941495.1384
        41.8004         39.3004
  -4332165.78143  -3349135.64146  23905075.231    23905074.4984   23905075.9964
        39.6004         37.3004
 -12326787.68645  -9582574.65647  21689280.659    21689279.8974   21689280.7784
        46.3004         43.5004
 -14125653.15946 -10994228.72147  21646321.753    21646321.7364   21646327.1874
        47.0004         44.4004
   -533437.17942   -411571.56545  24177829.031    24177826.8504   24177832.8994
        37.0004         35.0004
 -19250746.44946 -14976861.84747  20669918.854    20669919.1724   20669921.4604
        49.3004         46.5004
 16  6 24  2 20 30.0000000  0  7G30G 6G23G 2G 9G16G 7
 -14360567.87446 -11169182.25547  21328330.288    21328329.6684   21328335.0884
        48.1004         45.1004
   -307175.76144   -216394.02346  22960794.153    22960795.2204   22960799.5144
        41.8004         39.2004
  -4243174.40743  -3279791.75646  23922010.244    23922009.9974   23922008.6884
        39.6004         37.1004
 -12303490.73645  -9564421.19347  21693714.717    21693713.8544   21693714.5804
        46.3004         43.7004
 -14054965.72446 -10939147.61047  21659773.496    21659773.6064   21659778.2924
        47.0004         44.2004
   -505567.07742   -389854.63945  24183131.841    24183131.2044   24183135.7634
        37.1004         35.2004
 -19267846.14746 -14990186.28247  20666665.556    20666665.5404   20666667.2044
        49.1004         46.5004
 16  6 24  2 21  0.0000000  0  7G30G 6G23G 2G 9G16G 7
 -14433206.02146 -11225783.39547  21314507.118    21314506.7384   21314512.1534
        47.9004         45.1004
   -205485.85744   -137155.18746  22980145.164    22980146.4334   22980151.4154
        41.8004         39.3004
  -4154089.28443  -3210374.78846  23938960.989    23938961.4924   23938963.6304
        39.4004         36.9004
 -12279636.82446  -9545833.73747  21698253.655    21698253.0934   21698254.0684
        46.5004         43.9004
 -13984051.71246 -10883889.96147  21673267.265    21673267.6454   21673273.1114
        47.0004         44.2004
   -477094.89642   -367668.50745  24188550.763    24188550.0444   24188555.4984
        37.1004         35.2004
 -19284402.03646 -15003086.95947  20663514.812    20663514.4984   20663516.9424
        49.1004         46.5004
 16  6 24  2 21 30.0000000  0  7G30G 6G23G 2G 9G16G 7
 -14505403.01546 -11282040.78147  21300768.821    21300768.7844   21300774.0634
        47.9004         45.1004
   -103562.43444    -57734.37546  22999541.306    22999541.4414   22999547.1814
        42.2004         39.7004
  -4064911.34843  -3140885.51746  23955932.980    23955930.7264   23955934.8414
        39.2004         36.9004
 -12255226.90346  -9526813.01947  21702898.617    21702897.8294   21702898.9624
        46.7004         43.7004
 -13912912.33046 -10828456.68147  21686804.715    21686804.7194   21686810.1534
        46.9004         43.9004
   -448021.56442   -345013.96445  24194081.924    24194081.3624   24194086.2674
        37.0004         35.0004
 -19300413.83646 -15015563.68047  20660467.729    20660467.5604   20660469.8954
        49.1004         46.3004
 16  6 24  2 22  0.0000000  0  7G30G 6G23G 2G 9G16G 7
 -14577156.96346 -11337952.92747  21287114.606    21287113.9534   21287119.4824
        47.9004         45.1004
     -1408.43944     21866.10346  23018980.904    23018981.6724   23018987.4964
        42.3004         40.0004
  -3975641.72643  -3071324.81346  23972918.202    23972918.9924   23972918.9824
        39.2004         36.7004
 -12230262.04746  -9507359.87447  21707648.710    21707648.1174   21707649.4084
        46.5004         43.5004
 -13841548.69346 -10772848.67547  21700385.769    21700385.5224   21700390.2714
        46.9004         43.9004
   -418348.29642   -321891.97945  24199729.332    24199729.3364   24199731.6844
        36.8004         35.0004
 -19315881.94646 -15027616.73847  20657524.010    20657524.0534   20657526.5684
        49.1004         46.5004
 16  6 24  2 22 30.0000000  0  7G30G 6G23G 2G 9G16G 7
 -14648466.07746 -11393518.46247  21273544.610    21273543.9184   21273549.5004
        47.9004         45.1004
    100973.18144    101643.95046  23038462.384    23038463.5444   23038469.1684
        42.3004         39.9004
  -3886280.71743  -3001692.86446  23989923.969    23989923.1014   23989926.1534
        39.0004         36.6004
 -12204743.30345  -9487475.13847  21712504.940    21712503.9374   21712505.1514
        46.3004         43.3004
 -13769961.98746 -10717066.84147  21714007.710    21714007.5974   21714012.1874
        46.7004         43.9004
   -388075.86242   -298303.13645  24205491.432    24205492.2774   24205490.9234
        36.8004         34.8004
 -19330805.94446 -15039245.82047  20654685.003    20654684.7464   20654686.6094
        49.3004         46.6004
 16  6 24  2 23  0.0000000  0  7G30G 6G23G 2G 9G16G 7
 -14719328.49346 -11448735.91647  21260059.305    21260059.4654   21260064.6884
        47.9004         44.9004
    203579.45344    181596.84046  23057988.836    23057988.9974   23057994.4054
        42.3004         39.5004
  -3796829.21143  -2931990.41346  24006944.676    24006944.7134   24006947.4124
        38.9004         36.6004
 -12178671.51545  -9467159.46947  21717466.497    21717465.5584   21717466.3804
        46.2004         43.3004
 -13698153.34346 -10661112.06647  21727672.654    21727672.3254   21727677.6984
        46.7004         43.9004
   -357205.12942   -274248.10245  24211364.823    24211364.6494   24211367.8784
        36.6004         34.8004
 -19345185.63546 -15050450.75747  20651948.254    20651947.9944   20651950.2834
        49.5004         46.6004
 16  6 24  2 23 30.0000000  0  7G30G 6G23G 2G 9G16G 7
 -14789742.40546 -11503603.88747  21246661.096    21246660.6554   21246665.6154
        47.9004         45.2004
    306407.48644    261722.54246  23077555.803    23077556.2734   23077561.9114
        42.0004         39.3004
  -3707288.25343  -2862218.27746  24023986.891    24023984.4634   24023986.5324
        39.0004         36.7004
 -12152047.60245  -9446413.56247  21722532.468    21722531.6204   21722533.0964
        46.0004         43.2004
 -13626123.89746 -10604985.24747  21741379.210    21741379.2964   21741383.3234
        46.5004         43.7004
   -325736.86242   -249727.45045  24217353.533    24217353.5674   24217355.1224
        37.0004         35.0004
 -19359021.11246 -15061231.64647  20649314.974    20649315.2864   20649317.2314
        49.5004         46.6004
 16  6 24  2 24  0.0000000  0  7G30G 6G23G 2G 9G16G 7
 -14859706.02146 -11558120.98547  21233347.313    21233346.4694   21233351.7794
        48.1004         45.2004
    409454.31444    342018.74046  23097165.541    23097166.4794   23097171.0374
        41.8004         39.2004
  -3617658.62843  -2792377.03546  24041040.116    24041040.6564   24041042.8364
        38.7004         36.4004
 -12124872.76845  -9425238.38447  21727704.152    21727703.3254   21727704.4174
        46.0004         43.3004
 -13553874.75746 -10548687.22947  21755127.552    21755127.9644   21755132.4014
        46.5004         43.7004
   -293672.07542   -224741.88745  24223454.678    24223455.2704   24223455.3354
        36.6004         34.6004
 -19372312.40946 -15071588.48947  20646785.787    20646786.1214   20646787.5264
        49.5004         46.6004
 16  6 24  2 24 30.0000000  0  7G30G 6G23G 2G 9G16G 7
 -14929217.55946 -11612285.81447  21220119.797    21220119.3834   21220124.3834
        48.1004         45.2004
    512716.99344    422483.12146  23116815.675    23116815.6114   23116820.3864
        41.5004         38.6004
  -3527941.14743  -2722467.35446  24058112.404    24058111.3284   24058116.2034
        38.5004         36.0004
 -12097147.83645  -9403634.53947  21732979.154    21732978.9414   21732980.5344
        46.2004         43.2004
 -13481407.12446 -10492218.95247  21768917.887    21768917.9464   21768922.9234
        46.5004         43.5004
   -261011.91542   -199292.37345  24229669.588    24229669.9534   24229674.5844
        36.6004         34.8004
 -19385059.64946 -15081521.39447  20644359.910    20644360.1514   20644362.2974
        49.3004         46.5004
 16  6 24  2 25  0.0000000  0  7G30G 6G23G 2G 9G16G 7
 -14998275.24146 -11666096.98147  21206978.663    21206978.2154   21206982.9074
        48.2004         45.4004
    616192.57844    503113.42946  23136505.179    23136506.1474   23136513.0134
        41.3004         38.8004
  -3438136.71243  -2652489.91746  24075204.077    24075203.0274   24075203.2194
        38.3004         36.4004
 -12068874.30045  -9381603.20747  21738360.157    21738359.1364   21738360.3844
        46.2004         43.2004
 -13408722.11145 -10435581.29847  21782749.286    21782749.3764   21782754.2664
        46.3004         43.5004
   -227757.64942   -173379.98945  24235997.868    24235998.2874   24236001.0604
        36.8004         34.8004
 -19397262.52146 -15091030.11147  20642038.154    20642038.2204   20642040.1264
        49.3004         46.6004
 16  6 24  2 25 30.0000000  0  7G30G 6G23G 2G 9G16G 7
 -15066877.28546 -11719553.10147  21193924.068    21193923.6394   21193929.2134
        48.2004         45.4004
    719878.16844    583907.34246  23156239.316    23156238.5124   23156243.4314
        41.3004         38.6004
  -3348246.22743  -2582445.37846  24092306.025    24092307.8754   24092310.4144
        38.7004         36.6004
 -12040053.12945  -9359145.17047  21743844.932    21743844.6054   21743844.5794
        46.0004         43.0004
 -13335820.83845 -10378775.13847  21796621.756    21796621.8464   21796627.2534
        46.3004         43.5004
   -193910.21042   -147005.40445  24242438.989    24242438.7074   24242441.4404
        36.4004         34.5004
 -19408921.17446 -15100114.76447  20639819.829    20639819.7024   20639821.5044
        49.5004         46.6004
 16  6 24  2 26  0.0000000  0  7G30G 6G23G 2G 9G16G 7
 -15135021.98846 -11772652.85347  21180955.829    21180955.7074   21180961.7224
        48.2004         45.4004
    823770.70244    664862.54146  23176006.260    23176006.6804   23176012.6624
        41.1004         38.5004
  -3258270.39543  -2512334.39646  24109432.367    24109429.4274   24109432.5044
        38.5004         36.4004
 -12010685.52745  -9336261.34147  21749433.043    21749432.1504   21749432.6274
        45.8004         42.8004
 -13262704.42845 -10321801.33347  21810535.852    21810535.4504   21810541.0034
        46.3004         43.7004
   -159470.67242   -120169.40145  24248994.933    24248994.9914   24248994.8654
        37.0004         35.0004
 -19420035.88646 -15108775.56847  20637704.891    20637704.7514   20637706.6404
        49.5004         46.6004
 16  6 24  2 26 30.0000000  0  7G30G 6G23G 2G 9G16G 7
 -15202707.60246 -11825394.86847  21168076.515    21168075.9454   21168081.5774
        48.2004         45.4004
    927867.35644    745976.78246  23195817.025    23195817.5394   23195821.7404
        41.1004         38.5004
  -3168209.85843  -2442157.36846  24126566.529    24126568.7884   24126569.8944
        38.7004         36.4004
 -11980772.57845  -9312952.53747  21755125.576    21755124.5574   21755125.3484
        45.8004         43.2004
 -13189374.03445 -10264660.78247  21824489.715    21824489.6854   21824494.9374
        46.2004         43.3004
   -124439.87542    -92872.66045  24255658.998    24255658.3134   24255662.3034
        37.0004         35.0004
 -19430606.43046 -15117012.33947  20635692.300    20635692.9014   20635694.8624
        49.5004         46.6004
 16  6 24  2 27  0.0000000  0  7G30G 6G23G 2G 9G16G 7
 -15269932.38246 -11877777.79847  21155283.567    21155284.2214   21155288.4464
        48.2004         45.4004
   1032165.09644    827247.72246  23215662.195    23215663.1194   23215670.3764
        41.1004         38.5004
  -3078065.50243  -2371915.12246  24143725.161    24143722.6724   24143724.3654
        38.3004         36.0004
 -11950315.40245  -9289219.67347  21760921.578    21760920.5944   21760920.5894
        46.0004         43.0004
 -13115830.75945 -10207354.36247  21838484.984    21838484.7574   21838489.7664
        46.3004         43.5004
    -88819.54442    -65116.57745  24262438.304    24262437.3864   24262438.0204
        37.0004         35.0004
 -19440633.01446 -15124825.24547  20633784.917    20633784.7254   20633786.9544
        49.5004         46.6004
 16  6 24  2 27 30.0000000  0  7G30G 6G23G 2G 9G16G 7
 -15336694.63846 -11929800.31747  21142578.914    21142578.7304   21142583.4424
        48.2004         45.4004
   1136661.04644    908673.10046  23235547.695    23235548.0114   23235553.9194
        40.9004         38.3004
  -2987838.25343  -2301608.19446  24160892.151    24160892.8804   24160893.8744
        38.3004         36.4004
 -11919315.05645  -9265063.56147  21766820.086    21766819.1244   21766819.7894
        45.6004         42.5004
 -13042075.72045 -10149882.91847  21852519.666    21852519.7234   21852525.8314
        46.3004         43.3004
    -52610.45842    -36901.69645  24269329.575    24269328.5104   24269331.5164
        36.8004         34.8004
 -19450115.78246 -15132214.40847  20631979.828    20631980.1674   20631982.6034
        49.5004         46.6004
 16  6 24  2 28  0.0000000  0  7G30G 6G23G 2G 9G16G 7
 -15402992.69946 -11981461.13047  21129962.491    21129962.9394   21129967.8304
        48.2004         45.4004
   1241352.22644    990250.59146  23255469.920    23255470.9324   23255476.0704
        40.9004         38.3004
  -2897528.90043  -2231237.30346  24178078.185    24178078.2144   24178079.1934
        38.3004         36.0004
 -11887772.84845  -9240485.21847  21772822.024    21772822.1434   21772822.7524
        45.5004         43.0004
 -12968110.00645 -10092247.31847  21866595.681    21866595.4494   21866600.4514
        46.2004         43.5004
    -15814.06442     -8229.21345  24276328.964    24276329.3954   24276332.0484
        37.1004         35.3004
 -19459054.63146 -15139179.73647  20630279.188    20630279.5254   20630281.7844
        49.5004         46.6004
 16  6 24  2 28 30.0000000  0  7G30G 6G23G 2G 9G16G 7
 -15468824.91046 -12032758.93947  21117435.719    21117435.1674   21117440.5854
        48.2004         45.4004
   1346235.65144   1071977.90746  23275427.804    23275428.4264   23275435.3554
        40.6004         37.9004
  -2807137.96643  -2160802.86846  24195281.392    24195279.7444   24195279.5884
        38.3004         36.0004
 -11855690.40745  -9215485.91047  21778928.520    21778927.9554   21778927.6674
        46.0004         43.3004
 -12893934.78245 -10034448.45947  21880710.963    21880709.9184   21880715.5884
        46.2004         43.3004
     21568.77143     20900.24845  24283442.945    24283443.1014   24283446.3714
        37.6004         35.5004
 -19467449.92146 -15145721.51147  20628681.953    20628681.8534   20628683.9764
        49.5004         46.8004
 16  6 24  2 29  0.0000000  0  7G30G 6G23G 2G 9G16G 7
 -15534189.55546 -12083692.41347  21104997.414    21104996.9484   21105002.0414
        48.2004         45.6004
   1451308.44543   1153852.78646  23295423.097    23295423.8284   23295429.7164
        40.4004         37.8004
  -2716666.76143  -2090305.85246  24212494.613    24212495.7074   24212496.4234
        38.3004         36.2004
 -11823068.81045  -9190066.48147  21785135.882    21785135.6424   21785134.6574
        46.0004         42.8004
 -12819551.09745  -9976487.17447  21894865.422    21894865.1374   21894869.6744
        46.2004         43.3004
     59536.50843     50485.46845  24290668.544    24290667.5704   24290672.5454
        37.6004         35.5004
 -19475301.63947 -15151839.72747  20627187.686    20627187.8794   20627190.0724
        49.6004         46.8004
 16  6 24  2 29 30.0000000  0  7G30G 6G23G 2G 9G16G 7
 -15599085.04646 -12134260.32047  21092648.041    21092647.9314   21092652.4434
        48.4004         45.8004
   1556567.59143   1235872.85946  23315455.079    23315454.2944   23315459.9224
        40.4004         37.8004
  -2626115.74643  -2019746.68546  24229729.730    24229726.5954   24229727.0924
        38.2004         36.0004
 -11789908.94245  -9164227.62747  21791445.250    21791444.6184   21791444.5624
        45.5004         42.6004
 -12744960.10245  -9918364.32347  21909058.978    21909058.8034   21909063.8054
        46.2004         43.2004
     98087.93442     80525.51345  24298004.608    24298003.3424   24298006.1714
        37.0004         34.8004
 -19482609.97347 -15157534.52147  20625797.663    20625797.4014   20625798.8424
        49.6004         46.8004
 16  6 24  2 30  0.0000000  0  7G30G 6G23G 2G 9G16G 7
 -15663509.71146 -12184461.34147  21080388.845    21080388.3884   21080392.8924
        48.6004         45.9004
   1662010.15143   1318035.86746  23335518.733    23335519.0114   23335523.3684
        40.1004         37.6004
  -2535485.72143  -1949125.93945  24246974.365    24246974.1384   24246974.1764
        37.8004         35.5004
 -11756212.61545  -9137970.75747  21797857.831    21797857.2184   21797857.6944
        45.6004         43.0004
 -12670162.85845  -9860080.77547  21923293.692    21923292.8454   21923297.6774
        46.0004         43.3004
    137221.79142    111019.41445  24305452.232    24305450.6424   24305454.5984
        37.1004         35.3004
 -19489375.19446 -15162806.11347  20624509.868    20624510.0374   20624511.5314
        49.5004         46.6004
 16  6 24  2 30 30.0000000  0  7G30G 6G23G 2G 9G16G 7
 -15727461.94446 -12234294.23347  21068218.572    21068218.4414   21068223.6204
        48.9004         46.1004
   1767633.18143   1400339.49246  23355617.646    23355618.6114   23355624.7724
        40.1004         37.8004
  -2444777.50443  -1878444.23345  24264232.722    24264233.7904   24264233.5334
        37.6004         35.3004
 -11721981.02245  -9111296.77647  21804371.542    21804371.4784   21804372.4754
        45.8004         43.2004
 -12595160.49645  -9801637.38747  21937564.942    21937565.4964   21937570.6134
        46.2004         43.3004
    176936.68142    141966.04745  24313009.222    24313010.2554   24313012.9324
        37.1004         35.3004
 -19495597.60646 -15167654.73847  20623325.483    20623325.6014   20623327.4444
        49.5004         46.6004
 16  6 24  2 31  0.0000000  0  7G30G 6G23G 2G 9G16G 7
 -15790940.15746 -12283757.76547  21056139.437    21056139.2514   21056144.1804
        48.9004         46.1004
   1873433.75143   1482781.44846  23375752.636    23375752.0514   23375759.3854
        40.4004         38.1004
  -2353991.93943  -1807702.28245  24281510.677    24281510.5164   24281511.1954
        37.6004         35.7004
 -11687215.51445  -9084206.75447  21810987.496    21810987.0294   21810987.7894
        45.8004         43.2004
 -12519954.09245  -9743035.00747  21951876.454    21951877.0034   21951882.1354
        46.0004         43.3004
    217231.48342    173364.54345  24320678.218    24320678.5524   24320680.1554
        37.3004         35.2004
 -19501277.57446 -15172080.68047  20622244.518    20622244.7274   20622246.7284
        49.5004         46.6004
 16  6 24  2 31 30.0000000  0  7G30G 6G23G 2G 9G16G 7
 -15853942.75246 -12332850.68647  21044150.142    21044150.1394   21044154.8404
        48.9004         46.1004
   1979408.88943   1565359.45446  23395916.273    23395917.5544   23395924.1604
        40.3004         37.8004
  -2263129.85143  -1736900.76145  24298801.532    24298801.4724   24298800.7154
        37.8004         35.7004
 -11651917.50845  -9056701.83947  21817705.187    21817704.8244   21817704.6394
        45.8004         43.0004
 -12444544.77345  -9684274.52147  21966226.660    21966226.7374   21966231.9324
        46.2004         43.3004
    258104.70542    205213.78645  24328455.564    24328454.8094   24328458.7494
        37.5004         35.5004
 -19506414.96246 -15176083.82847  20621266.811    20621267.1824   20621269.0954
        49.5004         46.6004
 16  6 24  2 32  0.0000000  0  7G30G 6G23G 2G 9G16G 7
 -15916468.18646 -12381571.79647  21032252.225    21032252.0644   21032256.7224
        49.1004         46.3004
   2085555.69143   1648071.19846  23416116.764    23416117.5234   23416122.4744
        39.9004         37.4004
  -2172191.94043  -1666040.07245  24316106.479    24316104.4314   24316106.8654
        37.8004         35.7004
 -11616087.98845  -9028782.74447  21824522.153    21824521.6904   21824523.7554
        45.8004         43.0004
 -12368933.56745  -9625356.72647  21980614.736    21980615.2704   21980619.9404
        46.2004         43.5004
    299555.09243    237512.72345  24336343.878    24336343.5674   24336346.2534
        37.6004         35.5004
 -19511010.26046 -15179664.57247  20620391.955    20620392.0964   20620394.5004
        49.5004         46.6004
 16  6 24  2 32 30.0000000  0  7G30G 6G23G 2G 9G16G 7
 -15978514.87946 -12429919.86347  21020445.488    21020444.8524   21020449.5734
        49.1004         46.3004
   2191871.17943   1730914.39446  23436348.507    23436349.0024   23436354.5574
        39.9004         37.4004
  -2081178.91342  -1595120.93845  24333424.451    24333423.9584   24333424.8604
        37.5004         35.3004
 -11579729.09145  -9000451.13547  21831441.046    21831440.8384   21831442.2374
        45.8004         43.2004
 -12293121.61245  -9566282.50047  21995042.459    21995042.2774   21995046.3904
        46.2004         43.3004
    341581.03843    270260.20845  24344343.076    24344341.3944   24344342.8974
        37.8004         35.7004
 -19515063.67346 -15182823.07047  20619620.809    20619621.2034   20619623.3804
        49.5004         46.6004
 16  6 24  2 33  0.0000000  0  7G30G 6G23G 2G 9G16G 7
 -16040081.30346 -12477893.68547  21008729.652    21008729.3994   21008734.0664
        49.1004         46.3004
   2298352.38343   1813886.73246  23456608.646    23456610.5474   23456615.8744
        39.7004         37.1004
  -1990091.59642  -1524143.79945  24350753.693    24350757.7964   24350759.0384
        37.3004         35.2004
 -11542842.10545  -8971708.04647  21838460.251    21838459.6484   21838461.1984
        45.6004         42.5004
 -12217109.96245  -9507052.67047  22009507.196    22009506.5984   22009510.4894
        46.2004         43.3004
    384181.20843    303455.14845  24352446.568    24352446.3104   24352450.5394
        37.6004         35.5004
 -19518575.71446 -15185559.71247  20618952.213    20618952.8394   20618955.0484
        49.5004         46.8004
 16  6 24  2 33 30.0000000  0  7G30G 6G23G 2G 9G16G 7
 -16101165.91846 -12525492.07247  20997104.732    20997104.7644   20997110.2334
        49.1004         46.1004
   2404996.39143   1896985.91546  23476904.237    23476904.2104   23476910.3924
        39.4004         37.1004
  -1898930.64242  -1453109.38245  24368105.528    24368102.4954   24368106.3194
        36.6004         34.5004
 -11505428.14445  -8942554.31347  21845579.648    21845578.9434   21845580.3394
        45.3004         42.3004
 -12140899.70145  -9447668.07447  22024008.838    22024008.5974   22024013.1484
        46.0004         43.0004
    427354.08042    337096.30545  24360663.798    24360664.1644   24360665.0494
        37.3004         35.2004
 -19521546.52346 -15187874.61947  20618387.649    20618387.3214   20618389.8114
        49.5004         46.8004
 16  6 24  2 34  0.0000000  0  7G30G 6G23G 2G 9G16G 7
 -16161767.26346 -12572713.87847  20985572.817    20985572.6864   20985577.9484
        48.9004         46.1004
   2511800.23143   1980209.63346  23497227.518    23497228.1874   23497233.8894
        39.0004         36.6004
  -1807697.01942  -1382018.30245  24385463.629    24385462.2184   24385466.1974
        36.4004         34.6004
 -11467488.79045  -8912991.19647  21852800.483    21852799.9354   21852800.0274
        45.5004         42.6004
 -12064491.88545  -9388129.54747  22038549.119    22038549.3364   22038553.1304
        45.8004         43.0004
    471098.15042    371182.63145  24368986.887    24368986.3154   24368988.9004
        37.1004         35.2004
 -19523976.68346 -15189768.24047  20617923.976    20617924.4924   20617926.9914
        49.5004         46.6004
 16  6 24  2 34 30.0000000  0  7G30G 6G23G 2G 9G16G 7
 -16221883.78446 -12619557.90247  20974133.557    20974132.7914   20974137.8094
        48.9004         46.1004
   2618761.14443   2063555.76346  23517582.271    23517582.4874   23517588.8424
        38.9004         36.2004
  -1716391.34142  -1310871.09345  24402841.400    24402840.6974   24402842.4914
        36.3004         34.5004
 -11429025.38145  -8883019.71947  21860119.473    21860118.6824   21860119.0124
        45.5004         42.6004
 -11987887.58945  -9328437.89347  22053126.366    22053126.5134   22053130.1564
        45.8004         43.0004
    515411.98642    405712.88945  24377420.092    24377419.5054   24377422.1754
        37.1004         35.2004
 -19525866.48246 -15191240.80747  20617565.345    20617565.3474   20617567.6564
        49.5004         46.8004
 16  6 24  2 35  0.0000000  0  7G30G 6G23G 2G 9G16G 7
 -16281514.02446 -12666023.01147  20962785.623    20962785.6434   20962790.8114
        48.9004         46.1004
   2725875.84843   2147021.72946  23537965.325    23537965.5704   23537973.2494
        38.9004         36.6004
  -1625014.57842  -1239668.47445  24420221.763    24420228.6814   24420229.5954
        36.1004         34.1004
 -11390039.60545  -8852641.20047  21867538.649    21867537.5934   21867537.6284
        45.3004         42.5004
 -11911087.86845  -9268593.99047  22067740.453    22067740.6164   22067745.0554
        45.6004         42.8004
    560294.07842    440685.90345  24385960.539    24385959.9344   24385962.7274
        36.8004         34.6004
 -19527216.03247 -15192292.41447  20617309.191    20617309.1694   20617310.7604
        49.6004         46.8004
 16  6 24  2 35 30.0000000  0  7G30G 6G23G 2G 9G16G 7
 -16340656.54046 -12712108.07547  20951531.392    20951531.3374   20951536.1344
        48.9004         46.1004
   2833141.56843   2230605.36546  23558376.765    23558378.4434   23558383.4624
        38.7004         36.4004
  -1533567.39942  -1168410.96745  24437636.114    24437630.2984   24437632.0854
        36.4004         34.6004
 -11350533.15545  -8821856.97947  21875056.650    21875056.0614   21875056.1294
        45.6004         43.0004
 -11834093.80545  -9208598.63447  22082392.157    22082392.2134   22082396.0834
        45.5004         42.8004
    605743.04342    476100.70645  24394610.195    24394609.5784   24394610.2964
        36.4004         34.3004
 -19528026.03147 -15192923.56647  20617154.600    20617154.6944   20617156.3964
        49.6004         47.0004
 16  6 24  2 36  0.0000000  0  7G30G 6G23G 2G 9G16G 7
 -16399309.87146 -12757811.95747  20940369.680    20940369.6544   20940374.7984
        49.1004         46.1004
   2940555.32443   2314304.33446  23578819.023    23578818.2304   23578824.0354
        38.7004         36.6004
  -1442050.53942  -1097099.23645  24455050.024    24455050.0764   24455045.9384
        36.6004         34.6004
 -11310507.49845  -8790668.16247  21882673.288    21882672.0414   21882673.0104
        45.8004         43.0004
 -11756906.44845  -9148452.66347  22097079.734    22097079.4704   22097085.5104
        45.5004         42.6004
    651757.35942    511956.03745  24403365.767    24403365.5884   24403369.0704
        37.0004         35.0004
 -19528296.72447 -15193134.47947  20617102.614    20617102.9044   20617105.2084
        49.6004         46.8004
 16  6 24  2 36 30.0000000  0  7G30G 6G23G 2G 9G16G 7
 -16457472.60846 -12803133.55847  20929301.691    20929301.8184   20929306.9764
        48.9004         46.1004
   3048114.21143   2398116.40146  23599287.574    23599286.8654   23599293.5044
        38.9004         36.7004
  -1350464.67542  -1025733.67645  24472472.237    24472474.9434   24472475.2974
        36.4004         34.6004
 -11269964.27645  -8759076.02547  21890387.673    21890387.2024   21890388.3404
        45.6004         42.6004
 -11679526.86245  -9088156.91847  22111805.630    22111805.7444   22111809.5724
        45.5004         42.8004
    698334.86042    548250.18845  24412228.957    24412229.5224   24412232.4594
        36.8004         34.8004
 -19528028.62347 -15192925.56347  20617154.380    20617154.5044   20617156.1524
        49.6004         47.0004
 16  6 24  2 37  0.0000000  0  7G30G 6G23G 2G 9G16G 7
 -16515143.32146 -12848071.76747  20918327.629    20918327.2754   20918332.4894
        48.9004         46.1004
   3155815.32543   2482039.28346  23619781.615    23619782.2964   23619788.2634
        39.0004         36.7004
  -1258810.26742   -954314.70445  24489917.962    24489916.9714   24489916.7204
        36.6004         34.8004
 -11228904.97945  -8727081.79147  21898201.564    21898200.6694   21898201.2314
        45.6004         42.8004
 -11601956.13345  -9027712.21647  22126564.929    22126565.8534   22126571.2414
        45.5004         42.6004
    745474.30842    584982.22245  24421200.375    24421199.8694   24421200.8754
        36.8004         34.8004
 -19527222.17547 -15192297.15547  20617307.611    20617307.6904   20617309.7244
        49.6004         46.8004
 16  6 24  2 37 30.0000000  0  7G30G 6G23G 2G 9G16G 7
 -16572320.59146 -12892625.47547  20907447.253    20907446.9084   20907452.3034
        48.9004         46.1004
   3263655.67143   2566070.64846  23640302.249    23640302.4824   23640307.5494
        38.7004         36.4004
  -1167088.41242   -882843.21245  24507372.561    24507371.7444   24507370.1884
        36.3004         34.3004
 -11187331.39045  -8694686.80747  21906113.014    21906111.9974   21906111.9414
        45.5004         42.5004
 -11524195.24345  -8967119.35247  22141364.905    22141364.1134   22141367.9484
        45.5004         42.8004
    793174.45742    622151.16145  24430277.334    24430277.3934   24430280.0044
        37.0004         35.2004
 -19525877.72447 -15191249.54647  20617563.221    20617563.3444   20617565.3344
        49.6004         46.8004
 16  6 24  2 38  0.0000000  0  7G30G 6G23G 2G 9G16G 7
 -16629003.07146 -12936793.63247  20896660.302    20896660.5174   20896665.7054
        48.9004         46.1004
   3371632.35643   2650208.23346  23660851.371    23660849.8384   23660855.7774
        38.7004         36.4004
  -1075299.95642   -811319.80245  24524835.076    24524838.6854   24524838.5164
        36.1004         34.3004
 -11145245.17945  -8661892.37147  21914121.402    21914120.8774   21914121.6914
        45.5004         42.5004
 -11446245.28145  -8906379.15047  22156196.625    22156197.4584   22156201.6794
        45.5004         42.6004
    841432.75342    659755.03945  24439460.871    24439460.2334   24439463.2984
        37.3004         35.2004
 -19523995.99346 -15189783.25547  20617921.387    20617921.3364   20617923.6904
        49.5004         46.6004
