     2.10           OBSERVATION DATA    G (GPS)             RINEX VERSION / TYPE
teqc  2006Dec12     IGN-RGP             20160624 11:10:02UTCPGM / RUN BY / DATE
Linux 2.4.20-8|Pentium IV|gcc|Linux|486/DX+                 COMMENT
     2.11           OBSERVATION DATA    G (GPS)             COMMENT
teqc  2013Mar15     Observatoire de Pari20160624 00:52:18UTCCOMMENT
Linux 2.4.21-27.ELsmp|Opteron|gcc|Linux x86_64|=+           COMMENT
BIT 2 OF LLI FLAGS DATA COLLECTED UNDER A/S CONDITION       COMMENT
OPMT                                                        MARKER NAME
10001S006                                                   MARKER NUMBER
Automatic           BNM-SYRTE                               OBSERVER / AGENCY
02942               ASHTECH Z-XII3T     1L01-1D04           REC # / TYPE / VERS
00019               3S-02-TSADM     NONE                    ANT # / TYPE
  4202777.6220   171367.7610  4778659.9840                  APPROX POSITION XYZ
        0.0000        0.0000        0.0000                  ANTENNA: DELTA H/E/N
     1     1                                                WAVELENGTH FACT L1/2
     7    L1    L2    C1    P1    P2    S1    S2            # / TYPES OF OBSERV
 SNR is mapped to RINEX snr flag value [0-9]                COMMENT
  L1 & L2: min(max(int(snr_dBHz/6), 0), 9)                  COMMENT
pseudorange smoothing corrections not applied               COMMENT
  2016     6    23     0     0    0.0000000     GPS         TIME OF FIRST OBS
                                                            END OF HEADER
 16  6 23  0  0  0.0000000  0  9G19G17G 6G22G23G31G 3G 9G 1
 -10060752.95344  -7825414.32446  23032558.598    23032557.7444   23032559.0534
        42.9004         40.4004
  -2282207.53443  -1767316.32846  23698573.286    23698574.5204   23698578.4704
        40.3004         37.8004
 -10742195.54646  -8131018.21647  20960071.706    20960072.3654   20960077.4264
        48.9004         46.3004
  -2917881.05143  -1995061.58446  23652325.537    23652324.7334   23652328.3274
        39.7004         37.3004
 -21282089.30047 -16309124.66247  20624435.624    20624435.0024   20624435.5654
        49.6004         46.8004
   2182284.72743   1710347.80245  24924393.340    24924393.2644   24924396.6604
        37.8004         35.9004
 -13753498.00245 -10696149.80447  21815216.091    21815216.6594   21815221.9454
        46.2004         43.3004
 -19663827.42747 -15304503.93047  20489520.324    20489520.4094   20489525.8504
        50.0004         47.2004
   6311482.12142   4929144.80945  25133897.751    25133896.3534   25133900.6934
        35.2004         33.6004
 16  6 23  0  0 30.0000000  0  9G19G17G 6G22G23G31G 3G 9G 1
  -9988977.48044  -7769485.41146  23046217.203    23046216.0654   23046217.8134
        43.2004         40.7004
  -2191138.49943  -1696353.51146  23715902.893    23715902.9994   23715907.9114
        40.1004         37.6004
 -10785034.94746  -8164399.55347  20951919.279    20951919.7464   20951925.4394
        49.1004         46.3004
  -2830446.13143  -1926930.49646  23668965.056    23668964.1194   23668964.4114
        39.6004         37.3004
 -21268979.71046 -16298909.38747  20626929.569    20626929.3574   20626930.2574
        49.5004         46.8004
   2267958.12843   1777106.29845  24940698.483    24940697.1324   24940699.4374
        37.8004         35.7004
 -13683684.43045 -10641749.62847  21828501.161    21828501.2024   21828507.2944
        46.2004         43.3004
 -19705271.40547 -15336797.91847  20481633.758    20481633.8054   20481639.3374
        50.0004         47.3004
   6425203.21442   5017758.65345  25155536.410    25155535.0484   25155543.3074
        35.6004         34.0004
 16  6 23  0  1  0.0000000  0  9G19G17G 6G22G23G31G 3G 9G 1
  -9916780.13144  -7713227.75646  23059955.237    23059953.5584   23059956.4924
        43.0004         39.7004
  -2099853.16243  -1625222.12546  23733274.263    23733275.0374   23733278.9414
        40.3004         37.8004
 -10827365.29946  -8197384.22547  20943863.905    20943864.2444   20943869.9494
        48.9004         46.1004
  -2742884.09543  -1858700.35846  23685626.318    23685626.1964   23685627.8304
        39.7004         37.3004
 -21255426.18246 -16288348.18947  20629508.735    20629508.5514   20629509.3734
        49.5004         46.6004
   2353979.25942   1844135.74445  24957065.692    24957066.4834   24957068.3504
        37.3004         35.2004
 -13613628.89945 -10587160.92547  21841832.890    21841833.6194   21841837.8804
        46.2004         43.3004
 -19746242.27547 -15368723.25347  20473837.465    20473837.3424   20473842.8164
        50.2004         47.3004
   6538965.41842   5106404.51945  25177183.985    25177187.1304   25177193.7404
        35.7004         34.1004
 16  6 23  0  1 30.0000000  0  9G19G17G 6G22G23G31G 3G 9G 1
  -9844163.64344  -7656643.49446  23073772.319    23073772.0044   23073774.6424
        42.2004         39.3004
  -2008354.55143  -1553924.58546  23750687.022    23750685.8784   23750691.2434
        40.3004         37.8004
 -10869184.78346  -8229970.82347  20935905.741    20935906.1954   20935911.8444
        48.9004         46.1004
  -2655195.96943  -1790371.96046  23702313.186    23702312.6904   23702313.6574
        39.7004         37.3004
 -21241429.72346 -16277441.84547  20632172.519    20632172.0954   20632172.9854
        49.5004         46.8004
   2440345.34443   1911433.98045  24973502.182    24973501.8584   24973503.3814
        37.6004         35.7004
 -13543332.17645 -10532384.26947  21855209.166    21855210.3204   21855215.2554
        46.2004         43.5004
 -19786739.60547 -15400279.59847  20466130.876    20466130.9924   20466136.0364
        50.2004         47.3004
   6652766.74942   5195080.84645  25198841.066    25198840.9744   25198849.3674
        35.7004         34.1004
 16  6 23  0  2  0.0000000  0  9G19G17G 6G22G23G31G 3G 9G 1
  -9771130.89044  -7599734.89446  23087671.127    23087670.2924   23087672.7044
        42.2004         39.7004
  -1916646.00243  -1482463.38346  23768135.632    23768136.8634   23768143.1834
        40.1004         37.4004
 -10910491.61746  -8262157.95947  20928045.756    20928046.0224   20928051.4504
        48.9004         46.1004
  -2567382.24843  -1721945.70746  23719026.357    23719023.1534   23719023.4174
        39.6004         37.1004
 -21226991.22846 -16266191.06347  20634920.581    20634919.9024   20634920.3604
        49.5004         46.8004
   2527053.69643   1978998.94745  24990002.351    24990002.5574   24990002.8704
        38.0004         35.9004
 -13472794.90345 -10477420.18147  21868634.334    21868633.8714   21868638.3154
        46.3004         43.5004
 -19826762.96547 -15431466.61847  20458514.562    20458514.7254   20458519.4004
        50.0004         47.3004
   6766605.59642   5283786.40745  25220503.599    25220505.2074   25220509.9334
        35.2004         33.3004
 16  6 23  0  2 30.0000000  0  9G19G17G 6G22G23G31G 3G 9G 1
  -9697684.89544  -7542504.27946  23101648.188    23101646.8924   23101648.9714
        42.5004         39.9004
  -1824730.48143  -1410840.97146  23785628.959    23785629.3694   23785633.7674
        40.1004         37.6004
 -10951284.03846  -8293944.25547  20920283.381    20920283.9434   20920288.8134
        49.1004         46.3004
  -2479443.39843  -1653421.93746  23735757.750    23735757.6924   23735758.9884
        39.7004         37.4004
 -21212111.70046 -16254596.62647  20637751.323    20637751.2554   20637751.6544
        49.5004         46.8004
   2614101.54843   2046828.45046  25006567.029    25006566.6954   25006568.0574
        38.3004         36.2004
 -13402017.86045 -10422269.25347  21882101.748    21882101.9594   21882106.4204
        46.3004         43.3004
 -19866311.94347 -15462283.98847  20450989.512    20450989.2384   20450993.8174
        50.2004         47.3004
   6880480.01142   5372519.71445  25242175.356    25242175.2194   25242180.4754
        35.4004         34.0004
 16  6 23  0  3  0.0000000  0  9G19G17G 6G22G23G31G 3G 9G 1
  -9623828.41344  -7484953.78246  23115700.928    23115701.4154   23115704.0114
        42.5004         39.9004
  -1732610.98143  -1339059.58846  23803158.694    23803158.4134   23803163.0154
        39.9004         37.4004
 -10991560.28646  -8325328.33547  20912618.624    20912619.1314   20912624.4144
        49.1004         46.3004
  -2391380.35243  -1584801.38046  23752514.375    23752515.6884   23752516.5174
        39.7004         37.3004
 -21196791.77446 -16242659.00747  20640667.164    20640666.3804   20640667.1684
        49.5004         46.8004
   2701486.26343   2114920.41145  25023195.011    25023195.1054   25023197.2824
        38.0004         35.7004
 -13331001.73045 -10366932.01547  21895615.338    21895615.6224   21895620.2114
        46.3004         43.3004
 -19905386.13147 -15492731.39847  20443553.484    20443553.4634   20443558.6424
        50.2004         47.5004
   6994388.08042   5461279.21345  25263851.258    25263849.5114   25263857.5244
        35.9004         34.0004
 16  6 23  0  3 30.0000000  0  9G19G17G 6G22G23G31G 3G 9G 1
  -9549564.41744  -7427085.76546  23129834.699    23129833.1244   23129836.1234
        42.9004         40.2004
  -1640290.64143  -1267121.69946  23820725.441    23820726.1024   23820730.4464
        39.7004         37.4004
 -11031318.60546  -8356308.83047  20905052.794    20905053.5004   20905058.9134
        49.1004         46.3004
  -2303193.66743  -1516084.51346  23769299.607    23769297.8244   23769298.0374
        39.7004         37.3004
 -21181032.49146 -16230379.03647  20643665.292    20643664.9864   20643665.9474
        49.5004         46.6004
   2789205.53443   2183273.06345  25039887.830    25039888.4714   25039889.5454
        37.6004         35.2004
 -13259747.17645 -10311409.00447  21909174.817    21909175.1074   21909179.6754
        46.2004         43.3004
 -19943985.16647 -15522808.55647  20436207.717    20436208.0754   20436213.2664
        50.3004         47.3004
   7108327.97442   5550063.50745  25285533.185    25285533.6304   25285538.2934
        36.1004         34.3004
 16  6 23  0  4  0.0000000  0  9G19G17G 6G22G23G31G 3G 9G 1
  -9474895.95944  -7368902.58746  23144043.829    23144042.9844   23144045.2594
        43.0004         40.2004
  -1547772.70043  -1195029.86146  23838333.071    23838333.2314   23838337.5174
        40.1004         37.8004
 -11070557.27746  -8386884.40947  20897586.092    20897586.5434   20897592.2774
        49.3004         46.5004
  -2214884.00443  -1447271.79846  23786102.595    23786101.6834   23786102.3944
        39.6004         37.1004
 -21164834.88846 -16217757.51947  20646747.566    20646747.2874   20646748.0034
        49.5004         46.6004
   2877256.58342   2251884.28345  25056643.329    25056643.1274   25056644.0934
        37.3004         35.3004
 -13188254.94145 -10255700.77947  21922778.800    21922779.5594   21922783.9714
        46.2004         43.3004
 -19982108.70847 -15552515.20147  20428953.377    20428953.2274   20428958.3874
        50.2004         47.3004
   7222297.90042   5638871.21145  25307220.869    25307222.9384   25307222.3614
        35.4004         33.8004
 16  6 23  0  4 30.0000000  0  9G19G17G 6G22G23G31G 3G 9G 1
  -9399825.79044  -7310406.35946  23158327.840    23158327.2724   23158329.6634
        42.7004         39.5004
  -1455059.96543  -1122786.18846  23855974.494    23855973.8144   23855979.8024
        40.3004         37.8004
 -11109274.56846  -8417053.72547  20890218.147    20890218.8454   20890224.2944
        49.1004         46.3004
  -2126451.84543  -1378363.61846  23802929.652    23802928.2564   23802930.6484
        39.2004         36.6004
 -21148199.73346 -16204795.05547  20649913.362    20649913.1554   20649913.3484
        49.3004         46.5004
   2965636.72042   2320751.90445  25073461.667    25073462.5624   25073461.9424
        37.3004         35.0004
 -13116525.74145 -10199807.89947  21936428.220    21936428.3774   21936433.8124
        46.0004         43.2004
 -20019756.36247 -15581851.02047  20421788.987    20421789.3244   20421794.3154
        50.2004         47.3004
   7336296.08642   5727700.91945  25328915.124    25328912.7794   25328919.6054
        36.1004         34.3004
 16  6 23  0  5  0.0000000  0  9G19G17G 6G22G23G31G 3G 9G 1
  -9324356.64344  -7251599.24046  23172689.606    23172689.1224   23172690.7434
        42.5004         39.7004
  -1362155.75843  -1050393.34846  23873653.833    23873653.7874   23873658.0384
        40.1004         37.4004
 -11147468.79646  -8446815.45647  20882950.340    20882950.7724   20882956.4274
        49.1004         46.3004
  -2037898.11943  -1309360.70946  23819780.903    23819779.2254   23819781.6494
        39.0004         36.6004
 -21131128.25046 -16191492.59647  20653162.534    20653161.9384   20653161.9904
        49.3004         46.5004
   3054343.12642   2389873.78245  25090341.316    25090341.5814   25090343.8524
        37.3004         35.2004
 -13044560.28845 -10143730.93847  21950122.833    21950123.5584   21950128.7564
        46.0004         43.2004
 -20056927.80447 -15610815.76447  20414716.027    20414715.6774   20414720.6684
        50.2004         47.3004
   7450320.55142   5816551.08145  25350615.440    25350615.0784   25350618.0634
        35.4004         33.6004
 16  6 23  0  5 30.0000000  0  9G19G17G 6G22G23G31G 3G 9G 1
  -9248491.77244  -7192483.81446  23187126.801    23187125.9294   23187126.8934
        42.3004         39.5004
  -1269062.56343   -977853.22646  23891370.351    23891370.0104   23891373.9264
        40.1004         37.8004
 -11185138.26246  -8476168.28247  20875781.747    20875782.4764   20875787.8624
        49.1004         46.1004
  -1949223.34543  -1240263.49546  23836657.460    23836654.5294   23836655.3684
        38.5004         36.0004
 -21113621.36346 -16177850.86347  20656493.700    20656493.1054   20656493.4434
        49.3004         46.5004
   3143373.28742   2459247.94145  25107283.459    25107283.8394   25107284.3254
        37.1004         35.2004
 -12972359.29445 -10087470.43547  21963862.330    21963862.3544   21963867.2294
        45.8004         43.0004
 -20093622.69247 -15639409.16447  20407732.678    20407732.8124   20407738.0194
        50.2004         47.3004
   7564369.60942   5905420.39545  25372319.295    25372314.6934   25372323.0624
        35.6004         34.0004
 16  6 23  0  6  0.0000000  0  8G19G17G 6G22G23G31G 3G 9
  -9172234.16244  -7133062.30346  23201635.993    23201635.5384   23201639.7964
        41.8004         39.0004
  -1175784.25343   -905168.89246  23909117.349    23909118.6284   23909125.9194
        40.3004         37.8004
 -11222281.29046  -8505110.90047  20868714.238    20868714.7274   20868719.5414
        49.1004         46.3004
  -1860428.28143  -1171072.52546  23853553.090    23853552.6074   23853551.9544
        38.3004         36.2004
 -21095680.07346 -16163870.62947  20659907.128    20659907.2204   20659907.5654
        49.3004         46.5004
   3232724.72642   2528872.41745  25124285.787    25124285.7224   25124288.5144
        37.1004         35.2004
 -12899923.46545 -10031026.95947  21977646.997    21977646.8494   21977652.2834
        46.0004         43.2004
 -20129840.70847 -15667630.98047  20400840.446    20400840.4144   20400846.2184
        50.2004         47.3004
 16  6 23  0  6 30.0000000  0  8G19G17G 6G22G23G31G 3G 9
  -9095586.42944  -7073336.81546  23216223.670    23216223.0244   23216226.0314
        42.0004         39.5004
  -1082323.71843   -832342.53446  23926904.199    23926904.1094   23926909.3164
        39.9004         37.3004
 -11258896.22146  -8533642.00947  20861746.168    20861746.7154   20861752.2644
        49.1004         46.3004
  -1771513.76743  -1101788.51146  23870472.769    23870470.7514   23870471.2524
        38.3004         36.0004
 -21077305.20246 -16149552.53347  20663404.316    20663404.0834   20663404.3884
        49.3004         46.6004
   3322394.69642   2598745.11845  25141351.308    25141351.3664   25141352.3104
        37.1004         35.2004
 -12827253.52845  -9974401.04947  21991475.588    21991475.7224   21991481.3034
        46.0004         43.3004
 -20165581.60747 -15695481.01247  20394039.560    20394039.4904   20394044.7114
        50.2004         47.3004
 16  6 23  0  7  0.0000000  0  8G19G17G 6G22G23G31G 3G 9
  -9018551.70144  -7013309.79546  23230883.296    23230882.0634   23230884.0274
        42.0004         39.2004
   -988683.99743   -759376.57146  23944722.968    23944723.6874   23944728.7334
        39.6004         37.3004
 -11294981.43546  -8561760.34647  20854879.453    20854879.9714   20854885.2794
        49.1004         46.3004
  -1682480.12243  -1032411.62745  23887413.411    23887414.0254   23887415.2304
        38.2004         35.9004
 -21058497.98546 -16134897.55147  20666983.486    20666982.9634   20666983.4184
        49.5004         46.6004
   3412380.41942   2668863.85145  25158473.447    25158472.9944   25158475.4264
        36.8004         34.6004
 -12754350.16345  -9917593.24947  22005348.934    22005349.2124   22005354.2094
        46.2004         43.5004
 -20200845.07447 -15722959.02347  20387329.010    20387329.1264   20387334.2724
        50.2004         47.3004
 16  6 23  0  7 30.0000000  0  8G19G17G 6G22G23G31G 3G 9
  -8941133.18144  -6952983.69246  23245613.393    23245613.4544   23245616.1074
        41.3004         38.3004
   -894868.13243   -686273.34846  23962577.522    23962576.9894   23962581.5524
        39.9004         37.4004
 -11330535.27046  -8589464.62547  20848113.499    20848113.9774   20848119.6804
        49.3004         46.5004
  -1593328.15343   -962942.58346  23904381.814    23904380.0534   23904380.2734
        38.5004         36.2004
 -21039259.17546 -16119906.26147  20670643.953    20670643.7304   20670644.1464
        49.3004         46.6004
   3502679.21142   2739226.53745  25175655.857    25175656.7764   25175660.0234
        36.8004         34.8004
 -12681214.13445  -9860604.14747  22019265.677    22019266.8304   22019271.1764
        46.2004         43.3004
 -20235630.82547 -15750064.78147  20380709.296    20380709.5174   20380714.7814
        50.2004         47.3004
 16  6 23  0  8  0.0000000  0  8G19G17G 6G22G23G31G 3G 9
  -8863333.56144  -6892360.63046  23260418.639    23260417.9084   23260420.7384
        41.1004         38.8004
   -800879.27443   -613035.31046  23980462.022    23980461.9634   23980466.2654
        39.4004         36.7004
 -11365556.13046  -8616753.59347  20841449.129    20841449.8624   20841455.8614
        49.3004         46.6004
  -1504058.70243   -893381.98246  23921365.936    23921368.1414   23921368.3434
        38.9004         36.7004
 -21019590.10746 -16104579.70747  20674386.599    20674386.3374   20674387.1404
        49.3004         46.5004
   3593288.34042   2809831.05745  25192898.616    25192897.9944   25192902.9334
        36.6004         34.6004
 -12607846.10545  -9803434.28047  22033227.649    22033227.7154   22033232.6804
        46.0004         43.0004
 -20269938.63947 -15776798.13047  20374181.036    20374180.8584   20374186.0674
        50.2004         47.3004
 16  6 23  0  8 30.0000000  0  8G19G17G 6G22G23G31G 3G 9
  -8785155.97844  -6831443.07246  23275296.557    23275295.6244   23275298.6244
        41.6004         39.0004
   -706720.37243   -539664.76046  23998379.495    23998379.0724   23998384.5254
        39.4004         37.1004
 -11400042.40046  -8643626.00447  20834886.958    20834887.4854   20834893.1854
        49.5004         46.5004
  -1414672.18143   -823730.16746  23938380.142    23938377.8244   23938378.4544
        39.0004         36.9004
 -20999491.63846 -16088918.55447  20678211.503    20678211.1114   20678211.7894
        49.3004         46.5004
   3684205.18642   2880675.34845  25210200.388    25210199.1974   25210203.9634
        36.6004         34.6004
 -12534246.81645  -9746084.19547  22047232.293    22047232.6714   22047238.5684
        45.8004         43.0004
 -20303768.23547 -15803158.84147  20367743.281    20367743.5604   20367748.3414
        50.2004         47.5004
 16  6 23  0  9  0.0000000  0  8G19G17G 6G22G23G31G 3G 9
  -8706603.27044  -6770233.18846  23290244.727    23290243.0954   23290245.8794
        41.5004         38.6004
   -612394.87143   -466164.40646  24016329.846    24016330.3134   24016333.7814
        39.4004         37.1004
 -11433992.50846  -8670080.62647  20828426.442    20828426.7824   20828432.0754
        49.3004         46.3004
  -1325169.23043   -753987.61646  23955412.033    23955410.2444   23955410.0934
        39.4004         37.1004
 -20978965.02846 -16072923.78447  20682117.741    20682117.2594   20682117.8514
        49.3004         46.5004
   3775427.18242   2951757.41345  25227558.424    25227557.8784   25227560.2454
        36.3004         34.1004
 -12460416.97945  -9688554.46247  22061281.663    22061282.4794   22061287.3944
        45.8004         43.0004
 -20337119.38747 -15829146.73947  20361397.279    20361397.0804   20361401.6344
        50.3004         47.3004
 16  6 23  0  9 30.0000000  0  8G19G17G 6G22G23G31G 3G 9
  -8627678.59844  -6708733.46746  23305263.824    23305263.3004   23305264.5464
        41.5004         39.0004
   -517905.19843   -392536.16446  24034311.603    24034311.7894   24034314.3444
        39.2004         36.7004
 -11467404.89846  -8696116.25047  20822068.040    20822068.7604   20822074.0974
        49.3004         46.5004
  -1235550.69943   -684154.97246  23972464.888    23972462.9364   23972463.6564
        39.0004         36.6004
 -20958011.03546 -16056595.98647  20686105.356    20686104.9934   20686105.5504
        49.3004         46.6004
   3866951.59742   3023075.14845  25244974.921    25244974.4694   25244978.9834
        35.7004         34.0004
 -12386357.30445  -9630845.64247  22075374.451    22075375.3204   22075380.0764
        45.6004         42.8004
 -20369991.94947 -15854761.70947  20355141.539    20355141.6554   20355146.1244
        50.3004         47.5004
 16  6 23  0 10  0.0000000  0  8G19G17G 6G22G23G31G 3G 9
  -8548384.65344  -6646945.99846  23320352.866    23320351.7284   23320354.4094
        41.8004         39.3004
   -423255.10843   -318782.87046  24052319.463    24052320.2854   24052327.7824
        39.2004         36.7004
 -11500277.99046  -8721731.63947  20815812.731    20815813.2684   20815818.3664
        49.3004         46.5004
  -1145817.19543   -614232.76446  23989538.866    23989538.4254   23989539.5814
        38.7004         36.0004
 -20936631.08046 -16039936.27047  20690173.668    20690173.4664   20690174.3484
        49.5004         46.8004
   3958775.68142   3094626.37445  25262448.452    25262448.1354   25262453.8224
        35.7004         34.1004
 -12312068.52545  -9572958.28847  22089511.186    22089511.4274   22089517.1664
        45.6004         42.6004
 -20402385.65247 -15880003.53847  20348977.326    20348977.2484   20348981.8344
        50.3004         47.5004
 16  6 23  0 10 30.0000000  0  8G19G17G 6G22G23G31G 3G 9
  -8468725.26144  -6584873.74846  23335510.516    23335510.5864   23335513.4434
        41.8004         39.2004
   -328447.32543   -244906.72246  24070363.337    24070363.5104   24070366.6914
        39.4004         37.1004
 -11532610.28146  -8746925.62547  20809659.911    20809660.5214   20809665.9594
        49.3004         46.5004
  -1055969.22143   -544221.37545  24006636.578    24006635.2304   24006637.2694
        38.3004         35.9004
 -20914825.75346 -16022945.10047  20694323.026    20694322.6834   20694323.3504
        49.5004         46.6004
   4050896.88242   3166409.15345  25279979.302    25279979.5094   25279984.8514
        35.4004         33.8004
 -12237551.35645  -9514892.96847  22103692.092    22103692.4234   22103697.4694
        45.5004         42.6004
 -20434300.33447 -15904872.10447  20342903.812    20342903.9324   20342908.7824
        50.3004         47.5004
 16  6 23  0 11  0.0000000  0  7G19G17G 6G22G23G 3G 9
  -8388702.72044  -6522518.55746  23350738.415    23350738.5564   23350741.0894
        41.6004         39.2004
   -233485.30443   -170910.39146  24088432.218    24088431.9894   24088437.2624
        39.2004         36.7004
 -11564400.22046  -8771696.99147  20803610.090    20803611.2404   20803616.4354
        49.3004         46.5004
   -966007.55442   -474121.36945  24023752.734    24023752.9434   24023756.1304
        37.5004         35.2004
 -20892596.20446 -16005623.36647  20698553.334    20698553.0424   20698553.5704
        49.5004         46.6004
 -12162806.50245  -9456650.24247  22117914.438    22117915.4514   22117921.0804
        45.5004         42.6004
 -20465735.80147 -15929367.26247  20336921.513    20336921.7974   20336926.9674
        50.3004         47.5004
 16  6 23  0 11 30.0000000  0  7G19G17G 6G22G23G 3G 9
  -8308320.35744  -6459883.00046  23366034.328    23366033.1964   23366036.7184
        41.6004         39.0004
   -138371.57843    -96795.88346  24106533.278    24106533.5314   24106537.8324
        39.4004         37.1004
 -11595646.33246  -8796044.60447  20797665.075    20797665.5524   20797670.5134
        49.3004         46.5004
   -875932.95742   -403933.38045  24040894.424    24040892.3974   24040894.1584
        37.1004         35.2004
 -20869943.81846 -15987972.14547  20702864.258    20702863.7544   20702863.8674
        49.5004         46.6004
 -12087834.69245  -9398230.66447  22132182.536    22132182.8624   22132187.5914
        45.5004         42.6004
 -20496691.95247 -15953488.92147  20331031.008    20331031.2254   20331036.2064
        50.3004         47.5004
 16  6 23  0 12  0.0000000  0  7G19G17G 6G22G23G 3G 9
  -8227581.14844  -6396969.36046  23381398.598    23381398.2184   23381401.4044
        41.6004         39.0004
    -43109.57143    -22565.77846  24124661.921    24124662.1084   24124665.2924
        39.4004         37.1004
 -11626347.11246  -8819967.28547  20791822.788    20791823.0754   20791828.3414
        49.3004         46.6004
   -785746.16442   -333657.97845  24058055.680    24058055.4724   24058060.4364
        37.1004         35.2004
 -20846869.63646 -15969992.25947  20707254.422    20707254.1474   20707254.9314
        49.3004         46.5004
 -12012636.62845  -9339634.77747  22146491.129    22146491.4324   22146497.1974
        45.3004         42.5004
 -20527168.59047 -15977236.93347  20325231.684    20325231.5624   20325236.7694
        50.3004         47.5004
 16  6 23  0 12 30.0000000  0  8G19G17G 6G22G 2G23G 3G 9
  -8146488.03544  -6333779.94646  23396830.963    23396830.1064   23396833.2374
        41.8004         39.2004
     52297.66943     51777.45446  24142817.241    24142816.5264   24142821.8944
        39.4004         36.9004
 -11656501.09246  -8843463.88647  20786084.496    20786084.9574   20786090.3974
        49.5004         46.8004
   -695447.73542   -263295.58845  24075240.333    24075240.8614   24075243.0794
        37.5004         35.5004
   -278636.06953   -197430.02756  23929939.675    23929938.3384   23929941.3504
        39.2004         37.4004
 -20823374.63146 -15951684.45147  20711725.224    20711725.0114   20711725.8154
        49.3004         46.5004
 -11937213.04845  -9280863.16347  22160844.579    22160844.6754   22160849.9104
        45.3004         42.5004
 -20557165.62747 -16000611.22847  20319523.630    20319523.5104   20319528.3914
        50.3004         47.5004
 16  6 23  0 13  0.0000000  0  8G19G17G 6G22G 2G23G 3G 9
  -8065044.12844  -6270317.19746  23412328.279    23412327.5384   23412331.0324
        41.8004         39.0004
    147846.99043    126231.42446  24160997.045    24160998.9784   24161003.4794
        39.0004         36.6004
 -11686106.79547  -8866533.26547  20780450.804    20780451.0024   20780456.5964
        49.6004         46.8004
   -605038.60342   -192846.91545  24092443.274    24092444.4074   24092447.5264
        37.5004         35.5004
   -373006.52443   -270965.37346  23911982.828    23911981.2634   23911983.8054
        39.9004         37.8004
 -20799459.78946 -15933049.49747  20716276.465    20716275.8134   20716276.6574
        49.3004         46.5004
 -11861564.66245  -9221916.38347  22175240.306    22175240.7954   22175245.0684
        45.3004         42.5004
 -20586682.89247 -16023611.68147  20313906.302    20313906.5194   20313911.2904
        50.3004         47.7004
 16  6 23  0 13 30.0000000  0  8G19G17G 6G22G 2G23G 3G 9
  -7983252.52044  -6206583.52446  23427893.642    23427892.5034   23427895.7114
        41.8004         39.2004
    243535.38643    200793.75245  24179208.196    24179207.6994   24179211.8374
        38.3004         35.9004
 -11715162.84847  -8889174.34047  20774921.323    20774921.8434   20774927.5114
        49.6004         46.6004
   -514519.09043   -122312.23945  24109671.106    24109670.1414   24109673.0764
        37.6004         35.5004
   -467185.42553   -344351.46556  23894060.265    23894059.4474   23894062.2924
        40.4004         37.9004
 -20775126.45446 -15914088.44947  20720906.535    20720906.3604   20720907.1544
        49.1004         46.3004
 -11785692.19145  -9162794.98347  22189678.309    22189678.2804   22189683.6844
        45.3004         42.5004
 -20615720.33847 -16046238.25447  20308380.793    20308380.8064   20308385.5414
        50.3004         47.5004
 16  6 23  0 14  0.0000000  0  8G19G17G 6G22G 2G23G 3G 9
  -7901116.35344  -6142581.37046  23443523.772    23443522.4594   23443525.5294
        41.8004         39.0004
    339359.88343    275462.13846  24197444.369    24197443.0614   24197447.0764
        38.3004         36.2004
 -11743667.77346  -8911385.96447  20769497.159    20769497.7394   20769503.0554
        49.5004         46.8004
   -423889.88042    -51692.10945  24126916.646    24126914.5254   24126918.4874
        37.3004         35.3004
   -561170.46343   -417586.49146  23876175.902    23876175.2804   23876177.2704
        40.4004         37.9004
 -20750375.72846 -15894802.16247  20725616.980    20725616.6764   20725616.8014
        49.1004         46.3004
 -11709596.36745  -9103499.53647  22204158.773    22204158.9104   22204163.5094
        45.1004         42.1004
 -20644277.84947 -16068490.84747  20302946.898    20302946.6994   20302951.2604
        50.5004         47.7004
 16  6 23  0 14 30.0000000  0  8G19G17G 6G22G 2G23G 3G 9
  -7818638.71144  -6078313.09046  23459217.949    23459216.8534   23459221.2564
        41.6004         38.8004
    435317.26043    350234.05346  24215702.544    24215703.4064   24215707.5364
        38.7004         36.6004
 -11771620.19647  -8933167.07347  20764178.428    20764179.0834   20764184.1184
        49.6004         46.8004
   -333151.67942     19012.98745  24144183.707    24144182.5204   24144184.2124
        37.1004         35.2004
   -654959.34743   -490668.69646  23858328.114    23858327.4454   23858330.2594
        40.3004         37.8004
 -20725208.94446 -15875191.67247  20730405.780    20730405.3914   20730405.9674
        49.1004         46.3004
 -11633277.90245  -9044030.61447  22218682.400    22218681.7134   22218686.6674
        45.1004         42.3004
 -20672355.36847 -16090369.41847  20297603.810    20297603.5194   20297608.5554
        50.5004         47.7004
 16  6 23  0 15  0.0000000  0  8G19G17G 6G22G 2G23G 3G 9
  -7735822.57044  -6013781.05446  23474978.742    23474978.1474   23474979.8724
        41.5004         38.8004
    531404.27343    425107.01846  24233987.967    24233987.8894   24233990.7054
        38.3004         36.2004
 -11799018.72947  -8954516.56547  20758964.658    20758965.2674   20758970.4314
        49.6004         46.8004
   -242305.17642     89802.44845  24161470.337    24161469.9764   24161472.8834
        36.8004         34.6004
   -748549.78643   -563596.24246  23840517.282    23840516.9244   23840520.1804
        40.1004         37.6004
 -20699626.97646 -15855257.66547  20735273.625    20735273.3584   20735273.9084
        48.9004         45.9004
 -11556737.55645  -8984388.78447  22233245.970    22233246.8234   22233251.7914
        44.9004         42.1004
 -20699952.79247 -16111873.89347  20292351.565    20292351.6554   20292356.9874
        50.3004         47.5004
 16  6 23  0 15 30.0000000  0  8G19G17G 6G22G 2G23G 3G 9
  -7652670.98944  -5948987.66046  23490801.467    23490800.4444   23490803.2204
        41.1004         38.3004
    627618.22543    500078.82446  24252297.244    24252297.3334   24252300.9624
        38.3004         36.0004
 -11825861.98847  -8975433.37847  20753855.937    20753856.5744   20753862.1634
        49.6004         46.8004
   -151351.21842    160675.64945  24178777.949    24178777.6124   24178780.3134
        36.8004         34.6004
   -841939.48243   -636367.37746  23822745.549    23822744.6904   23822749.2294
        40.1004         37.6004
 -20673630.86146 -15835000.94447  20740220.560    20740219.9894   20740220.8084
        48.9004         46.1004
 -11479976.00045  -8924574.60047  22247854.041    22247854.8094   22247859.1964
        44.9004         42.1004
 -20727070.13447 -16133004.27247  20287191.257    20287191.4544   20287196.8564
        50.3004         47.7004
 16  6 23  0 16  0.0000000  0  9G19G17G 6G 7G22G 2G23G 3G 9
  -7569187.31143  -5883935.46346  23506685.314    23506685.2444   23506689.0494
        40.4004         37.6004
    723955.84143    575147.02846  24270629.696    24270629.4304   24270634.6644
        38.5004         36.2004
 -11852148.64647  -8995916.47947  20748853.871    20748854.6824   20748859.4134
        49.6004         46.6004
                                  24248579.454

    -60290.19442    231632.32245  24196108.958    24196106.7484   24196107.4264
        37.0004         35.0004
   -935125.95643   -708980.17046  23805014.405    23805013.4524   23805015.9804
        40.3004         37.8004
 -20647221.86546 -15814422.49947  20745245.820    20745245.5164   20745246.4554
        48.9004         46.1004
 -11402994.00745  -8864588.62646  22262502.509    22262502.2224   22262508.4824
        44.9004         41.9004
 -20753707.34747 -16153760.52647  20282122.763    20282122.5874   20282127.8564
        50.5004         47.7004
 16  6 23  0 16 30.0000000  0  8G19G17G 6G22G 2G23G 3G 9
  -7485374.49244  -5818626.80246  23522637.176    23522636.0154   23522638.8674
        40.6004         38.3004
    820414.05243    650309.20345  24288981.432    24288982.8804   24288990.0084
        38.2004         35.9004
 -11877877.35146  -9015964.82347  20743958.155    20743958.7714   20743963.3194
        49.5004         46.6004
     30876.62842    302671.38445  24213459.585    24213456.3294   24213458.2154
        37.0004         35.0004
  -1028107.08443   -781432.94546  23787320.818    23787320.0654   23787321.3944
        40.4004         38.1004
 -20620401.18946 -15793523.26447  20750350.159    20750349.8854   20750350.4684
        48.9004         46.3004
 -11325792.24245  -8804431.41546  22277193.922    22277193.9254   22277199.5684
        44.8004         41.9004
 -20779864.37547 -16174142.61147  20277144.982    20277144.9164   20277150.2174
        50.5004         47.7004
 16  6 23  0 17  0.0000000  0  9G19G17G 6G 7G22G 2G23G 3G 9
  -7401235.42144  -5753063.90546  23538648.961    23538647.4624   23538650.1594
        40.9004         38.5004
    916989.69343    725562.85345  24307362.483    24307363.3614   24307367.4364
        38.0004         35.7004
 -11903046.80846  -9035577.38047  20739168.142    20739168.6244   20739174.1324
        49.5004         46.6004
                   -173188.00745  24207814.184
                        35.0004
    122148.78742    373792.53845  24230825.865    24230822.8414   24230825.5844
        36.6004         34.8004
  -1120880.74343   -853724.06546  23769666.922    23769666.4394   23769667.6904
        40.4004         37.8004
 -20593170.05846 -15772304.19547  20755531.868    20755531.5594   20755532.5714
        48.9004         46.1004
 -11248371.49245  -8744103.56146  22291924.839    22291925.9894   22291932.5854
        44.6004         41.8004
 -20805541.24847 -16194150.55447  20272259.096    20272259.1224   20272263.9624
        50.5004         47.7004
 16  6 23  0 17 30.0000000  0  9G19G17G 6G 7G22G 2G23G 3G 9
  -7316773.58144  -5687249.49246  23554721.494    23554719.8864   23554722.5184
        40.8004         37.9004
   1013679.77943    800905.68045  24325763.961    24325762.9854   24325764.5424
        38.0004         35.7004
 -11927655.71946  -9054753.14547  20734485.483    20734485.9464   20734491.5024
        49.5004         46.6004
                   -256584.12645  24187447.783                    24187451.5424
                        35.9004
    213526.22742    444995.75445  24248208.681    24248212.6654   24248213.4234
        36.6004         34.8004
  -1213444.60843   -925851.69046  23752051.571    23752051.1224   23752052.4004
        40.1004         37.4004
 -20565529.48346 -15750766.07147  20760791.705    20760791.1794   20760792.1694
        48.9004         46.1004
 -11170732.43945  -8683605.61146  22306701.697    22306701.3124   22306706.3464
        44.6004         41.9004
 -20830737.95847 -16213784.33947  20267464.253    20267464.3654   20267469.3774
        50.7004         47.8004
 16  6 23  0 18  0.0000000  0  9G19G17G 6G 7G22G 2G23G 3G 9
  -7231991.82844  -5621185.82846  23570854.946    23570853.8434   23570854.9974
        40.6004         37.9004
   1110481.28143    876335.34145  24344182.155    24344179.8974   24344185.5264
        37.6004         35.2004
 -11951702.77946  -9073491.11047  20729909.530    20729909.9214   20729915.2404
        49.5004         46.6004
   -457523.38343   -339934.00146  24167094.338    24167094.5474   24167097.2564
        37.8004         36.0004
    305007.97042    516280.21845  24265623.073    24265620.9174   24265622.1274
        37.1004         35.2004
  -1305796.29543   -997813.96846  23734477.914    23734476.7144   23734478.8024
        39.4004         36.9004
 -20537480.74046 -15728909.90447  20766129.294    20766128.8374   20766129.4554
        48.9004         46.1004
 -11092875.82045  -8622938.14446  22321516.008    22321517.1044   22321522.3404
        44.6004         41.8004
 -20855454.52747 -16233043.99148  20262761.380    20262761.0614   20262766.0084
        50.7004         48.0004
 16  6 23  0 18 30.0000000  0  9G19G17G 6G 7G22G 2G23G 3G 9
  -7146893.34144  -5554875.37246  23587048.152    23587048.0214   23587049.4714
        40.6004         38.1004
   1207391.28742    951849.53345  24362624.933    24362624.0534   24362628.5014
        37.5004         35.5004
 -11975186.74546  -9091790.30447  20725440.567    20725441.0334   20725446.3464
        49.5004         46.5004
   -564427.32543   -423235.73546  24146752.168    24146750.8314   24146754.3974
        38.3004         36.2004
    396593.12042    587645.25945  24283054.022    24283049.3144   24283051.9254
        37.5004         35.3004
  -1397933.24843  -1069608.93446  23716945.269    23716944.3714   23716945.7674
        39.6004         37.1004
 -20509025.04446 -15706736.62647  20771544.675    20771543.8634   20771544.7234
        49.1004         46.3004
 -11014802.39845  -8562101.71746  22336373.793    22336373.4744   22336379.2494
        44.8004         41.9004
 -20879691.02147 -16251929.55147  20258148.738    20258148.7174   20258153.9824
        50.7004         47.8004
 16  6 23  0 19  0.0000000  0  9G19G17G 6G 7G22G 2G23G 3G 9
  -7061481.28544  -5488320.51946  23603299.731    23603299.1774   23603303.8994
        40.8004         38.1004
   1304406.55243   1027445.75345  24381086.153    24381086.3384   24381089.3484
        37.6004         35.5004
 -11998106.40046  -9109649.76947  20721078.737    20721079.4074   20721085.0504
        49.3004         46.5004
   -671267.06553   -506487.38456  24126419.399    24126419.4244   24126422.7334
        38.5004         36.4004
    488280.92842    659090.26845  24300497.298    24300497.1364   24300497.8694
        37.1004         35.0004
  -1489853.53443  -1141235.08146  23699453.293    23699452.4584   23699454.2664
        39.7004         37.4004
 -20480163.46746 -15684247.08447  20777036.428    20777036.1544   20777036.6934
        49.1004         46.3004
 -10936512.87645  -8501096.91046  22351270.298    22351271.4264   22351277.2704
        44.6004         41.9004
 -20903447.45647 -16270441.04647  20253627.892    20253628.0694   20253632.9154
        50.7004         47.8004
 16  6 23  0 19 30.0000000  0  9G19G17G 6G 7G22G 2G23G 3G 9
  -6975758.94544  -5421523.91846  23619613.193    23619613.4354   23619615.2554
        40.8004         38.1004
   1401523.76943   1103121.39945  24399565.948    24399566.0684   24399571.4744
        37.6004         35.5004
 -12020460.48246  -9127068.53247  20716825.793    20716826.0124   20716830.8884
        49.3004         46.6004
   -778039.28543   -589686.44746  24106101.416    24106101.1264   24106105.6764
        38.9004         36.7004
    580070.79242    730614.87145  24317961.965    24317962.8294   24317965.4514
        37.1004         35.0004
  -1581554.57743  -1212690.36946  23682002.494    23682001.7874   23682003.7334
        39.9004         37.6004
 -20450897.19846 -15661442.19147  20782605.739    20782605.5084   20782605.8944
        49.1004         46.3004
 -10858007.98545  -8439924.27847  22366208.994    22366210.2724   22366216.3654
        44.6004         42.1004
 -20926723.91247 -16288578.53447  20249199.299    20249199.1364   20249203.4614
        50.7004         47.8004
 16  6 23  0 20  0.0000000  0  9G19G17G 6G 7G22G 2G23G 3G 9
  -6889729.07444  -5354487.70446  23635984.693    23635983.9874   23635986.3644
        40.8004         38.3004
   1498739.98342   1178874.18045  24418064.755    24418065.4224   24418070.6304
        37.3004         35.0004
 -12042247.83946  -9144045.69147  20712678.974    20712680.0534   20712684.8634
        49.5004         46.6004
   -884741.66743   -672831.10146  24085795.645    24085796.2134   24085799.2254
        39.0004         36.7004
    671962.06343    802218.44645  24335453.091    24335449.8174   24335453.1964
        37.6004         35.7004
  -1673034.19843  -1283973.11146  23664594.939    23664593.8564   23664596.2484
        40.4004         38.3004
 -20421227.74846 -15638323.13647  20788251.924    20788251.5524   20788251.7824
        49.1004         46.3004
 -10779288.46745  -8378584.41047  22381190.512    22381190.6884   22381195.8724
        44.8004         42.1004
 -20949520.42647 -16306342.04147  20244860.733    20244860.8474   20244865.2804
        50.7004         47.7004
 16  6 23  0 20 30.0000000  0  9G19G17G 6G 7G22G 2G23G 3G 9
  -6803394.93644  -5287214.38846  23652412.734    23652412.0214   23652414.8354
        40.8004         38.1004
   1596052.36742   1254701.91545  24436583.528    24436584.3264   24436588.7834
        37.0004         34.8004
 -12063467.25246  -9160580.29247  20708641.641    20708642.0564   20708646.8794
        49.5004         46.6004
   -991371.78543   -755919.41746  24065504.337    24065504.8524   24065508.2664
        39.0004         36.7004
    763954.06043    873900.48545  24352959.615    24352956.2474   24352957.9554
        37.8004         35.7004
  -1764289.90243  -1355081.41046  23647229.980    23647229.1284   23647229.6474
        40.4004         37.9004
 -20391156.25846 -15614890.80947  20793973.970    20793973.5984   20793973.8294
        48.9004         46.1004
 -10700355.04645  -8317077.85847  22396211.676    22396211.3634   22396216.5804
        44.9004         42.3004
 -20971837.12347 -16323731.66347  20240614.044    20240614.2654   20240618.6044
        50.7004         47.7004
 16  6 23  0 21  0.0000000  0  9G19G17G 6G 7G22G 2G23G 3G 9
  -6716760.06944  -5219706.72146  23668899.679    23668898.6364   23668900.9994
        41.1004         38.6004
   1693457.94142   1330602.19845  24455120.305    24455118.9674   24455125.3814
        36.8004         34.8004
 -12084117.54846  -9176671.42547  20704711.878    20704712.4394   20704717.2154
        49.5004         46.6004
  -1097927.04243   -838949.41246  24045229.112    24045228.2054   24045231.6604
        39.0004         36.7004
    856046.17743    945660.59245  24370479.226    24370480.0864   24370482.6154
        37.6004         35.5004
  -1855319.42943  -1426013.46146  23629908.042    23629906.3454   23629908.2064
        40.4004         37.9004
 -20360683.69446 -15591145.95047  20799772.653    20799772.5114   20799772.6984
        48.9004         46.1004
 -10621208.43445  -8255405.19447  22411272.525    22411272.7164   22411277.2014
        44.9004         42.1004
 -20993674.11647 -16340747.48847  20236458.254    20236458.4394   20236463.2784
        50.5004         47.7004
 16  6 23  0 21 30.0000000  0  9G19G17G 6G 7G22G 2G23G 3G 9
  -6629827.15744  -5151966.80846  23685442.497    23685441.6544   23685444.3734
        41.1004         38.6004
   1790953.43342   1406572.61045  24473671.573    24473671.8524   24473677.5304
        36.6004         34.6004
 -12104197.59946  -9192318.21747  20700890.872    20700891.3334   20700896.0344
        49.5004         46.6004
  -1204404.68643   -921918.92246  24024966.159    24024966.1254   24024970.1224
        39.2004         36.7004
    948237.63743   1017498.06945  24388027.085    24388024.9474   24388024.7684
        37.6004         35.5004
  -1946120.60943  -1496767.56446  23612627.794    23612626.7194   23612628.6754
        40.3004         37.6004
 -20329811.40646 -15567089.61347  20805647.170    20805646.6934   20805647.7124
        48.9004         46.1004
 -10541849.40745  -8193566.99846  22426372.239    22426373.9184   22426378.7944
        44.8004         41.9004
 -21015031.49047 -16357389.58647  20232394.504    20232394.3034   20232399.2564
        50.7004         47.8004
 16  6 23  0 22  0.0000000  0  9G19G17G 6G 7G22G 2G23G 3G 9
  -6542599.59244  -5083997.30646  23702041.332    23702040.7844   23702042.6804
        41.1004         38.6004
   1888535.72942   1482610.67245  24492240.939    24492241.8514   24492246.5864
        36.4004         34.5004
 -12123706.26546  -9207519.77247  20697178.315    20697179.0904   20697183.6494
        49.5004         46.6004
  -1310802.18643  -1004825.98246  24004719.454    24004718.8614   24004722.7714
        39.0004         36.7004
   1040527.82842   1089412.50445  24405587.518    24405586.6344   24405586.5604
        37.5004         35.2004
  -2036690.99543  -1567341.84646  23595392.953    23595392.2794   23595393.7124
        40.3004         37.8004
 -20298540.57046 -15542722.71747  20811598.473    20811597.8804   20811598.2674
        48.9004         46.1004
 -10462278.66645  -8131563.84046  22441514.500    22441515.0144   22441520.7194
        44.6004         41.6004
 -21035909.39247 -16373658.06747  20228421.190    20228421.2364   20228426.2184
        50.7004         47.8004
 16  6 23  0 22 30.0000000  0  9G19G17G 6G 7G22G 2G23G 3G 9
  -6455080.38444  -5015800.55846  23718695.859    23718695.5124   23718697.5374
        41.3004         38.6004
   1986202.09642   1558714.20445  24510828.211    24510828.1664   24510831.0714
        36.6004         34.6004
 -12142642.47147  -9222275.24847  20693575.145    20693575.2594   20693580.6824
        49.6004         46.8004
  -1417117.07343  -1087668.66946  23984488.086    23984488.8574   23984490.8024
        39.0004         36.7004
   1132916.05342   1161403.32645  24423169.779    24423168.8224   24423166.3984
        37.3004         35.2004
  -2127028.35243  -1637734.54446  23578202.058    23578201.5064   23578203.0464
        40.3004         37.8004
 -20266872.40646 -15518046.22547  20817624.385    20817624.2954   20817624.6844
        49.1004         46.3004
 -10382496.96445  -8069396.29246  22456696.466    22456697.4554   22456702.3994
        44.6004         41.8004
 -21056307.96147 -16389553.04347  20224539.245    20224539.4754   20224544.2494
        50.5004         47.8004
 16  6 23  0 23  0.0000000  0  9G19G17G 6G 7G22G 2G23G 3G 9
  -6367272.40544  -4947378.76646  23735403.850    23735404.0864   23735406.7894
        41.1004         38.5004
   2083949.51342   1634880.91345  24529427.307    24529429.8024   24529430.4504
        36.4004         34.5004
 -12161005.09146  -9236583.77347  20690080.340    20690080.8434   20690086.4594
        49.5004         46.6004
  -1523346.39243  -1170444.69646  23964270.597    23964272.7494   23964275.8104
        38.9004         36.6004
   1225401.13842   1233469.62045  24440764.142    24440765.4424   24440763.2454
        36.8004         34.5004
  -2217129.96843  -1707943.56846  23561057.499    23561056.8464   23561056.7564
        40.4004         37.9004
 -20234808.19146 -15493061.11647  20823726.303    20823725.9494   20823726.4674
        49.1004         46.3004
 -10302505.02145  -8007064.91646  22471917.970    22471918.2284   22471924.3024
        44.4004         41.4004
 -21076227.35747 -16405074.63847  20220749.052    20220749.1514   20220753.6104
        50.5004         47.8004
 16  6 23  0 23 30.0000000  0  9G19G17G 6G 7G22G 2G23G 3G 9
  -6279179.20444  -4878734.76046  23752168.870    23752167.8214   23752170.4654
        41.1004         38.3004
   2181774.38342   1711107.95645  24548043.594    24548044.7454   24548048.0354
        36.3004         34.5004
 -12178793.07446  -9250444.54647  20686695.773    20686696.1974   20686701.4054
        49.5004         46.6004
  -1629487.61243  -1253152.06046  23944072.085    23944073.4524   23944078.0134
        38.7004         36.2004
   1317982.89442   1305611.28845  24458386.173    24458383.4994   24458382.8944
        36.8004         35.0004
  -2306993.81244  -1777967.29946  23543956.518    23543955.4664   23543956.9134
        40.8004         38.5004
 -20202349.33446 -15467768.49447  20829901.996    20829902.1184   20829902.7654
        48.9004         46.1004
 -10222303.60245  -7944570.31546  22487180.118    22487180.6434   22487186.4024
        44.2004         41.4004
 -21095667.75747 -16420222.99447  20217049.851    20217050.0514   20217054.2504
        50.7004         47.8004
 16  6 23  0 24  0.0000000  0  9G19G17G 6G 7G22G 2G23G 3G 9
  -6190804.14844  -4809871.09846  23768985.740    23768984.3394   23768988.7704
        40.8004         37.9004
   2279674.11142   1787393.32345  24566673.633    24566674.5744   24566676.9224
        36.4004         34.6004
 -12196005.36246  -9263856.72347  20683419.572    20683420.4484   20683426.0524
        49.3004         46.5004
  -1735538.42443  -1335789.00746  23923894.004    23923894.6604   23923897.5444
        38.7004         36.4004
   1410660.84842   1377827.86845  24476021.455    24476020.7794   24476019.1254
        37.0004         34.8004
  -2396617.50044  -1847803.86146  23526901.335    23526899.9744   23526902.0814
        40.9004         38.6004
 -20169496.94446 -15442169.22047  20836154.501    20836153.6184   20836154.4014
        48.8004         45.9004
 -10141893.41945  -7881913.03346  22502482.137    22502482.8894   22502488.3724
        44.2004         41.6004
 -21114629.31647 -16434998.22447  20213442.141    20213441.6034   20213445.7664
        50.7004         47.8004
 16  6 23  0 24 30.0000000  0  9G19G17G 6G 7G22G 2G23G 3G 9
  -6102150.20444  -4740790.10446  23785855.824    23785855.1824   23785857.0754
        40.6004         38.1004
   2377645.68042   1863734.67545  24585316.600    24585317.5094   24585321.5044
        36.8004         35.0004
 -12212640.96046  -9276819.52447  20680254.174    20680254.9114   20680260.6264
        49.5004         46.6004
  -1841496.03243  -1418353.29246  23903729.158    23903730.5574   23903733.6114
        38.5004         36.2004
   1503433.72142   1450118.41445  24493672.903    24493673.7994   24493673.9754
        36.6004         34.6004
  -2485998.67844  -1917451.46746  23509892.621    23509892.2854   23509893.0584
        40.9004         38.3004
 -20136252.38746 -15416264.37047  20842479.924    20842479.8364   20842480.8574
        48.8004         45.9004
 -10061275.22745  -7819093.67146  22517823.309    22517823.6094   22517829.3504
        44.4004         41.6004
 -21133112.25047 -16449400.50347  20209924.114    20209924.2434   20209928.7064
        50.7004         47.8004
 16  6 23  0 25  0.0000000  0  9G19G17G 6G 7G22G 2G23G 3G 9
  -6013220.36444  -4671494.18146  23802779.500    23802778.5794   23802780.5864
        40.8004         38.3004
   2475686.01242   1940129.61145  24603971.955    24603972.7344   24603978.6624
        36.8004         34.8004
 -12228698.80246  -9289332.12747  20677198.941    20677199.0274   20677205.2634
        49.5004         46.6004
  -1947357.30143  -1500842.51946  23883584.625    23883586.4164   23883589.0724
        38.7004         36.4004
   1596301.12942   1522482.63745  24511347.659    24511345.8584   24511345.5514
        36.8004         34.8004
  -2575135.08744  -1986908.35146  23492930.283    23492929.3524   23492931.3544
        40.9004         38.3004
 -20102616.71646 -15390054.75347  20848881.065    20848880.5944   20848881.2664
        48.8004         45.8004
  -9980449.76745  -7756112.80546  22533203.889    22533204.6254   22533209.8534
        44.4004         41.8004
 -21151116.75947 -16463429.98147  20206498.085    20206498.1274   20206502.8524
        50.7004         47.8004
 16  6 23  0 25 30.0000000  0  9G19G17G 6G 7G22G 2G23G 3G 9
  -5924017.79044  -4601985.68546  23819754.345    23819753.1104   23819755.7504
        40.9004         38.6004
   2573791.80642   2016575.57445  24622642.831    24622642.8044   24622648.2124
        36.6004         34.8004
 -12244177.96846  -9301393.81447  20674252.573    20674253.2524   20674259.3714
        49.3004         46.6004
  -2053120.50443  -1583255.32746  23863459.199    23863459.1074   23863463.3344
        38.9004         36.7004
   1689262.50542   1594920.07645  24529035.996    24529034.9524   24529037.3404
        36.8004         35.0004
  -2664024.46544  -2056172.75346  23476014.956    23476014.4004   23476015.9114
        40.8004         38.3004
 -20068591.46046 -15363541.56247  20855355.567    20855355.0574   20855356.0814
        48.6004         45.8004
  -9899417.77245  -7692971.00346  22548624.756    22548624.7394   22548629.6614
        44.4004         41.8004
 -21168643.08247 -16477086.84647  20203163.216    20203163.1994   20203167.7414
        50.7004         47.8004
 16  6 23  0 26  0.0000000  0  9G19G17G 6G 7G22G 2G23G 3G 9
  -5834545.82544  -4532267.32146  23836780.593    23836779.4604   23836781.6314
        41.3004         38.6004
   2671960.32642   2093070.35845  24641324.967    24641323.5784   24641328.4464
        36.8004         34.8004
 -12259077.44146  -9313003.78747  20671417.589    20671418.0344   20671424.1514
        49.3004         46.5004
  -2158782.27643  -1665589.10646  23843351.840    23843353.1624   23843357.2144
        39.0004         36.9004
   1782316.84742   1667429.93545  24546746.963    24546743.7674   24546747.3954
        37.0004         35.3004
  -2752664.33944  -2125242.75546  23459147.866    23459147.1304   23459148.2064
        40.8004         38.1004
 -20034177.72846 -15336725.66147  20861903.935    20861904.1224   20861904.8104
        48.6004         45.8004
  -9818179.98945  -7629668.85146  22564084.072    22564084.2224   22564088.6674
        44.4004         41.8004
 -21185691.45847 -16490371.28347  20199918.678    20199918.6374   20199923.1854
        50.7004         47.7004
 16  6 23  0 26 30.0000000  0  9G19G17G 6G 7G22G 2G23G 3G 9
  -5744807.52844  -4462341.41846  23853856.215    23853855.6134   23853857.2654
        41.1004         38.5004
   2770188.54042   2169611.64345  24660015.247    24660012.8324   24660020.5534
        36.4004         34.5004
 -12273396.29946  -9324161.34447  20668692.735    20668693.0204   20668699.1664
        49.3004         46.5004
  -2264340.34343  -1747842.07646  23823267.416    23823267.3494   23823269.9024
        39.4004         37.1004
   1875463.46642   1740011.71245  24564466.207    24564468.9004   24564470.9284
        37.1004         35.2004
  -2841052.06544  -2194116.28446  23442328.952    23442328.2544   23442329.1404
        40.6004         38.1004
 -19999376.85846 -15309608.08947  20868527.098    20868526.5564   20868526.9524
        48.6004         45.8004
  -9736737.16245  -7566206.91146  22579580.485    22579581.2674   22579587.6114
        44.4004         41.6004
 -21202262.09647 -16503283.45947  20196765.396    20196765.3334   20196770.0654
        50.5004         47.7004
 16  6 23  0 27  0.0000000  0  9G19G17G 6G 7G22G 2G23G 3G 9
  -5654806.32044  -4392210.63446  23870982.461    23870981.6224   23870984.8044
        41.1004         38.6004
   2868473.30142   2246196.96245  24678719.910    24678720.4214   24678722.2094
        36.1004         34.1004
 -12287133.58046  -9334865.71747  20666078.160    20666078.9624   20666085.3934
        49.3004         46.6004
  -2369792.09043  -1830012.19446  23803199.495    23803200.3324   23803202.0464
        39.6004         37.3004
   1968701.79242   1812664.95845  24582213.764    24582210.7904   24582213.1564
        37.1004         35.2004
  -2929185.57144  -2262791.71946  23425557.284    23425556.5834   23425558.1024
        40.6004         38.1004
 -19964190.17146 -15282189.88747  20875222.431    20875221.9544   20875222.9394
        48.6004         45.8004
  -9655090.03745  -7502585.78846  22595118.663    22595118.5104   22595123.7814
        44.2004         41.4004
 -21218355.27447 -16515823.59247  20193702.476    20193702.8694   20193707.7874
        50.5004         47.7004
 16  6 23  0 27 30.0000000  0  9G19G17G 6G 7G22G 2G23G 3G 9
  -5564545.20844  -4321877.31146  23888159.910    23888158.4784   23888161.1494
        41.3004         38.8004
   2966811.81842   2322824.20345  24697431.306    24697432.5524   24697435.9494
        35.7004         34.0004
 -12300288.42447  -9345116.25147  20663576.068    20663576.5944   20663581.9434
        49.6004         46.8004
  -2475134.65443  -1912097.24246  23783150.517    23783151.8854   23783155.8724
        39.6004         37.3004
   2062031.14942   1885389.10245  24599976.046    24599972.1904   24599973.1804
        37.1004         35.0004
  -3017062.39444  -2331267.14446  23408834.000    23408834.2844   23408834.7374
        40.6004         38.3004
 -19928618.77246 -15254471.90347  20881991.498    20881991.2084   20881991.9914
        48.6004         45.8004
  -9573239.37345  -7438806.05846  22610693.984    22610694.1534   22610699.8544
        44.2004         41.4004
 -21233971.28247 -16527991.89847  20190731.790    20190731.4174   20190736.2024
        50.7004         47.8004
 16  6 23  0 28  0.0000000  0  9G19G17G 6G 7G22G 2G23G 3G 9
  -5474027.30144  -4251343.91646  23905383.823    23905383.1164   23905386.0284
        41.1004         38.5004
   3065201.05242   2399491.03445  24716154.028    24716155.8064   24716161.3954
        35.9004         34.5004
 -12312859.93447  -9354912.23447  20661183.380    20661184.0584   20661189.7784
        49.6004         46.8004
  -2580365.15343  -1994094.97646  23763124.958    23763126.8474   23763131.8584
        39.4004         37.1004
   2155450.75642   1958183.60945  24617749.207    24617748.7824   24617748.7664
        37.1004         35.0004
  -3104680.35744  -2399540.86346  23392161.633    23392160.3194   23392162.0154
        40.6004         38.3004
 -19892664.09046 -15226455.25847  20888833.631    20888832.9614   20888833.5514
        48.6004         45.8004
  -9491185.88545  -7374868.28346  22626308.166    22626308.6094   22626313.1494
        44.1004         41.1004
 -21249110.38447 -16539788.59047  20187850.268    20187850.3204   20187855.4614
        50.7004         47.8004
 16  6 23  0 28 30.0000000  0  9G19G17G 6G 7G22G 2G23G 3G 9
  -5383255.87844  -4180612.97446  23922657.164    23922656.4304   23922659.6554
        40.9004         38.3004
   3163637.92442   2476194.96045  24734886.297    24734887.1674   24734891.8594
        36.1004         34.3004
 -12324847.23647  -9364252.99147  20658902.846    20658903.0634   20658908.4824
        49.6004         46.8004
  -2685481.25643  -2076003.57946  23743125.281    23743125.7474   23743128.9044
        39.6004         37.1004
   2248960.23342   2031048.16845  24635543.512    24635542.6894   24635545.3064
        37.0004         34.8004
  -3192036.94144  -2467610.90546  23375537.351    23375536.6694   23375538.9034
        40.9004         38.6004
 -19856327.49146 -15198141.02347  20895747.623    20895747.5824   20895748.4124
        48.4004         45.8004
  -9408930.36445  -7310773.08646  22641960.934    22641960.9504   22641965.9494
        43.7004         40.9004
 -21263772.88347 -16551213.90247  20185059.599    20185059.9674   20185065.3734
        50.7004         47.8004
 16  6 23  0 29  0.0000000  0  9G19G17G 6G 7G22G 2G23G 3G 9
  -5292234.10744  -4109686.94746  23939977.737    23939977.4694   23939980.1654
        40.8004         38.3004
   3262119.39742   2552933.65545  24753630.113    24753627.3234   24753631.3874
        35.9004         34.0004
 -12336249.48747  -9373137.86447  20656732.970    20656733.2524   20656738.4164
        49.6004         46.8004
  -2790480.64043  -2157821.23246  23723147.301    23723145.5284   23723147.8194
        39.6004         37.1004
   2342558.51442   2103981.87845  24653356.408    24653355.4814   24653353.8924
        36.8004         34.6004
  -3279130.05444  -2535475.61646  23358964.583    23358964.4094   23358965.6064
        41.3004         39.0004
 -19819610.31346 -15169530.23147  20902735.739    20902735.0174   20902735.2204
        48.6004         45.8004
  -9326473.50245  -7246520.99546  22657651.008    22657651.6904   22657657.3964
        43.6004         40.9004
 -21277959.10547 -16562268.09047  20182359.976    20182360.2124   20182365.5634
        50.7004         47.8004
 16  6 23  0 29 30.0000000  0  9G19G17G 6G 7G22G 2G23G 3G 9
  -5200965.16144  -4038568.33746  23957345.721    23957344.1784   23957348.2864
        40.6004         37.8004
   3360642.66042   2629704.88945  24772377.377    24772378.1164   24772380.5444
        35.4004         33.8004
 -12347065.86547  -9381566.20747  20654674.766    20654674.9804   20654680.2804
        49.6004         46.8004
  -2895360.75743  -2239545.92146  23703189.177    23703187.2484   23703189.9774
        39.6004         37.1004
   2436244.48642   2176983.91145  24671181.180    24671181.8044   24671182.9684
        36.6004         34.6004
  -3365957.16044  -2603133.06946  23342441.199    23342440.5784   23342442.9094
        41.8004         39.3004
 -19782513.70546 -15140623.77847  20909795.127    20909794.3824   20909794.7534
        48.6004         45.8004
  -9243816.08944  -7182112.63646  22673380.651    22673381.0274   22673386.5234
        43.4004         40.7004
 -21291669.37747 -16572951.40647  20179751.255    20179751.3264   20179756.7224
        50.7004         47.8004
 16  6 23  0 30  0.0000000  0  9G19G17G 6G 7G22G 2G23G 3G 9
  -5109452.17143  -3967259.56746  23974760.648    23974758.7824   23974762.3844
        39.9004         37.3004
   3459204.63242   2706506.34945  24791130.136    24791130.1384   24791139.3454
        35.7004         34.3004
 -12357295.57647  -9389537.40747  20652727.690    20652728.3924   20652733.3444
        49.6004         46.8004
  -3000118.37343  -2321175.19246  23683251.959    23683251.1724   23683255.3564
        39.7004         37.4004
   2530018.17742   2250054.32645  24689025.159    24689025.7704   24689027.8594
        36.6004         34.6004
  -3452515.63844  -2670581.18846  23325969.794    23325969.5174   23325971.4144
        42.2004         39.9004
 -19745039.11246 -15111422.78447  20916926.440    20916926.2554   20916925.8404
        48.8004         45.9004
  -9160958.87445  -7117548.59046  22689148.203    22689149.1364   22689153.9364
        43.6004         40.7004
 -21304904.01147 -16583264.09748  20177232.879    20177233.1464   20177238.1264
        50.7004         48.0004
 16  6 23  0 30 30.0000000  0  9G19G17G 6G 7G22G 2G23G 3G 9
  -5017698.36743  -3895763.12046  23992220.699    23992220.2584   23992222.1804
        39.9004         37.4004
   3557802.19742   2783335.55445  24809896.277    24809895.8274   24809901.0124
        36.1004         34.5004
 -12366937.84847  -9397050.86047  20650893.193    20650893.2604   20650898.3714
        49.6004         46.6004
  -3104750.82643  -2402706.94546  23663340.336    23663341.2614   23663344.6184
        39.9004         37.6004
   2623878.72442   2323192.39545  24706891.864    24706887.1424   24706888.5974
        36.6004         34.5004
  -3538803.36444  -2737818.34646  23309550.182    23309549.3394   23309551.2254
        42.9004         40.6004
 -19707187.93846 -15081928.36047  20924128.775    20924128.6924   20924128.7784
        48.8004         45.8004
  -9077902.57945  -7052829.40446  22704954.740    22704954.7614   22704959.0154
        43.7004         41.1004
 -21317663.36447 -16593206.43648  20174805.558    20174805.2204   20174809.9074
        50.8004         48.0004
 16  6 23  0 31  0.0000000  0  9G19G17G 6G 7G22G 2G23G 3G 9
  -4925707.02943  -3824081.57346  24009726.764    24009724.7674   24009727.2274
        39.7004         37.1004
   3656432.63642   2860190.35545  24828664.902    24828662.2234   24828669.0664
        35.7004         33.8004
 -12375991.91146  -9404105.97147  20649169.537    20649170.0844   20649175.4004
        49.5004         46.5004
  -3209255.83943  -2484139.40246  23643454.383    23643454.6554   23643457.6124
        40.1004         37.8004
   2717825.24242   2396397.44945  24724766.193    24724763.6404   24724765.7814
        36.6004         34.6004
  -3624818.10145  -2804842.79446  23293181.861    23293181.3924   23293182.7224
        43.6004         41.1004
 -19668961.00946 -15052141.13947  20931403.072    20931402.7974   20931402.9244
        48.6004         45.8004
  -8994648.03345  -6987955.73146  22720795.649    22720796.2654   22720801.6344
        43.6004         40.9004
 -21329947.80247 -16602778.71748  20172467.673    20172467.4944   20172472.3794
        50.8004         48.0004
 16  6 23  0 31 30.0000000  0  9G19G17G 6G 7G22G 2G23G 3G 9
  -4833481.24743  -3752217.35946  24027275.815    24027274.5914   24027278.8434
        39.7004         37.4004
   3755092.77642   2937068.27445  24847438.598    24847439.5664   24847441.2754
        34.9004         33.4004
 -12384457.03146  -9410702.16947  20647559.071    20647559.3094   20647564.3144
        49.3004         46.6004
  -3313630.69343  -2565470.39746  23623594.742    23623592.9114   23623596.3274
        40.4004         37.9004
   2811856.99442   2469668.95245  24742656.147    24742657.8374   24742660.9664
        36.3004         34.5004
  -3710557.32845  -2871652.55646  23276866.419    23276865.8424   23276867.5554
        43.9004         41.2004
 -19630359.98046 -15022062.41247  20938748.639    20938748.1874   20938748.3394
        48.4004         45.6004
  -8911195.90845  -6922928.12146  22736676.845    22736676.6614   22736682.2104
        43.6004         40.7004
 -21341757.68147 -16611981.20548  20170220.448    20170220.4324   20170225.0584
        50.8004         48.0004
 16  6 23  0 32  0.0000000  0  9G19G17G 6G 7G22G 2G23G 3G 9
  -4741024.52043  -3680173.17146  24044870.745    24044869.1864   24044871.6384
        39.9004         37.4004
   3853779.70042   3013967.12545  24866219.348    24866216.7584   24866223.7124
        35.2004         33.6004
 -12392332.49246  -9416838.88847  20646060.024    20646060.6534   20646066.3404
        49.5004         46.6004
  -3417872.67343  -2646697.87346  23603757.568    23603755.6804   23603760.6684
        40.4004         37.8004
   2905973.41842   2543006.41245  24760569.883    24760569.0454   24760570.7064
        36.3004         34.6004
  -3796018.50645  -2938245.64646  23260603.743    23260602.9664   23260604.5464
        44.1004         41.6004
 -19591386.41646 -14991693.40047  20946164.552    20946164.3774   20946164.8954
        48.4004         45.6004
  -8827547.03244  -6857747.18346  22752594.236    22752594.8494   22752600.2234
        43.4004         40.7004
 -21353093.41947 -16620814.24348  20168062.949    20168063.0554   20168067.9364
        50.8004         48.0004
 16  6 23  0 32 30.0000000  0  9G19G17G 6G 7G22G 2G23G 3G 9
  -4648339.68043  -3607951.27746  24062508.108    24062507.3214   24062508.0664
        39.7004         37.3004
   3952490.44342   3090884.50345  24885004.330    24885003.0324   24885006.8564
        35.6004         33.8004
 -12399617.59846  -9422515.58847  20644673.544    20644674.1994   20644680.2014
        49.5004         46.6004
  -3521979.21543  -2727819.81346  23583944.608    23583944.3184   23583948.6334
        40.4004         37.9004
   3000173.65542   2616409.13345  24778495.028    24778495.1174   24778496.1364
        36.3004         34.5004
  -3881199.61045  -3004620.49346  23244394.426    23244393.8974   23244395.2024
        44.2004         41.6004
 -19552041.49146 -14961035.01347  20953652.012    20953651.9174   20953651.8294
        48.4004         45.4004
  -8743702.10844  -6792413.49046  22768549.125    22768549.6504   22768555.3644
        43.4004         40.7004
 -21363955.41947 -16629278.13048  20165996.077    20165996.1434   20166000.9404
        50.8004         48.0004
 16  6 23  0 33  0.0000000  0  9G19G17G 6G 7G22G 2G23G 3G 9
  -4555429.91243  -3535554.10046  24080187.055    24080185.7574   24080189.6374
        39.6004         37.1004
   4051221.94842   3167818.10045  24903788.978    24903788.5134   24903795.4224
        35.2004         33.6004
 -12406311.68646  -9427731.75847  20643399.834    20643400.3944   20643405.7824
        49.5004         46.6004
  -3625947.63943  -2808834.12346  23564159.653    23564159.7074   23564163.1904
        40.4004         37.9004
   3094457.16842   2689876.81745  24796437.094    24796436.0524   24796435.9924
        35.7004         33.6004
  -3966098.47645  -3070775.42046  23228239.182    23228238.2364   23228239.3794
        44.4004         41.6004
 -19512326.53446 -14930088.29047  20961209.765    20961208.9604   20961209.5204
        48.4004         45.4004
  -8659661.93144  -6726927.64446  22784541.682    22784541.8214   22784548.7904
        43.4004         40.7004
 -21374344.05547 -16637373.16948  20164019.159    20164019.1774   20164024.0994
        50.8004         48.0004
 16  6 23  0 33 30.0000000  0  9G19G17G 6G 7G22G 2G23G 3G 9
  -4462298.56343  -3462984.22346  24097909.922    24097908.9614   24097913.3774
        39.9004         37.6004
   4149971.24842   3244765.56245  24922582.111    24922582.1544   24922584.9864
        34.7004         32.9004
 -12412414.10946  -9432486.89547  20642238.924    20642239.3314   20642244.4734
        49.5004         46.6004
  -3729775.30744  -2889738.75046  23544403.572    23544404.2334   23544406.4314
        40.6004         38.1004
   3188823.05242   2763408.64145  24814396.665    24814393.4294   24814394.8624
        35.4004         33.8004
  -4050711.83845  -3136707.86046  23212137.029    23212136.7324   23212138.0534
        44.4004         41.6004
 -19472242.83646 -14898854.24147  20968836.822    20968836.3314   20968836.8884
        48.2004         45.4004
  -8575427.22844  -6661290.22146  22800571.218    22800571.3574   22800578.0274
        43.4004         40.7004
 -21384259.77647 -16645099.69448  20162132.151    20162132.3154   20162137.1594
        50.8004         48.0004
 16  6 23  0 34  0.0000000  0  9G19G17G 6G 7G22G 2G23G 3G 9
  -4368948.68943  -3390244.10746  24115674.572    24115672.9974   24115675.5114
        40.3004         37.8004
   4248735.72041   3321724.83845  24941375.406    24941374.6254   24941378.1854
        34.3004         32.9004
 -12417924.24746  -9436780.50647  20641189.810    20641190.5654   20641196.0044
        49.5004         46.6004
  -3833459.44244  -2970531.54146  23524674.694    23524673.2654   23524675.7074
        40.8004         38.3004
   3283270.46042   2837004.01245  24832364.147    24832363.9674   24832366.0534
        35.0004         33.4004
  -4135038.03745  -3202416.54346  23196090.412    23196089.9344   23196090.7334
        44.2004         41.4004
 -19431791.80046 -14867333.95247  20976534.359    20976533.9704   20976535.1854
        48.2004         45.4004
  -8490998.75845  -6595501.84046  22816638.142    22816638.1794   22816643.3444
        43.6004         40.7004
 -21393703.00147 -16652458.04548  20160335.153    20160335.3804   20160340.1534
        50.8004         48.0004
 16  6 23  0 34 30.0000000  0  9G19G17G 6G 7G22G 2G23G 3G 9
  -4275383.64843  -3317336.32946  24133477.825    24133476.9894   24133480.3024
        39.9004         37.3004
   4347512.09341   3398693.42445  24960171.211    24960172.3514   24960177.5084
        34.2004         32.9004
 -12422841.47047  -9440612.10947  20640255.004    20640255.4344   20640260.4474
        49.6004         47.0004
  -3936997.58044  -3051210.56846  23504972.718    23504971.0134   23504973.6854
        40.9004         38.5004
   3377799.03842   2910662.70045  24850356.824    24850351.7774   24850353.0614
        35.0004         33.4004
  -4219074.66645  -3267899.60246  23180099.270    23180098.4864   23180098.8804
        44.2004         41.4004
 -19390974.65346 -14835528.37747  20984301.700    20984301.4524   20984301.9964
        48.2004         45.2004
  -8406377.32444  -6529563.07046  22832740.465    22832741.2554   22832746.5694
        43.4004         40.7004
 -21402674.19047 -16659448.57048  20158628.286    20158628.1914   20158632.9584
        50.8004         48.0004
 16  6 23  0 35  0.0000000  0  9G19G17G 6G 7G22G 2G23G 3G 9
  -4181606.60943  -3244263.34846  24151324.092    24151322.9064   24151326.0244
        39.9004         37.6004
   4446298.01141   3475669.46745  24978970.755    24978970.1864   24978975.7984
        34.0004         32.9004
 -12427165.21647  -9443981.25747  20639432.363    20639432.6564   20639437.7644
        49.8004         47.0004
  -4040387.09444  -3131773.79846  23485295.679    23485296.0244   23485298.3594
        41.1004         38.6004
   3472408.23042   2984384.11945  24868360.728    24868358.7194   24868359.9064
        35.2004         33.8004
  -4302819.06545  -3333154.94646  23164163.182    23164162.6934   23164163.5954
        44.4004         41.8004
 -19349792.83646 -14803438.63747  20992138.132    20992137.8954   20992138.9274
        48.2004         45.2004
  -8321563.69044  -6463474.53746  22848879.541    22848880.4334   22848885.6134
        43.4004         40.7004
 -21411173.79647 -16666071.62848  20157010.491    20157010.5834   20157015.2364
        50.8004         48.0004
 16  6 23  0 35 30.0000000  0  9G19G17G 6G 7G22G 2G23G 3G 9
  -4087620.60043  -3171027.52346  24169208.769    24169207.8084   24169210.1044
        39.7004         37.1004
   4545089.94341   3552650.19745  24997769.946    24997765.6034   24997774.8584
        33.5004         32.2004
 -12430894.91447  -9446887.50747  20638722.486    20638722.8544   20638727.6504
        49.8004         46.8004
  -4143625.11544  -3212218.97346  23465649.254    23465649.7584   23465653.5104
        41.1004         38.5004
   3567096.81542   3058167.43945  24886375.284    24886378.5194   24886376.3774
        35.7004         34.1004
  -4386269.05345  -3398180.87746  23148282.796    23148282.1834   23148282.9644
        44.4004         41.6004
 -19308247.79846 -14771065.88247  21000043.859    21000043.9784   21000044.3114
        48.2004         45.4004
  -8236558.57244  -6397236.79446  22865056.154    22865056.5674   22865061.3164
        43.4004         40.7004
 -21419202.29447 -16672327.58948  20155482.926    20155482.9904   20155487.6154
        50.8004         48.0004
 16  6 23  0 36  0.0000000  0  9G19G17G 6G 7G22G 2G23G 3G 9
  -3993428.97843  -3097631.49846  24187132.553    24187131.7374   24187135.1594
        39.6004         37.3004
   4643885.07641   3629633.40845  25016570.999    25016567.9354   25016576.7394
        33.5004         32.4004
 -12434030.04747  -9449330.46747  20638125.851    20638126.3274   20638131.1964
        49.6004         46.8004
  -4246709.42344  -3292544.37546  23446032.568    23446033.4184   23446037.3654
        40.9004         38.3004
   3661864.02842   3132012.01245  24904408.287    24904408.4094   24904411.9534
        36.1004         34.3004
  -4469422.47845  -3462975.71146  23132458.892    23132458.7224   23132459.6314
        44.2004         41.4004
 -19266340.77546 -14738411.05747  21008018.989    21008018.7794   21008018.8344
        48.2004         45.4004
  -8151362.79344  -6330850.47846  22881268.937    22881268.9294   22881273.8664
        43.4004         40.7004
 -21426760.16347 -16678216.82948  20154044.813    20154044.7564   20154049.5534
        50.8004         48.0004
 16  6 23  0 36 30.0000000  0  9G19G17G 6G 7G22G 2G23G 3G 9
  -3899034.85343  -3024077.67846  24205097.248    24205095.6504   24205097.3504
        39.6004         37.1004
   4742680.63841   3706616.87745  25035373.043    25035370.9744   25035373.2384
        33.1004         32.2004
 -12436570.07747  -9451309.70547  20637642.127    20637642.6054   20637647.8884
        49.6004         46.8004
  -4349636.80544  -3372747.49146  23426447.124    23426447.0274   23426450.9504
        40.9004         38.1004
   3756709.34542   3205917.45345  24922458.746    24922458.9514   24922461.5244
        35.7004         34.3004
  -4552276.70045  -3527537.40546  23116692.492    23116691.4944   23116692.3684
        44.1004         41.2004
 -19224073.04246 -14705475.15547  21016062.407    21016062.0554   21016062.0784
        48.2004         45.6004
  -8065977.07144  -6264316.16146  22897515.776    22897516.5284   22897521.9114
        43.4004         40.7004
 -21433847.88147 -16683739.71748  20152696.056    20152695.7604   20152700.8504
        50.8004         48.0004
 16  6 23  0 37  0.0000000  0  9G19G17G 6G 7G22G 2G23G 3G 9
  -3804441.59343  -2950368.67846  24223094.648    24223093.8404   24223097.7504
        39.2004         36.7004
   4841473.44041   3783598.23045  25054168.577    25054168.8974   25054173.6034
        33.0004         32.2004
 -12438514.50947  -9452824.84347  20637272.357    20637272.7164   20637277.9884
        49.6004         46.8004
  -4452404.98244  -3452826.55346  23406890.639    23406890.6214   23406893.8664
        40.6004         37.9004
   3851632.12942   3279883.25345  24940524.875    24940522.2274   24940523.8814
        35.9004         34.3004
  -4634829.18845  -3591863.97346  23100983.287    23100982.6484   23100983.9584
        43.9004         41.1004
 -19181446.18346 -14672259.41747  21024173.461    21024173.1644   21024173.9254
        48.2004         45.4004
  -7980402.19044  -6197634.44246  22913800.507    22913801.2264   22913806.2874
        43.4004         40.6004
 -21440465.98647 -16688896.67147  20151436.325    20151436.5854   20151441.2314
        50.7004         47.8004
 16  6 23  0 37 30.0000000  0  9G19G17G 6G 7G22G 2G23G 3G 9
  -3709652.09843  -2876506.80146  24241134.413    24241132.6124   24241136.0734
        39.2004         36.7004
   4940260.68841   3860575.29045  25072967.816    25072968.3514   25072977.5374
        33.7004         32.9004
 -12439862.88147  -9453875.51947  20637015.305    20637015.7744   20637021.5784
        49.6004         46.8004
  -4555011.57343  -3532779.70346  23387364.090    23387365.6424   23387368.1354
        40.4004         38.1004
   3946631.65942   3353908.84045  24958600.199    24958599.3634   24958601.7544
        36.4004         34.8004
  -4717077.61045  -3655953.61446  23085332.096    23085331.0674   23085332.5284
        43.6004         40.7004
 -19138461.41446 -14638764.78447  21032353.296    21032353.0494   21032354.0124
        48.2004         45.4004
  -7894638.93944  -6130805.94146  22930120.463    22930121.0794   22930126.9804
        43.2004         40.4004
 -21446614.98147 -16693688.08547  20150266.747    20150266.5204   20150271.2084
        50.7004         47.8004
 16  6 23  0 38  0.0000000  0  9G19G17G 6G 7G22G 2G23G 3G 9
  -3614670.04043  -2802494.81746  24259207.274    24259207.1564   24259210.0224
        38.9004         36.4004
   5039039.58241   3937545.76345  25091766.978    25091766.5264   25091770.9364
        33.5004         32.6004
 -12440614.73647  -9454461.38147  20636872.010    20636872.8114   20636878.3294
        49.6004         46.8004
  -4657453.40343  -3612604.47246  23367870.044    23367871.0324   23367873.7344
        40.4004         37.9004
   4041706.97342   3427993.47445  24976689.789    24976690.5374   24976691.6364
        36.3004         34.3004
  -4799020.13644  -3719804.89846  23069738.613    23069738.1474   23069738.4344
        43.2004         40.4004
 -19095120.29546 -14604992.47547  21040600.996    21040600.6284   21040601.2124
        48.2004         45.2004
  -7808688.08444  -6063831.24646  22946475.427    22946476.8654   22946482.1724
        43.2004         40.2004
 -21452295.40047 -16698114.37947  20149185.339    20149185.5234   20149190.2454
        50.7004         47.8004
 16  6 23  0 38 30.0000000  0  8G19G 6G 7G22G 2G23G 3G 9
  -3519498.21643  -2728334.98146  24277318.074    24277316.2084   24277320.0814
        38.5004         36.0004
 -12440769.67847  -9454582.11447  20636843.023    20636843.5784   20636849.2794
        49.6004         47.0004
  -4759728.03144  -3692298.96346  23348407.915    23348409.1644   23348411.0264
        40.6004         38.1004
   4136857.43542   3502136.70145  24994796.772    24994796.6304   24994800.4384
        36.1004         34.5004
  -4880654.34744  -3783415.92446  23054203.803    23054203.1924   23054204.3114
        43.0004         40.2004
 -19051424.07546 -14570943.46447  21048916.019    21048915.7394   21048917.1794
        48.2004         45.4004
  -7722550.40444  -5996710.99746  22962868.547    22962868.5644   22962873.9544
        42.9004         40.2004
 -21457507.75147 -16702175.94848  20148193.723    20148193.6854   20148198.1734
        50.8004         48.0004
 16  6 23  0 39  0.0000000  0  8G19G 6G 7G22G 2G23G 3G 9
  -3424139.88143  -2654029.85546  24295466.179    24295464.3424   24295465.7254
        38.3004         36.2004
 -12440327.24147  -9454237.36247  20636927.568    20636927.7434   20636933.5134
        49.8004         47.0004
  -4861832.76343  -3771861.06746  23328978.840    23328979.2224   23328981.5004
        40.4004         37.9004
   4232082.44642   3576337.99745  25012917.379    25012920.0064   25012921.0804
        36.1004         34.3004
  -4961977.20944  -3846784.36746  23038729.707    23038728.0524   23038729.1324
        43.0004         40.4004
 -19007374.30546 -14536618.96547  21057298.960    21057298.2934   21057298.9304
        48.2004         45.4004
  -7636226.65244  -5929445.74746  22979293.902    22979295.4874   22979301.0164
        42.9004         40.0004
 -21462252.63847 -16705873.25848  20147290.790    20147291.0774   20147295.1914
        50.8004         48.0004
 16  6 23  0 39 30.0000000  0  8G19G 6G 7G22G 2G23G 3G 9
  -3328597.86443  -2579581.57146  24313645.823    24313645.4504   24313647.7024
        38.3004         36.0004
 -12439287.10347  -9453426.86547  20637125.315    20637125.8464   20637131.5884
        49.8004         47.2004
  -4963764.97744  -3851288.73946  23309581.742    23309582.9174   23309583.6104
        40.6004         37.9004
   4327381.37242   3650596.90045  25031052.449    25031053.7984   25031055.7144
        36.1004         34.1004
  -5042986.96144  -3909908.81246  23023312.679    23023312.0994   23023313.4914
        42.9004         40.0004
 -18962972.16446 -14502019.89247  21065748.243    21065748.0204   21065748.5894
        48.2004         45.4004
  -7549717.60844  -5862036.13046  22995758.719    22995757.7834   22995763.0864
        42.7004         40.0004
 -21466530.58547 -16709206.71448  20146476.848    20146476.7984   20146481.4254
        50.8004         48.2004
 16  6 23  0 40  0.0000000  0  8G19G 6G 7G22G 2G23G 3G 9
  -3232876.11043  -2504993.23045  24331859.606    24331859.0044   24331862.5764
        37.8004         35.3004
 -12437648.89247  -9452150.33347  20637436.931    20637437.3964   20637443.1584
        49.8004         47.2004
  -5065521.87244  -3930579.79746  23290217.913    23290218.7924   23290219.8864
        40.6004         38.1004
   4422753.35442   3724912.74145  25049203.470    25049202.6654   25049201.8424
        36.1004         34.5004
  -5123680.82344  -3972787.12646  23007957.449    23007956.7824   23007957.2394
        42.7004         40.0004
 -18918219.09346 -14467147.36947  21074264.494    21074263.7194   21074264.0344
        48.2004         45.2004
  -7463024.11644  -5794482.77046  23012253.438    23012254.7864   23012259.3894
        42.7004         39.9004
 -21470342.17347 -16712176.77848  20145751.357    20145751.3984   20145756.0834
        51.0004         48.2004
 16  6 23  0 40 30.0000000  0  8G19G 6G 7G22G 2G23G 3G 9
  -3136977.25843  -2430266.87945  24350110.612    24350109.5964   24350112.7124
        37.8004         35.9004
 -12435412.27547  -9450407.51447  20637862.172    20637862.8354   20637868.4624
        49.8004         47.0004
  -5167101.25744  -4009732.54846  23270887.396    23270887.3324   23270889.5414
        40.6004         37.9004
   4518197.54042   3799284.81045  25067368.421    25067364.2214   25067365.8604
        35.7004         34.1004
  -5204056.61444  -4035417.58646  22992662.469    22992661.8474   22992663.1004
        42.7004         40.0004
 -18873116.33146 -14432002.35947  21082846.623    21082846.0644   21082847.0044
        48.1004         45.2004
  -7376146.83344  -5726786.20246  23028787.934    23028787.8804   23028792.4374
        42.7004         39.9004
 -21473688.01747 -16714783.92248  20145114.981    20145115.0404   20145119.3364
        51.0004         48.2004
 16  6 23  0 41  0.0000000  0  8G19G 6G 7G22G 2G23G 3G 9
  -3040904.59143  -2355405.13645  24368391.603    24368390.5464   24368393.2094
        38.0004         35.9004
 -12432576.94047  -9448198.16547  20638402.243    20638402.7434   20638408.0644
        49.8004         47.0004
  -5268500.29344  -4088744.73246  23251593.098    23251592.6454   23251594.7294
        40.6004         38.3004
   4613712.65142   3873712.19345  25085542.178    25085540.4264   25085540.3014
        35.6004         33.8004
  -5284112.14444  -4097798.48146  22977428.127    22977428.0124   22977428.2004
        42.9004         40.2004
 -18827665.25246 -14396585.93847  21091495.938    21091495.4724   21091496.4834
        48.1004         45.2004
  -7289086.63744  -5658947.11246  23045354.839    23045354.7254   23045358.9394
        42.5004         39.9004
 -21476568.67147 -16717028.57848  20144566.842    20144566.6284   20144571.2354
        51.0004         48.2004
 16  6 23  0 41 30.0000000  0  7G19G 6G 7G 2G23G 3G 9
  -2944661.44943  -2280410.50345  24386706.542    24386706.7574   24386707.8174
        38.0004         35.9004
 -12429142.59647  -9445522.05347  20639056.029    20639056.4804   20639061.8054
        50.0004         47.2004
  -5369716.14644  -4167614.19846  23232332.826    23232332.6414   23232333.7354
        40.8004         38.3004
  -5363845.00244  -4159927.95346  22962256.220    22962254.5834   22962256.4574
        43.0004         40.6004
 -18781867.40946 -14360899.30847  21100211.559    21100210.6694   21100211.4044
        48.1004         45.2004
  -7201844.25544  -5590966.04446  23061955.271    23061956.5344   23061960.7494
        42.3004         39.7004
 -21478984.75847 -16718911.23548  20144106.713    20144106.9054   20144111.5724
        51.0004         48.2004
 16  6 23  0 42  0.0000000  0  7G19G 6G 7G 2G23G 3G 9
  -2848250.99543  -2205285.53346  24405053.529    24405051.5964   24405055.6624
        38.3004         36.2004
 -12425108.98247  -9442378.96747  20639823.084    20639823.7554   20639829.4854
        50.0004         47.2004
  -5470746.37444  -4246339.01246  23213107.900    23213107.4174   23213108.2264
        41.1004         38.6004
  -5443252.46744  -4221803.87246  22947144.894    22947143.6334   22947144.5084
        43.2004         40.6004
 -18735724.49546 -14324943.79347  21108991.901    21108991.5154   21108992.0754
        48.2004         45.2004
  -7114420.50744  -5522843.66546  23078591.102    23078592.1174   23078596.0554
        42.2004         39.3004
 -21480936.92547 -16720432.39448  20143735.653    20143735.5404   20143739.6984
        51.0004         48.4004
 16  6 23  0 42 30.0000000  0  7G19G 6G 7G 2G23G 3G 9
  -2751676.35343  -2130032.62146  24423431.216    24423430.2674   24423432.0074
        38.2004         36.0004
 -12420475.86647  -9438768.74347  20640704.744    20640705.1774   20640710.9394
        49.8004         46.8004
  -5571588.24044  -4324917.05046  23193919.321    23193917.6864   23193919.6394
        41.3004         38.8004
  -5522332.60944  -4283424.73846  22932095.596    22932095.0554   22932096.3074
        43.2004         40.6004
 -18689237.47546 -14288720.13547  21117838.091    21117837.7964   21117838.4764
        48.2004         45.4004
  -7026816.14844  -5454580.55546  23095263.044    23095262.3014   23095267.1804
        41.8004         39.0004
 -21482425.77447 -16721592.52748  20143451.756    20143452.0714   20143456.3384
        51.0004         48.2004
 16  6 23  0 43  0.0000000  0  7G19G 6G 7G 2G23G 3G 9
  -2654940.65443  -2054654.18445  24441838.163    24441838.1274   24441840.1684
        38.0004         35.9004
 -12415242.99747  -9434691.18347  20641700.214    20641701.0144   20641706.3614
        49.6004         46.8004
  -5672239.26244  -4403346.38846  23174765.661    23174764.6484   23174766.9584
        41.6004         39.2004
  -5601082.90544  -4344788.59146  22917110.332    22917109.6754   22917110.8684
        43.4004         40.6004
 -18642407.89046 -14252229.55547  21126749.838    21126749.3304   21126750.0584
        48.2004         45.4004
  -6939032.00344  -5386177.31846  23111966.219    23111966.8634   23111972.4904
        41.6004         39.0004
 -21483451.95547 -16722392.14048  20143256.659    20143256.7994   20143261.0224
        51.0004         48.2004
 16  6 23  0 43 30.0000000  0  7G19G 6G 7G 2G23G 3G 9
  -2558047.07743  -1979152.73545  24460277.364    24460276.3834   24460277.8734
        38.0004         35.9004
 -12409410.19747  -9430146.13947  20642810.338    20642810.8824   20642816.5234
        49.6004         46.8004
  -5772697.21444  -4481625.29046  23155646.873    23155647.4064   23155651.2934
        41.8004         39.3004
  -5679500.99444  -4405893.57846  22902188.081    22902187.6094   22902188.1704
        43.2004         40.4004
 -18595237.12346 -14215473.11447  21135725.989    21135725.5964   21135726.6334
        48.4004         45.6004
  -6851068.83444  -5317634.61446  23128705.278    23128706.7344   23128711.2364
        41.6004         39.0004
 -21484016.12647 -16722831.74548  20143149.545    20143149.4204   20143153.6654
        51.0004         48.2004
 16  6 23  0 44  0.0000000  0  7G19G 6G 7G 2G23G 3G 9
  -2460998.92943  -1903530.88545  24478745.473    24478744.3424   24478745.2954
        37.8004         35.7004
 -12402977.32347  -9425133.50347  20644034.216    20644034.9454   20644040.5494
        49.6004         46.6004
  -5872958.37844  -4559750.82746  23136568.699    23136568.3594   23136571.2674
        42.0004         39.5004
  -5757584.88844  -4466738.14046  22887329.076    22887328.4734   22887329.4524
        43.4004         40.9004
 -18547726.67046 -14178451.97847  21144766.615    21144766.3934   21144767.3514
        48.4004         45.4004
  -6762927.42144  -5248953.01546  23145480.073    23145479.4064   23145484.4224
        41.6004         39.2004
 -21484118.95147 -16722911.85948  20143129.601    20143129.6104   20143134.5214
        51.0004         48.2004
 16  6 23  0 44 30.0000000  0  7G19G 6G 7G 2G23G 3G 9
  -2363799.38343  -1827791.04345  24497240.908    24497239.8294   24497243.7814
        38.0004         35.9004
 -12395944.17046  -9419653.12647  20645373.056    20645373.3994   20645378.7414
        49.5004         46.6004
  -5973020.94244  -4637721.61246  23117525.977    23117527.1204   23117529.9204
        42.2004         39.3004
  -5835331.67745  -4527320.03246  22872534.539    22872534.3704   22872535.2864
        43.6004         41.1004
 -18499877.72246 -14141167.08147  21153872.181    21153871.8534   21153872.4794
        48.2004         45.4004
  -6674608.56144  -5180133.13346  23162285.350    23162285.5164   23162291.1354
        41.8004         39.3004
 -21483761.07647 -16722632.99248  20143197.973    20143197.9054   20143202.6454
        51.0004         48.4004
 16  6 23  0 45  0.0000000  0  7G19G 6G 7G 2G23G 3G 9
  -2266451.44443  -1751935.55645  24515766.015    24515764.5534   24515768.2924
        38.0004         35.7004
 -12388310.67746  -9413704.94247  20646824.520    20646825.4744   20646831.6714
        49.3004         46.5004
  -6072882.02044  -4715535.39646  23098523.005    23098524.3504   23098526.5454
        42.3004         39.7004
  -5912739.16445  -4587637.53746  22857803.532    22857803.6404   22857804.9174
        43.7004         41.1004
 -18451691.93346 -14103619.71447  21163041.359    21163041.2574   21163041.9294
        48.2004         45.4004
  -6586113.08144  -5111175.62346  23179125.825    23179125.5834   23179130.6494
        41.8004         39.2004
 -21482943.19247 -16721995.67448  20143353.275    20143353.4714   20143358.1774
        51.0004         48.2004
 16  6 23  0 45 30.0000000  0  7G19G 6G 7G 2G23G 3G 9
  -2168958.28943  -1675966.88945  24534317.315    24534317.6594   24534319.7634
        37.6004         35.3004
 -12380076.69746  -9407288.85547  20648392.512    20648393.1514   20648398.3934
        49.5004         46.8004
  -6172539.16244  -4793190.27346  23079558.943    23079559.4244   23079563.7724
        42.5004         39.9004
  -5989805.35245  -4647689.09346  22843139.984    22843139.2094   22843140.0174
        43.9004         41.2004
 -18403170.52046 -14065810.82047  21172274.060    21172274.1844   21172274.9594
        48.2004         45.2004
  -6497441.76944  -5042081.11446  23195998.950    23196000.1764   23196002.8274
        41.5004         38.6004
 -21481666.01747 -16721000.46448  20143596.533    20143596.6504   20143601.2914
        51.0004         48.2004
 16  6 23  0 46  0.0000000  0  7G19G 6G 7G 2G23G 3G 9
  -2071323.12943  -1599887.61345  24552897.537    24552896.3324   24552899.8934
        37.6004         35.7004
 -12371242.16746  -9400404.80547  20650073.802    20650074.2574   20650079.5914
        49.5004         46.8004
  -6271989.36544  -4870683.89246  23060634.487    23060635.0664   23060639.3004
        42.5004         40.0004
  -6066527.78045  -4707472.78946  22828539.756    22828538.7704   22828540.4394
        43.9004         41.1004
 -18354315.03446 -14027741.60647  21181572.347    21181571.2484   21181571.8114
        48.1004         45.2004
  -6408595.40344  -4972850.18246  23212905.209    23212905.9844   23212909.7794
        41.3004         38.6004
 -21479930.22847 -16719647.88548  20143926.993    20143926.8334   20143931.5664
        51.0004         48.4004
 16  6 23  0 46 30.0000000  0  7G19G 6G 7G 2G23G 3G 9
  -1973548.98943  -1523700.02745  24571503.845    24571503.1434   24571505.8104
        37.6004         35.5004
 -12361807.00646  -9393052.73147  20651869.170    20651869.4344   20651875.0844
        49.5004         46.6004
  -6371230.20844  -4948014.38346  23041749.089    23041750.6394   23041752.7494
        42.5004         39.9004
  -6142903.86745  -4766986.60446  22814005.270    22814004.9684   22814005.7614
        43.7004         40.9004
 -18305126.65746 -13989413.00647  21190932.686    21190932.1724   21190931.9314
        48.1004         45.2004
  -6319574.75744  -4903483.45646  23229846.062    23229846.6414   23229851.0084
        41.3004         38.6004
 -21477736.56747 -16717938.52748  20144344.202    20144344.1854   20144349.0354
        51.0004         48.2004
 16  6 23  0 47  0.0000000  0  7G19G 6G 7G 2G23G 3G 9
  -1875639.19443  -1447406.73145  24590134.621    24590134.6544   24590137.7324
        37.6004         35.5004
 -12351771.22246  -9385232.64047  20653778.369    20653779.0754   20653784.9634
        49.5004         46.8004
  -6470259.25244  -5025179.83246  23022905.403    23022905.5144   23022907.7894
        42.5004         39.7004
  -6218931.70345  -4826229.05046  22799536.959    22799536.4914   22799538.7074
        43.7004         41.1004
 -18255606.89746 -13950826.17847  21200355.590    21200355.2004   21200355.9234
        48.1004         45.2004
  -6230380.66244  -4833981.56246  23246818.089    23246818.5294   23246825.7554
        41.1004         38.6004
 -21475085.71747 -16715872.92548  20144847.679    20144848.2954   20144853.3804
        51.0004         48.2004
 16  6 23  0 47 30.0000000  0  7G19G 6G 7G 2G23G 3G 9
  -1777597.05043  -1371010.31646  24608793.182    24608791.9064   24608795.0894
        38.0004         36.0004
 -12341134.78347  -9376944.51747  20655802.935    20655803.2284   20655809.0004
        49.6004         46.8004
  -6569074.01044  -5102178.29946  23004100.053    23004101.1434   23004104.1054
        42.3004         39.7004
  -6294608.47845  -4885197.93646  22785137.767    22785136.0654   22785137.7024
        43.9004         41.2004
 -18205757.40746 -13911982.41647  21209841.218    21209840.8854   21209841.4404
        48.1004         45.2004
  -6141013.90844  -4764345.14446  23263825.073    23263825.1864   23263831.4904
        41.3004         38.6004
 -21471978.46047 -16713451.67948  20145439.852    20145439.8444   20145444.7314
        51.0004         48.2004
 16  6 23  0 48  0.0000000  0  7G19G 6G 7G 2G23G 3G 9
  -1679425.31243  -1294512.90445  24627473.998    24627473.2104   24627476.4504
        38.0004         35.7004
 -12329897.74047  -9368188.37647  20657940.786    20657941.6104   20657947.5004
        49.6004         46.8004
  -6667671.37044  -5179007.39246  22985338.581    22985339.1584   22985341.5034
        42.3004         39.7004
  -6369932.09545  -4943891.63546  22770803.310    22770802.8824   22770805.0414
        44.1004         41.4004
 -18155579.54146 -13872882.78247  21219390.355    21219389.5614   21219390.0254
        48.1004         45.2004
  -6051475.32744  -4694574.81346  23280860.658    23280862.8534   23280869.4054
        41.1004         38.6004
 -21468415.51247 -16710675.35248  20146117.967    20146118.0134   20146122.5064
        51.0004         48.2004
 16  6 23  0 48 30.0000000  0  7G19G 6G 7G 2G23G 3G 9
  -1581127.24443  -1217917.08746  24646180.422    24646178.7174   24646182.6394
        38.3004         36.2004
 -12318060.08547  -9358964.22947  20660194.000    20660194.3664   20660199.8024
        49.6004         47.0004
  -6766048.99644  -5255665.24446  22966618.593    22966618.7224   22966620.4234
        42.5004         39.9004
  -6444900.20945  -5002308.32246  22756537.398    22756537.1434   22756538.4964
        43.9004         40.9004
 -18105074.34146 -13833528.08047  21229000.535    21229000.2054   21229000.9834
        47.9004         45.1004
  -5961765.68944  -4624671.23346  23297935.875    23297935.7204   23297939.8864
        41.3004         38.6004
 -21464397.64247 -16707544.53648  20146882.577    20146882.3074   20146887.0324
        51.0004         48.2004
 16  6 23  0 49  0.0000000  0  7G19G 6G 7G 2G23G 3G 9
  -1482706.46443  -1141225.64046  24664909.781    24664908.6664   24664911.3464
        38.7004         36.6004
 -12305621.90047  -9349272.14347  20662560.284    20662561.2244   20662566.3764
        49.6004         46.8004
  -6864203.96244  -5332149.59746  22947940.287    22947940.1624   22947942.4624
        42.5004         39.9004
  -6519510.59545  -5060446.25946  22742338.838    22742338.7524   22742340.5514
        43.7004         40.9004
 -18054243.54946 -13793919.66847  21238672.478    21238672.3914   21238673.9604
        47.9004         44.9004
  -5871885.80744  -4554634.96446  23315038.395    23315039.0394   23315043.9614
        41.3004         38.8004
 -21459925.60347 -16704059.81748  20147733.739    20147733.5064   20147738.4874
        51.0004         48.4004
 16  6 23  0 49 30.0000000  0  7G19G 6G 7G 2G23G 3G 9
  -1384165.62443  -1064440.62346  24683660.970    24683660.1924   24683663.4284
        39.0004         36.6004
 -12292583.27247  -9339112.16747  20665042.239    20665042.7354   20665047.6184
        49.8004         47.0004
  -6962134.37244  -5408458.97446  22929304.250    22929304.5474   22929307.2104
        42.7004         40.0004
  -6593760.80845  -5118303.54846  22728209.657    22728208.8674   22728211.1904
        43.7004         40.9004
 -18003088.72946 -13754058.77047  21248407.549    21248407.4044   21248407.7094
        47.7004         44.7004
  -5781836.49244  -4484466.66346  23332173.934    23332174.6224   23332178.6644
        41.3004         38.8004
 -21455000.17147 -16700221.81448  20148670.898    20148670.8144   20148675.4654
        51.0004         48.4004
 16  6 23  0 50  0.0000000  0  7G19G 6G 7G 2G23G 3G 9
  -1285507.89143   -987564.52246  24702434.414    24702433.9724   24702437.2814
        38.9004         36.4004
 -12278944.32147  -9328484.41047  20667637.881    20667638.4334   20667643.1904
        49.8004         47.0004
  -7059837.23144  -5484591.04246  22910711.577    22910712.3864   22910714.8344
        42.9004         40.0004
  -6667648.59045  -5175878.42446  22714150.004    22714149.1704   22714150.5834
        43.7004         41.1004
 -17951611.03846 -13713946.28347  21258203.107    21258202.8444   21258203.6234
        47.7004         44.7004
  -5691618.55144  -4414166.98346  23349342.522    23349343.1624   23349347.0384
        41.3004         38.8004
 -21449622.15047 -16696031.14348  20149694.259    20149694.3374   20149698.9094
        51.2004         48.4004
 16  6 23  0 50 30.0000000  0  7G19G 6G 7G 2G23G 3G 9
  -1186736.60143   -910599.94345  24721229.251    24721228.1684   24721232.2214
        38.3004         35.9004
 -12264705.17147  -9317388.97447  20670347.838    20670347.8154   20670353.1744
        49.8004         47.0004
  -7157310.23844  -5560544.01546  22892163.657    22892163.7334   22892165.8744
        42.9004         40.2004
  -6741171.54245  -5233169.01846  22700158.687    22700158.1494   22700159.4664
        43.7004         41.2004
 -17899811.74446 -13673583.19447  21268060.524    21268060.2194   21268060.7484
        47.7004         44.7004
  -5601232.81344  -4343736.55446  23366541.654    23366542.8564   23366547.9114
        41.3004         38.8004
 -21443792.28147 -16691488.38348  20150803.669    20150803.8104   20150808.2224
        51.2004         48.4004
 16  6 23  0 51  0.0000000  0  7G19G 6G 7G 2G23G 3G 9
  -1087854.78343   -833549.23445  24740047.639    24740045.8914   24740049.5364
        38.2004         35.9004
 -12249865.98447  -9305825.97347  20673170.621    20673171.4334   20673176.8454
        49.8004         47.0004
  -7254550.04044  -5636315.26146  22873659.089    22873660.1564   22873661.6444
        43.0004         40.4004
  -6814327.61245  -5290173.73246  22686237.541    22686236.8294   22686237.9954
        43.9004         41.2004
 -17847692.70846 -13632970.96147  21277978.868    21277978.4664   21277978.6234
        47.7004         44.9004
  -5510680.06844  -4273175.96946  23383772.743    23383773.5454   23383780.0544
        41.3004         38.6004
 -21437511.42947 -16686594.20448  20151998.892    20151998.6504   20152003.3734
        51.2004         48.4004
 16  6 23  0 51 30.0000000  0  7G19G 6G 7G 2G23G 3G 9
   -988865.62743   -756414.88046  24758883.458    24758883.4194   24758885.0454
        38.3004         36.2004
 -12234426.93047  -9293795.54447  20676109.065    20676109.5014   20676114.6194
        49.6004         46.8004
  -7351554.14144  -5711902.84246  22855201.111    22855200.9014   22855202.9104
        43.2004         40.6004
  -6887114.44345  -5346890.72946  22672386.348    22672385.8284   22672387.2354
        44.1004         41.4004
 -17795255.01746 -13592110.41747  21287957.335    21287957.0414   21287957.0744
        47.7004         44.9004
  -5419961.13644  -4202485.91246  23401037.000    23401037.9654   23401042.2974
        41.3004         38.6004
 -21430780.37047 -16681349.21948  20153279.127    20153279.2054   20153284.2804
        51.0004         48.2004
 16  6 23  0 52  0.0000000  0  7G19G 6G 7G 2G23G 3G 9
   -889772.12043   -679199.19246  24777741.826    24777740.1274   24777742.1744
        38.3004         36.0004
 -12218388.23647  -9281297.86847  20679161.588    20679161.6514   20679166.6064
        49.6004         46.8004
  -7448320.41944  -5787305.12046  22836786.428    22836786.5634   22836789.0034
        43.2004         40.7004
  -6959529.70545  -5403318.17946  22658606.302    22658605.9844   22658607.0934
        44.1004         41.2004
 -17742500.04646 -13551002.65547  21297995.910    21297995.9204   21297995.9534
        47.7004         44.9004
  -5329076.82844  -4131666.98246  23418330.668    23418332.7524   23418337.3784
        41.3004         38.8004
 -21423599.95447 -16675754.07848  20154645.502    20154645.8044   20154650.4824
        51.0004         48.4004
 16  6 23  0 52 30.0000000  0  7G19G 6G 7G 2G23G 3G 9
   -790577.41443   -601904.65845  24796616.925    24796616.0254   24796619.4764
        37.8004         35.5004
 -12201750.13146  -9268333.11747  20682326.657    20682327.0284   20682332.5554
        49.5004         46.5004
  -7544846.32644  -5862520.09946  22818417.786    22818418.1114   22818420.3984
        43.4004         40.7004
  -7031570.68945  -5459453.99446  22644897.602    22644897.0604   22644898.0364
        44.1004         41.2004
 -17689429.62746 -13509649.07547  21308095.798    21308095.1484   21308095.5504
        47.9004         44.9004
  -5238027.97444  -4060719.85246  23435660.836    23435659.3814   23435662.8074
        41.3004         38.6004
 -21415970.96347 -16669809.40048  20156097.863    20156097.7184   20156102.3184
        51.0004         48.4004
 16  6 23  0 53  0.0000000  0  7G19G 6G 7G 2G23G 3G 9
   -691284.52843   -524533.64245  24815513.502    24815512.1084   24815514.1654
        37.6004         35.3004
 -12184512.83946  -9254901.46547  20685607.049    20685607.6824   20685613.1514
        49.3004         46.6004
  -7641129.13845  -5937545.63746  22800095.869    22800096.5534   22800098.2634
        43.6004         40.9004
  -7103235.93945  -5515297.01746  22631260.069    22631259.3354   22631261.0094
        43.9004         41.1004
 -17636044.56246 -13468050.32047  21318253.597    21318253.1854   21318254.3034
        47.9004         44.9004
  -5146815.40144  -3989645.15346  23453014.685    23453014.7414   23453020.2854
        40.9004         38.1004
 -21407894.37847 -16663515.95048  20157635.087    20157634.7204   20157639.3034
        51.0004         48.4004
 16  6 23  0 53 30.0000000  0  7G19G 6G 7G 2G23G 3G 9
   -591896.76942   -447088.71345  24834423.996    24834423.1064   24834424.8724
        37.3004         35.3004
 -12166676.64446  -9241003.14147  20689001.083    20689001.4884   20689006.9184
        49.5004         46.5004
  -7737166.15545  -6012379.66646  22781820.643    22781821.7364   22781823.2914
        43.7004         40.9004
  -7174522.95945  -5570845.31646  22617694.571    22617693.9154   22617694.8744
        43.9004         41.1004
 -17582346.84346 -13426207.93647  21328472.542    21328471.8294   21328472.8054
        47.9004         45.1004
  -5055439.95244  -3918443.49746  23470401.742    23470403.2674   23470408.9414
        40.8004         38.3004
 -21399370.84847 -16656874.23148  20159256.805    20159256.8734   20159261.0784
        51.2004         48.4004
 16  6 23  0 54  0.0000000  0  7G19G 6G 7G 2G23G 3G 9
   -492417.38643   -369572.33845  24853352.364    24853352.3044   24853357.2114
        37.6004         35.7004
 -12148241.87246  -9226638.39147  20692508.798    20692509.3334   20692514.8784
        49.3004         46.5004
  -7832955.16545  -6087020.41046  22763592.700    22763593.6704   22763596.1774
        43.7004         41.1004
  -7245429.08445  -5626096.80846  22604200.837    22604200.8974   22604201.7274
        44.1004         41.4004
 -17528337.93146 -13384123.06447  21338750.161    21338749.7454   21338750.6274
        47.9004         44.9004
  -4963902.41344  -3847115.56246  23487820.820    23487820.9034   23487827.2814
        40.8004         38.1004
 -21390401.33947 -16649885.00048  20160963.345    20160963.4434   20160968.1604
        51.2004         48.4004
 16  6 23  0 54 30.0000000  0  7G19G 6G 7G 2G23G 3G 9
   -392849.34243   -291986.89946  24872303.358    24872302.5914   24872305.9724
        38.0004         36.0004
 -12129208.82346  -9211807.44547  20696130.982    20696131.3104   20696136.9124
        49.3004         46.5004
  -7928493.07945  -6161465.51646  22745412.135    22745412.5554   22745416.3404
        43.7004         40.9004
  -7315952.26745  -5681049.90546  22590781.031    22590780.3464   22590781.9674
        44.2004         41.6004
 -17474019.03346 -13341796.64347  21349086.305    21349085.9694   21349087.2924
        47.7004         44.9004
  -4872203.59244  -3775661.94646  23505271.913    23505271.5864   23505277.6364
        40.6004         38.1004
 -21380986.70747 -16642548.91548  20162755.097    20162754.8114   20162759.8024
        51.2004         48.4004
 16  6 23  0 55  0.0000000  0  7G19G 6G 7G 2G23G 3G 9
   -293195.75943   -214334.78746  24891265.819    24891264.5834   24891268.7804
        38.3004         36.0004
 -12109577.85646  -9196510.60247  20699867.295    20699867.6074   20699872.6434
        49.5004         46.6004
  -8023777.68245  -6235713.22646  22727279.441    22727280.5194   22727283.9394
        43.7004         41.1004
  -7386090.29845  -5735702.88946  22577434.588    22577433.5794   22577434.7474
        44.4004         41.9004
 -17419391.54646 -13299229.76847  21359481.589    21359481.2244   21359482.3444
        47.5004         44.7004
  -4780344.35343  -3704083.31646  23522750.873    23522751.9064   23522757.0264
        40.3004         37.6004
 -21371127.82347 -16634866.65248  20164630.705    20164630.6194   20164635.8284
        51.0004         48.2004
 16  6 23  0 55 30.0000000  0  7G19G 6G 7G 2G23G 3G 9
   -193459.79343   -136618.45945  24910248.156    24910245.7074   24910248.4554
        38.0004         35.5004
 -12089349.33646  -9180748.12447  20703715.998    20703716.6854   20703722.1094
        49.5004         46.6004
  -8118806.27645  -6309761.45146  22709196.890    22709197.1694   22709199.4984
        43.7004         40.9004
  -7455840.64145  -5790053.77747  22564162.520    22564161.2264   22564161.6344
        44.8004         42.1004
 -17364456.79546 -13256423.46747  21369935.282    21369934.7094   21369935.8804
        47.5004         44.7004
  -4688325.50843  -3632380.34246  23540262.142    23540261.2534   23540269.1634
        40.3004         37.8004
 -21360825.56347 -16626838.90648  20166591.030    20166591.1804   20166595.9394
        51.0004         48.2004
 16  6 23  0 56  0.0000000  0  7G19G 6G 7G 2G23G 3G 9
    -93643.96042    -58839.96045  24929238.705    24929237.7344   24929242.6154
        37.5004         35.2004
 -12068523.66346  -9164520.32047  20707679.092    20707679.5414   20707685.0194
        49.5004         46.6004
  -8213576.26345  -6383608.16446  22691163.500    22691162.8954   22691166.0364
        43.7004         41.1004
  -7525201.17945  -5844100.91346  22550962.245    22550961.1784   22550963.6304
        44.8004         41.9004
 -17309216.33846 -13213378.95847  21380447.451    21380446.8024   21380447.3744
        47.5004         44.7004
  -4596147.90943  -3560553.67446  23557802.115    23557803.9574   23557809.2714
        40.1004         37.8004
 -21350080.83947 -16618466.38448  20168636.012    20168636.2004   20168640.7644
        51.0004         48.2004
 16  6 23  0 56 30.0000000  0  7G19G 6G 7G 2G23G 3G 9
      6248.43642     18998.23445  24948247.165    24948247.4374   24948250.4984
        36.6004         34.5004
 -12047101.24446  -9147827.52747  20711755.725    20711756.0234   20711761.3464
        49.5004         46.6004
  -8308085.04445  -6457251.35746  22673179.467    22673179.0794   22673181.3204
        43.9004         41.2004
  -7594169.82645  -5897842.68247  22537838.318    22537837.8904   22537838.8304
        44.9004         42.1004
 -17253671.63246 -13170097.36947  21391017.546    21391016.9254   21391017.1044
        47.5004         44.7004
  -4503812.35543  -3488603.92146  23575374.629    23575373.8454   23575380.6054
        40.1004         37.6004
 -21338894.53647 -16609749.78148  20170765.193    20170765.0514   20170769.3264
        51.0004         48.2004
 16  6 23  0 57  0.0000000  0  7G19G 6G 7G 2G23G 3G 9
    106213.80542     96893.31045  24967270.453    24967270.6064   24967274.9164
        36.1004         34.0004
 -12025082.52846  -9130670.08747  20715945.737    20715945.9674   20715951.4804
        49.5004         46.6004
  -8402330.21845  -6530689.14246  22655243.852    22655245.1744   22655246.7804
        44.1004         41.6004
  -7662744.53945  -5951277.49647  22524788.930    22524788.0974   22524788.8814
        44.9004         42.1004
 -17197823.96046 -13126579.69747  21401644.658    21401644.3994   21401644.9324
        47.5004         44.5004
  -4411319.73243  -3416531.77146  23592975.377    23592975.9204   23592981.8064
        40.3004         37.9004
 -21327267.58147 -16600689.81048  20172977.133    20172977.2364   20172981.7194
        51.0004         48.0004
 16  6 23  0 57 30.0000000  0  7G19G 6G 7G 2G23G 3G 9
    206249.25042    174843.00545  24986305.961    24986303.6624   24986304.9714
        35.6004         33.8004
 -12002468.00046  -9113048.37547  20720249.332    20720249.7094   20720254.7254
        49.5004         46.6004
  -8496309.27845  -6603919.56446  22637360.818    22637360.7414   22637362.7914
        44.1004         41.2004
  -7730922.60945  -6004403.23747  22511815.263    22511814.4924   22511815.6364
        44.9004         42.1004
 -17141674.66946 -13082826.99347  21412329.216    21412328.9844   21412329.7154
        47.4004         44.5004
  -4318670.83943  -3344337.83246  23610603.775    23610606.2974   23610611.9454
        40.4004         37.9004
 -21315200.88747 -16591287.18348  20175273.462    20175273.3004   20175277.8764
        50.8004         48.0004
 16  6 23  0 58  0.0000000  0  7G19G 6G 7G 2G23G 3G 9
    306351.63942    252844.87945  25005355.137    25005355.5504   25005358.1494
        35.4004         34.0004
 -11979258.13046  -9094962.76247  20724666.037    20724666.4484   20724671.4614
        49.5004         46.6004
  -8590019.79945  -6676940.72446  22619527.058    22619526.9444   22619531.6674
        44.1004         41.2004
  -7798702.16145  -6057218.45246  22498917.531    22498916.6904   22498917.2484
        44.8004         41.9004
 -17085225.41046 -13038840.55947  21423071.246    21423070.4924   21423071.5784
        47.4004         44.4004
  -4225866.50643  -3272022.80246  23628268.356    23628266.7264   23628273.2214
        40.4004         38.1004
 -21302695.38147 -16581542.61648  20177652.805    20177652.8254   20177657.7444
        50.8004         48.0004
 16  6 23  0 58 30.0000000  0  7G19G 6G 7G 2G23G 3G 9
    406517.99042    330896.60145  25024416.668    25024416.1174   25024417.2594
        34.9004         33.1004
 -11955453.43546  -9076413.65347  20729195.545    20729196.0834   20729201.6144
        49.5004         46.6004
  -8683458.68245  -6749750.23446  22601745.137    22601746.4934   22601749.8614
        43.9004         41.2004
  -7866080.76445  -6109721.22946  22486094.980    22486095.0134   22486096.3844
        44.8004         41.9004
 -17028477.51946 -12994621.42047  21433870.055    21433869.4684   21433870.4524
        47.4004         44.5004
  -4132907.60043  -3199587.27846  23645952.977    23645955.0224   23645960.7304
        40.4004         37.8004
 -21289751.99647 -16571456.86048  20180116.166    20180116.3554   20180120.8984
        50.8004         48.2004
 16  6 23  0 59  0.0000000  0  7G19G 6G 7G 2G23G 3G 9
    506745.37942    408995.90845  25043487.070    25043486.4294   25043491.3754
        35.0004         33.4004
 -11931054.43246  -9057401.44447  20733838.304    20733838.9334   20733844.8524
        49.5004         46.6004
  -8776623.80345  -6822346.40046  22584017.720    22584018.5384   22584021.4244
        43.9004         41.2004
  -7933056.13545  -6161909.81647  22473350.994    22473349.6364   22473350.9174
        44.8004         42.1004
 -16971432.60846 -12950170.82847  21444725.393    21444724.8624   21444725.5234
        47.4004         44.5004
  -4039794.92943  -3127031.97346  23663674.269    23663674.1004   23663680.8234
        40.3004         37.8004
 -21276371.70747 -16561030.65748  20182662.552    20182662.6264   20182667.1744
        50.8004         48.2004
 16  6 23  0 59 30.0000000  0  7G19G 6G 7G 2G23G 3G 9
    607030.81542    487140.41445  25062572.351    25062572.3024   25062574.3804
        35.4004         34.0004
 -11906061.70146  -9037926.59747  20738594.985    20738595.2694   20738600.7604
        49.5004         46.6004
  -8869512.57645  -6894727.22146  22566342.950    22566341.8694   22566345.2034
        43.9004         41.1004
  -7999626.50945  -6213782.81046  22460682.185    22460681.9004   22460682.9834
        44.8004         41.9004
 -16914091.97646 -12905489.81947  21455636.918    21455636.5904   21455637.0974
        47.4004         44.5004
  -3946529.40443  -3054357.54846  23681420.974    23681421.9404   23681428.1054
        40.1004         37.6004
 -21262555.40747 -16550264.70648  20185291.765    20185291.6544   20185296.1334
        50.8004         48.2004
 16  6 23  1  0  0.0000000  0  7G19G 6G 7G 2G23G 3G 9
    707370.96042    565327.54145  25081665.932    25081665.2274   25081669.5524
        35.2004         33.6004
 -11880475.82346  -9017989.55847  20743463.565    20743463.7784   20743469.0694
        49.3004         46.5004
  -8962122.42245  -6966890.70946  22548718.783    22548718.8804   22548722.1994
        43.9004         41.2004
  -8065789.51845  -6265338.37846  22448091.851    22448091.4154   22448092.2184
        44.6004         41.6004
 -16856457.02546 -12860579.45847  21466604.610    21466604.1694   21466604.8244
        47.4004         44.4004
  -3853111.78043  -2981564.61346  23699196.534    23699198.0484   23699203.6704
        39.7004         37.1004
 -21248304.10147 -16539159.78648  20188003.473    20188003.4434   20188008.3024
        51.0004         48.2004
 16  6 23  1  0 30.0000000  0  7G19G 6G 7G 2G23G 3G 9
    807762.90942    643555.04845  25100770.017    25100768.8974   25100770.9694
        35.6004         34.1004
 -11854297.41846  -8997590.80747  20748445.036    20748445.5284   20748451.0524
        49.3004         46.5004
  -9054451.16545  -7038835.15846  22531148.858    22531148.8534   22531153.2074
        43.9004         41.2004
  -8131542.82745  -6316574.71646  22435580.165    22435579.3184   22435579.8344
        44.6004         41.8004
 -16798529.17746 -12815440.86747  21477627.709    21477627.3404   21477628.0234
        47.4004         44.5004
  -3759543.02743  -2908653.90146  23717004.221    23717003.6064   23717010.1604
        39.4004         36.9004
 -21233618.74547 -16527716.64048  20190797.745    20190797.5934   20190802.9164
        51.0004         48.2004
 16  6 23  1  1  0.0000000  0  7G19G 6G 7G 2G23G 3G 9
    908203.81042    721820.69645  25119884.529    25119883.2834   25119886.6964
        35.7004         34.1004
 -11827527.09046  -8976730.81647  20753539.462    20753539.5964   20753545.0694
        49.3004         46.5004
  -9146495.71045  -7110558.15646  22513633.549    22513633.7574   22513637.0014
        44.1004         41.4004
  -8196884.25945  -6367490.10146  22423146.196    22423144.3504   22423146.0664
        44.6004         41.9004
 -16740309.62746 -12770074.97947  21488706.403    21488706.0664   21488706.5184
        47.4004         44.5004
  -3665823.85943  -2835626.01346  23734839.780    23734838.4444   23734843.6034
        39.4004         36.9004
 -21218500.31247 -16515936.03648  20193674.387    20193674.7384   20193679.6254
        51.0004         48.2004
 16  6 23  1  1 30.0000000  0  7G19G 6G 7G 2G23G 3G 9
   1008690.30342    800121.88045  25139006.306    25139005.8004   25139007.5894
        35.9004         34.0004
 -11800165.52546  -8955410.12747  20758746.205    20758746.5654   20758751.4144
        49.3004         46.5004
  -9238253.73745  -7182057.88946  22496173.274    22496173.2394   22496175.6564
        44.2004         41.6004
  -8261811.64645  -6418082.84847  22410790.185    22410789.6224   22410791.0684
        44.8004         42.1004
 -16681800.05746 -12724483.11247  21499840.665    21499840.2714   21499840.9304
        47.4004         44.5004
  -3571955.21543  -2762481.61546  23752700.521    23752701.6524   23752706.8004
        39.4004         37.1004
 -21202949.78047 -16503818.73648  20196634.327    20196634.3444   20196638.9774
        51.0004         48.4004
 16  6 23  1  2  0.0000000  0  7G19G 6G 7G 2G23G 3G 9
   1109219.44042    878456.29845  25158135.193    25158134.2304   25158138.5434
        36.1004         34.3004
 -11772213.38146  -8933629.23347  20764065.693    20764066.1324   20764071.0114
        49.3004         46.6004
  -9329723.20745  -7253332.77246  22478767.281    22478766.9824   22478770.1254
        44.4004         41.6004
  -8326322.90645  -6468351.33646  22398513.344    22398513.1104   22398514.6154
        44.6004         41.8004
 -16623002.21946 -12678666.61347  21511029.689    21511029.6434   21511029.9734
        47.2004         44.4004
  -3477937.92643  -2689221.40646  23770590.551    23770592.6604   23770597.0834
        39.2004         36.9004
 -21186968.18147 -16491365.53948  20199675.541    20199675.4464   20199680.2084
        51.0004         48.4004
 16  6 23  1  2 30.0000000  0  7G19G 6G 7G 2G23G 3G 9
   1209787.94242    956821.33145  25177275.626    25177274.8504   25177273.4554
        36.3004         34.5004
 -11743671.35146  -8911388.70047  20769497.145    20769497.3634   20769502.1974
        49.5004         46.5004
  -9420900.86045  -7324380.29346  22461416.784    22461416.5794   22461419.3054
        44.4004         41.8004
  -8390416.00445  -6518294.00646  22386316.565    22386316.6814   22386317.5694
        44.6004         41.8004
 -16563916.86646 -12632626.06947  21522272.467    21522272.4814   21522273.0574
        47.2004         44.4004
  -3383772.80543  -2615846.01146  23788511.119    23788512.4444   23788514.9744
        39.2004         36.7004
 -21170556.43947 -16478577.16348  20202798.284    20202798.1424   20202803.1614
        51.2004         48.4004
 16  6 23  1  3  0.0000000  0  7G19G 6G 7G 2G23G 3G 9
   1310393.19842   1035215.04445  25196420.183    25196418.7774   25196419.2434
        36.4004         34.6004
 -11714540.18246  -8888689.09247  20775040.195    20775040.5664   20775046.0494
        49.5004         46.5004
  -9511784.84845  -7395198.95246  22444121.701    22444122.0244   22444124.1394
        44.4004         41.6004
  -8454088.26445  -6567908.74346  22374200.880    22374199.5674   22374201.1274
        44.6004         41.8004
 -16504545.69946 -12586362.81947  21533570.921    21533570.6494   21533571.3254
        47.4004         44.5004
  -3289460.77343  -2542356.14046  23806456.351    23806458.2034   23806462.6084
        39.0004         36.6004
 -21153715.62647 -16465454.44748  20206002.943    20206002.7664   20206007.9244
        51.2004         48.4004
 16  6 23  1  3 30.0000000  0  7G19G 6G 7G 2G23G 3G 9
   1411032.17442   1113635.02745  25215569.769    25215568.7374   25215571.8734
        36.8004         34.8004
 -11684820.60246  -8865530.98147  20780695.351    20780696.3094   20780701.3924
        49.5004         46.6004
  -9602372.37145  -7465786.61346  22426882.910    22426883.5434   22426886.5014
        44.2004         41.6004
  -8517337.95545  -6617194.20847  22362164.236    22362163.6224   22362165.4524
        44.8004         42.1004
 -16444890.02746 -12539877.89547  21544923.308    21544922.9684   21544922.6774
        47.2004         44.2004
  -3195002.65743  -2468752.41446  23824434.501    23824433.7384   23824439.5884
        39.2004         36.9004
 -21136446.72247 -16451998.15148  20209289.031    20209289.0954   20209293.8834
        51.0004         48.2004
 16  6 23  1  4  0.0000000  0  7G19G 6G 7G 2G23G 3G 9
   1511701.72142   1192078.82245  25234726.065    25234724.1774   25234728.2594
        37.3004         35.3004
 -11654513.37746  -8841914.97547  20786463.067    20786463.4434   20786468.4374
        49.3004         46.5004
  -9692660.82445  -7536141.23346  22409703.974    22409702.7224   22409704.7874
        44.2004         41.6004
  -8580163.24945  -6666148.95447  22350209.447    22350208.4184   22350209.8524
        44.9004         42.1004
 -16384951.44146 -12493172.49847  21556328.948    21556329.0194   21556329.0554
        47.2004         44.4004
  -3100399.37843  -2395035.60146  23842434.629    23842435.7784   23842440.9324
        39.2004         36.7004
 -21118750.74647 -16438209.07448  20212656.592    20212656.6414   20212661.3634
        51.0004         48.2004
 16  6 23  1  4 30.0000000  0  7G19G 6G 7G 2G23G 3G 9
   1612398.77843   1270544.05445  25253887.886    25253886.4764   25253890.9004
        37.6004         35.9004
 -11623619.31646  -8817841.67847  20792341.465    20792342.0594   20792347.7864
        49.1004         46.3004
  -9782648.00545  -7606261.08746  22392578.417    22392578.0184   22392580.8674
        44.2004         41.4004
  -8642561.49245  -6714770.95747  22338335.957    22338335.3194   22338336.4534
        45.1004         42.5004
 -16324731.57346 -12446247.91947  21567788.975    21567788.9394   21567788.7014
        47.2004         44.5004
  -3005651.72243  -2321206.27446  23860465.450    23860465.1684   23860470.8684
        39.0004         36.7004
 -21100628.72747 -16424088.02248  20216104.959    20216104.8124   20216109.8394
        51.0004         48.2004
 16  6 23  1  5  0.0000000  0  7G19G 6G 7G 2G23G 3G 9
   1713120.44343   1349028.42646  25273054.397    25273053.8524   25273056.6934
        38.3004         36.4004
 -11592139.22846  -8793311.74347  20798331.812    20798332.7804   20798337.7204
        49.1004         46.3004
  -9872331.54445  -7676144.33946  22375512.028    22375512.1504   22375514.4804
        44.1004         41.2004
  -8704530.66145  -6763058.60647  22326542.930    22326542.1054   22326543.7484
        45.1004         42.1004
 -16264231.29946 -12399104.85547  21579301.985    21579302.0524   21579301.6374
        47.2004         44.5004
  -2910760.59343  -2247265.14446  23878519.649    23878521.8674   23878528.2604
        38.9004         36.7004
 -21082081.72647 -16409635.80448  20219633.964    20219634.2114   20219639.2584
        51.0004         48.2004
 16  6 23  1  5 30.0000000  0  7G19G 6G 7G 2G23G 3G 9
   1813863.91043   1427529.80446  25292225.626    25292224.3904   25292228.6444
        38.7004         36.6004
 -11560073.95546  -8768325.82047  20804434.055    20804434.5144   20804439.4114
        49.1004         46.3004
  -9961708.43845  -7745788.65846  22358504.649    22358504.5614   22358507.5164
        44.1004         41.2004
  -8766068.64745  -6811010.27047  22314833.131    22314832.7584   22314832.8184
        45.1004         42.5004
 -16203452.40346 -12351744.67147  21590867.109    21590866.8554   21590867.2534
        47.2004         44.2004
  -2815726.80943  -2173212.84646  23896605.811    23896606.5694   23896614.1614
        38.7004         36.4004
 -21063110.74547 -16394853.22448  20223244.923    20223244.6444   20223249.1064
        51.0004         48.2004
 16  6 23  1  6  0.0000000  0  7G19G 6G 7G 2G23G 3G 9
   1914626.13943   1506045.81046  25311400.867    25311399.2994   25311402.6814
        38.7004         36.2004
 -11527424.35046  -8742884.57347  20810647.288    20810647.4494   20810652.5114
        49.1004         46.3004
 -10050776.68345  -7815192.45846  22341555.557    22341554.5514   22341557.8354
        44.1004         41.2004
  -8827173.75445  -6858624.61847  22303205.417    22303204.4854   22303205.2804
        45.3004         42.5004
 -16142396.71546 -12304168.80547  21602485.559    21602485.0364   21602485.7784
        47.2004         44.4004
  -2720551.33443  -2099050.15846  23914719.915    23914719.3074   23914724.2564
        38.9004         36.7004
 -21043716.82147 -16379741.07448  20226935.816    20226935.4454   20226939.7494
        51.0004         48.2004
 16  6 23  1  6 30.0000000  0  7G19G 6G 7G 2G23G 3G 9
   2015403.70943   1584573.78045  25330577.175    25330575.4174   25330579.7524
        38.3004         35.9004
 -11494191.32146  -8716988.71847  20816970.862    20816971.2614   20816977.2374
        49.1004         46.3004
 -10139533.63945  -7884353.68946  22324665.525    22324665.1714   22324667.7244
        44.1004         41.2004
  -8887843.39145  -6905899.64447  22291660.321    22291659.4954   22291660.4954
        45.3004         42.5004
 -16081064.78246 -12256377.69447  21614156.105    21614156.0264   21614157.1204
        47.0004         44.0004
  -2625234.95143  -2024777.67846  23932857.010    23932856.8364   23932861.3754
        39.0004         36.7004
 -21023901.04547 -16364300.21248  20230706.125    20230706.2954   20230710.7254
        51.0004         48.2004
 16  6 23  1  7  0.0000000  0  7G19G 6G 7G 2G23G 3G 9
   2116193.88843   1663111.57046  25349757.045    25349755.7684   25349759.7764
        38.3004         36.2004
 -11460375.75046  -8690638.92347  20823405.449    20823406.1404   20823411.8874
        49.1004         46.3004
 -10227977.25645  -7953270.76746  22307833.456    22307834.4224   22307837.7294
        44.1004         41.2004
  -8948075.47145  -6952833.71747  22280198.847    22280197.5054   22280198.7274
        45.5004         42.6004
 -16019458.09846 -12208372.47247  21625879.674    21625879.1074   21625880.0584
        46.9004         43.9004
  -2529778.69443  -1950396.17246  23951021.183    23951021.6294   23951025.9284
        39.2004         37.1004
 -21003664.50947 -16348531.47748  20234556.901    20234556.8174   20234561.3334
        51.0004         48.2004
 16  6 23  1  7 30.0000000  0  7G19G 6G 7G 2G23G 3G 9
   2216993.85343   1741657.00245  25368939.313    25368937.8674   25368941.2534
        37.8004         35.3004
 -11425978.59246  -8663835.95247  20829951.495    20829951.8624   20829957.3384
        49.1004         46.3004
 -10316104.40745  -8021941.24446  22291065.857    22291064.2814   22291067.7154
        44.1004         41.4004
  -9007868.36645  -6999425.56547  22268820.042    22268819.2584   22268820.5644
        45.5004         42.8004
 -15957578.44446 -12160154.56547  21637654.573    21637653.9894   21637655.7074
        46.7004         43.9004
  -2434183.23843  -1875906.20546  23969213.719    23969212.4924   23969218.8184
        39.4004         37.1004
 -20983008.22247 -16332435.66748  20238487.684    20238487.7114   20238492.2094
        51.0004         48.2004
 16  6 23  1  8  0.0000000  0  7G19G 6G 7G 2G23G 3G 9
   2317800.32042   1820207.50345  25388122.266    25388120.9084   25388121.3294
        37.3004         35.0004
 -11391000.76946  -8636580.51547  20836607.503    20836607.9164   20836613.2304
        49.1004         46.3004
 -10403912.77045  -8090363.32346  22274356.781    22274355.9834   22274358.4174
        44.2004         41.4004
  -9067219.76645  -7045673.38647  22257525.424    22257525.1404   22257526.7854
        45.5004         42.6004
 -15895427.17546 -12111725.00447  21649482.123    21649481.8884   21649482.5854
        46.7004         44.0004
  -2338449.52543  -1801308.53146  23987431.629    23987430.8654   23987436.5814
        39.4004         37.1004
 -20961933.28847 -16316013.63748  20242498.020    20242497.9204   20242502.7014
        51.0004         48.2004
 16  6 23  1  8 30.0000000  0  7G19G 6G 7G 2G23G 3G 9
   2418610.79342   1898761.06845  25407304.518    25407304.4754   25407306.2814
        36.4004         34.1004
 -11355443.30346  -8608873.40247  20843374.008    20843374.1334   20843379.8134
        49.1004         46.3004
 -10491400.54945  -8158535.60246  22257706.498    22257706.1864   22257709.5374
        44.2004         41.6004
  -9126127.58245  -7091575.56247  22246315.794    22246315.1404   22246316.3984
        45.3004         42.5004
 -15833005.66246 -12063084.86147  21661360.660    21661360.4524   21661360.7424
        46.9004         44.0004
  -2242578.52143  -1726603.84746  24005671.369    24005673.8234   24005679.7864
        39.6004         37.3004
 -20940440.78947 -16299266.23248  20246588.074    20246587.9934   20246592.5974
        51.0004         48.2004
 16  6 23  1  9  0.0000000  0  7G19G 6G 7G 2G23G 3G 9
   2519422.27742   1977315.47345  25426489.448    25426486.4184   25426491.0694
        35.7004         33.8004
 -11319307.16246  -8580715.37847  20850250.301    20850250.7824   20850256.3114
        49.1004         46.3004
 -10578565.16245  -8226456.05346  22241120.694    22241119.6254   22241122.8254
        44.4004         41.6004
  -9184589.72145  -7137130.47447  22235190.959    22235190.5764   22235191.2544
        45.3004         42.5004
 -15770315.12246 -12014235.08547  21673290.319    21673290.0114   21673290.1724
        46.9004         44.0004
  -2146571.00243  -1651792.77846  24023940.689    24023942.8734   24023948.2094
        39.4004         36.9004
 -20918531.78947 -16282194.28448  20250757.412    20250757.6064   20250761.8524
        51.0004         48.4004
 16  6 23  1  9 30.0000000  0  7G19G 6G 7G 2G23G 3G 9
   2620231.50642   2055868.10445  25445673.628    25445671.2184   25445675.0194
        34.9004         32.9004
 -11282593.37346  -8552107.23947  20857237.207    20857237.5504   20857242.6714
        49.3004         46.5004
 -10665403.96545  -8294122.63046  22224595.758    22224594.6614   22224598.0894
        44.4004         41.8004
  -9242604.16145  -7182336.51147  22224151.518    22224150.6524   22224151.2274
        45.3004         42.5004
 -15707357.17746 -11965176.96347  21685270.940    21685270.6864   21685271.3344
        46.7004         44.0004
  -2050427.89543  -1576876.08146  24042239.797    24042238.3834   24042244.3004
        39.2004         36.9004
 -20896207.39547 -16264798.64548  20255005.139    20255005.2354   20255009.6984
        51.0004         48.2004
 16  6 23  1 10  0.0000000  0  7G19G 6G 7G 2G23G 3G 9
   2721035.65041   2134416.78045  25464856.052    25464853.1224   25464853.4144
        34.0004         32.7004
 -11245303.17346  -8523049.94547  20864332.488    20864333.4744   20864338.7014
        49.1004         46.3004
 -10751914.16145  -8361533.15646  22208132.040    22208132.7174   22208135.7374
        44.4004         41.8004
  -9300168.94545  -7227192.18347  22213196.385    22213196.3934   22213197.8444
        45.6004         43.0004
 -15644133.20046 -11915911.51347  21697302.581    21697301.8184   21697302.5144
        46.9004         43.9004
  -1954150.08343  -1501854.41346  24060560.131    24060560.3004   24060564.9934
        39.0004         36.6004
 -20873468.69447 -16247080.17048  20259332.125    20259332.2564   20259336.8994
        51.0004         48.2004
 16  6 23  1 10 30.0000000  0  8G19G 6G 7G 2G23G30G 3G 9
   2821831.76441   2212959.18445  25484035.112    25484032.5064   25484038.5074
        33.1004         31.5004
 -11207437.22146  -8493544.02247  20871538.410    20871539.0414   20871544.0984
        49.1004         46.3004
 -10838093.74845  -8428686.05746  22191734.783    22191734.0634   22191736.6824
        44.6004         41.9004
  -9357282.30145  -7271696.08647  22202328.379    22202327.7564   22202329.1154
        45.8004         43.0004
 -15580644.45546 -11866439.76247  21709384.175    21709383.6614   21709383.6104
        46.7004         43.9004
                    -59381.53053  24073896.964
                        23.4004
  -1857738.47743  -1426728.47846  24078903.612    24078906.8194   24078912.3394
        39.0004         36.6004
 -20850316.81447 -16229039.73848  20263737.847    20263737.5734   20263742.6734
        51.0004         48.2004
 16  6 23  1 11  0.0000000  0  8G19G 6G 7G 2G23G30G 3G 9
   2922617.03751   2291493.15055  25503213.090    25503212.8604
        32.1004         31.5004
 -11168996.82946  -8463590.47247  20878853.671    20878854.0754   20878859.3914
        49.1004         46.3004
 -10923941.00045  -8495580.00846  22175397.363    22175397.5014   22175399.6904
        44.6004         41.9004
  -9413941.80245  -7315846.33347  22191546.915    22191546.3904   22191547.4164
        45.8004         43.0004
 -15516892.58346 -11816762.97147  21721515.473    21721514.8204   21721515.8094
        46.7004         43.7004
                   -147186.70645  24052454.509
                        35.3004
  -1761193.92243  -1351498.95846  24097280.178    24097278.6624   24097283.9614
        39.0004         36.6004
 -20826752.82947 -16210678.18948  20268221.726    20268222.0334   20268226.7124
        51.0004         48.2004
 16  6 23  1 11 30.0000000  0  8G19G 6G 7G 2G23G30G 3G 9
   3023388.78451   2370016.56455  25522386.671    25522387.8654
        31.7004         31.7004
 -11129983.10846  -8433190.17447  20886277.801    20886278.2214   20886283.6164
        49.1004         46.3004
 -11009452.40945  -8562212.26246  22159124.697    22159125.1644   22159127.2824
        44.8004         41.8004
  -9470145.75145  -7359641.60647  22180851.290    22180850.8754   22180852.1484
        45.8004         43.0004
 -15452878.79146 -11766882.10647  21733696.249    21733696.2544   21733697.0484
        46.7004         43.9004
                   -234926.64946  24031027.313                    24031035.5974
                        36.0004
  -1664517.33643  -1276166.58546  24115676.028    24115674.9324   24115680.5774
        39.0004         36.7004
 -20802777.90447 -16191996.43348  20272784.392    20272784.6314   20272788.7394
        51.0004         48.2004
 16  6 23  1 12  0.0000000  0  8G19G 6G 7G 2G23G30G 3G 9
   3124143.4855    2448526.71255  25541561.780    25541567.5694
        31.4004         31.0004
 -11090397.16446  -8402343.99947  20893811.187    20893811.4674   20893816.8474
        49.1004         46.3004
 -11094625.75345  -8628581.08346  22142916.787    22142916.5324   22142919.3994
        44.8004         41.8004
  -9525892.02145  -7403080.25247  22170243.632    22170242.8754   22170243.7784
        45.8004         43.0004
 -15388604.40446 -11716798.17047  21745928.028    21745926.8914   21745927.9114
        46.7004         43.9004
   -459045.08843   -322599.15546  24009620.670    24009617.9384   24009623.3784
        37.8004         36.4004
  -1567709.69743  -1200732.05846  24134094.107    24134096.6044   24134103.1394
        39.2004         36.9004
 -20778393.13347 -16172995.30848  20277424.686    20277424.6434   20277429.0354
        50.8004         48.0004
 16  6 23  1 12 30.0000000  0  8G19G 6G 7G 2G23G30G 3G 9
                     70019.12554  25560736.469
                        25.4004
 -11050240.18746  -8371052.85947  20901452.192    20901452.5714   20901458.1824
        48.9004         46.1004
 -11179459.11845  -8694684.98446  22126772.769    22126773.3434   22126775.9404
        44.6004         41.8004
  -9581178.71545  -7446160.79447  22159722.370    22159722.0124   22159723.4044
        45.8004         43.0004
 -15324071.00646 -11666512.40747  21758207.437    21758207.1804   21758208.5984
        46.7004         43.9004
   -571469.03643   -410202.17046  23988224.204    23988223.4014   23988228.9634
        38.5004         36.4004
  -1470771.74543  -1125196.00646  24152548.285    24152543.5664   24152549.2264
        39.2004         36.9004
 -20753599.66547 -16153675.71848  20282142.769    20282142.6354   20282147.0624
        50.8004         48.2004
 16  6 23  1 13  0.0000000  0  8G19G 6G 7G 2G23G30G 3G 9
                    148508.02054  25579899.458
                        29.8004
 -11009513.33146  -8339317.64847  20909201.859    20909202.5204   20909207.8684
        48.8004         45.8004
 -11263950.05445  -8760522.06546  22110696.270    22110695.7154   22110697.9734
        44.6004         41.9004
  -9636003.78645  -7488881.60647  22149289.547    22149289.4664   22149290.3344
        45.8004         43.2004
 -15259279.69346 -11616025.67647  21770537.404    21770537.1684   21770538.2754
        46.7004         43.9004
   -683801.27653   -497733.72456  23966846.100    23966846.7694   23966853.1444
        38.5004         36.2004
  -1373704.51343  -1049559.22446  24171015.787    24171015.1214   24171020.8034
        39.2004         36.7004
 -20728398.62047 -16134038.53648  20286938.203    20286938.4764   20286942.8874
        50.8004         48.2004
 16  6 23  1 13 30.0000000  0  8G19G 6G 7G 2G23G30G 3G 9
                    226975.59755  25599060.179
                        30.3004
 -10968217.78446  -8307139.30947  20917060.053    20917060.6854   20917066.5504
        48.8004         45.8004
 -11348096.52245  -8826090.72447  22094682.515    22094682.2624   22094685.8034
        44.8004         42.1004
  -9690365.48845  -7531241.36647  22138945.130    22138944.4224   22138945.5874
        45.8004         43.0004
 -15194232.24846 -11565339.36047  21782914.765    21782914.6514   21782916.1424
        46.7004         43.7004
   -796039.20443   -585191.79146  23945488.466    23945488.9094   23945495.1334
        38.7004         36.4004
  -1276508.83443   -973822.32746  24189509.865    24189509.0614   24189516.0534
        38.9004         36.4004
 -20702791.11447 -16114084.64048  20291810.780    20291810.9314   20291815.5924
        50.8004         48.0004
 16  6 23  1 14  0.0000000  0  8G19G 6G 7G 2G23G30G 3G 9
                     64737.80753  25618211.832
                        23.4004
 -10926354.79646  -8274518.79747  20925027.189    20925027.6904   20925032.6854
        48.6004         45.9004
 -11431895.57645  -8891388.67347  22078735.656    22078736.0644   22078738.8754
        44.9004         42.1004
  -9744261.93345  -7573238.59147  22128688.507    22128687.9424   22128689.1324
        45.8004         43.0004
 -15128930.08346 -11514454.55647  21795342.365    21795341.7054   21795342.7194
        46.5004         43.9004
   -908180.20143   -672574.33246  23924149.541    23924149.9254   23924154.0574
        38.5004         36.2004
  -1179185.64843   -897986.09946  24208030.174    24208030.1154   24208035.7834
        38.7004         36.4004
 -20676778.33047 -16093814.93248  20296761.328    20296761.1584   20296765.5224
        50.8004         48.0004
 16  6 23  1 14 30.0000000  0  8G19G 6G 7G 2G23G30G 3G 9
                    143091.99254  25637359.314
                        29.8004
 -10883925.57946  -8241457.07347  20933100.886    20933101.3744   20933106.6414
        48.8004         45.8004
 -11515344.97545  -8956414.15447  22062855.099    22062856.4954   22062858.9974
        44.9004         42.5004
  -9797690.73145  -7614871.41447  22118521.456    22118521.3674   22118522.2934
        45.8004         43.0004
 -15063374.31746 -11463372.14647  21807817.179    21807816.5824   21807817.7054
        46.7004         43.7004
  -1020221.75643   -759879.38146  23902827.443    23902828.2844   23902833.4424
        38.3004         36.0004
  -1081735.79143   -822051.17046  24226573.904    24226573.2434   24226580.0924
        38.3004         36.0004
 -20650361.41047 -16073230.31748  20301788.154    20301788.2544   20301792.3654
        50.8004         48.2004
 16  6 23  1 15  0.0000000  0  7G 6G 7G 2G23G30G 3G 9
 -10840931.42346  -8207955.14047  20941282.192    20941282.4344   20941288.5074
        48.6004         45.8004
 -11598442.62045  -9021165.55647  22047042.822    22047043.5754   22047046.1254
        45.1004         42.5004
  -9850650.29645  -7656138.59547  22108443.074    22108443.4214   22108444.1064
        46.0004         43.3004
 -14997566.40346 -11412093.25247  21820339.282    21820339.2674   21820340.3484
        46.5004         43.5004
  -1132161.21843   -847104.89746  23881526.561    23881527.6034   23881532.8334
        38.5004         36.4004
   -984160.27243   -746018.28546  24245138.131    24245141.0704   24245148.0914
        38.5004         36.4004
 -20623541.50247 -16052331.68448  20306891.528    20306891.6414   20306896.2674
        50.8004         48.2004
 16  6 23  1 15 30.0000000  0  7G 6G 7G 2G23G30G 3G 9
 -10797373.58846  -8174013.97747  20949570.983    20949571.6184   20949577.5714
        48.8004         45.9004
 -11681186.28545  -9085641.11947  22031297.277    22031297.6304   22031300.8154
        45.3004         42.5004
  -9903138.71845  -7697038.63847  22098455.554    22098454.8024   22098456.4874
        46.0004         43.2004
 -14931507.45945 -11360618.75747  21832910.359    21832909.9064   21832910.8414
        46.3004         43.5004
  -1243996.02843   -934248.84046  23860246.412    23860245.4954   23860250.7294
        38.7004         36.4004
   -886459.88443   -669888.13946  24263737.844    24263733.3804   24263740.0994
        38.3004         36.0004
 -20596319.76647 -16031119.93648  20312071.789    20312071.9404   20312076.5564
        51.0004         48.2004
 16  6 23  1 16  0.0000000  0  7G 6G 7G 2G23G30G 3G 9
 -10753253.40946  -8139634.62447  20957966.982    20957967.2424   20957972.8824
        48.8004         45.9004
 -11763573.21845  -9149838.70447  22015619.635    22015620.0434   22015621.8654
        45.3004         42.5004
  -9955154.03045  -7737570.04547  22088557.815    22088556.3724   22088557.5134
        46.0004         43.0004
 -14865199.01345 -11308949.84547  21845528.666    21845528.2054   21845528.7094
        46.3004         43.5004
  -1355723.59843  -1021309.22346  23838985.720    23838985.6124   23838989.8454
        38.7004         36.4004
   -788635.61143   -593661.47646  24282350.942    24282349.8034   24282356.2514
        38.3004         36.2004
 -20568697.35747 -16009595.97948  20317328.254    20317328.2604   20317332.9644
        51.0004         48.2004
 16  6 23  1 16 30.0000000  0  7G 6G 7G 2G23G30G 3G 9
 -10708572.21046  -8104818.11747  20966469.762    20966470.2264   20966475.1974
        48.8004         45.9004
 -11845601.77045  -9213757.03647  22000011.659    22000010.9384   22000013.5104
        45.5004         42.8004
 -10006694.58245  -7777731.49647  22078749.637    22078748.7674   22078750.1304
        46.0004         43.2004
 -14798642.77045 -11257087.83847  21858194.139    21858193.3484   21858193.4484
        46.3004         43.3004
  -1467341.27643  -1108283.99046  23817746.243    23817744.4604   23817749.2464
        38.9004         36.6004
   -690688.49943   -517339.04245  24300982.320    24300986.6944   24300995.1454
        38.2004         35.9004
 -20540675.46047 -15987760.73248  20322660.617    20322660.7904   20322665.5074
        51.0004         48.2004
 16  6 23  1 17  0.0000000  0  7G 6G 7G 2G23G30G 3G 9
 -10663331.31646  -8069565.48047  20975077.915    20975079.0364   20975084.8704
        48.8004         46.1004
 -11927269.08545  -9277393.88647  21984468.863    21984469.0624   21984472.2474
        45.6004         43.0004
 -10057758.16045  -7817521.28547  22069032.563    22069032.0624   22069033.0784
        45.8004         43.0004
 -14731839.85045 -11205033.61647  21870905.493    21870905.0054   21870906.5304
        46.3004         43.5004
  -1578846.52343  -1195171.13946  23796528.701    23796525.9574   23796531.0154
        39.0004         36.7004
   -592619.19543   -440921.39646  24319649.674    24319649.9294   24319656.7294
        38.3004         36.0004
 -20512255.24647 -15965615.11048  20328068.989    20328069.0034   20328073.5174
        51.0004         48.2004
 16  6 23  1 17 30.0000000  0  7G 6G 7G 2G23G30G 3G 9
 -10617532.10146  -8033877.79047  20983793.668    20983794.2994   20983800.2364
        48.8004         46.1004
 -12008573.04845  -9340747.60847  21968998.497    21968998.3514   21969001.6434
        45.8004         43.0004
 -10108343.22645  -7856938.21147  22059406.498    22059406.1284   22059406.5744
        45.8004         43.0004
 -14664791.53145 -11152788.18547  21883664.638    21883664.5224   21883665.0944
        46.3004         43.3004
  -1690236.71343  -1281968.64846  23775328.637    23775328.1744   23775333.8634
        39.0004         36.7004
   -494428.80243   -364409.43345  24338335.738    24338335.3264   24338341.1134
        38.2004         35.9004
 -20483437.90047 -15943160.03148  20333552.740    20333552.8454   20333557.1444
        51.0004         48.2004
 16  6 23  1 18  0.0000000  0  7G 6G 7G 2G23G30G 3G 9
 -10571175.99146  -7997756.15647  20992614.663    20992615.6664   20992620.9754
        48.8004         45.9004
 -12089511.30945  -9403816.35247  21953594.815    21953595.5674   21953599.9924
        46.0004         43.3004
 -10158447.85045  -7895980.76147  22049872.441    22049871.3094   22049871.8414
        45.6004         42.5004
 -14597499.31345 -11100352.69347  21896469.470    21896469.6964   21896470.5384
        46.2004         43.5004
  -1801509.26143  -1368674.48346  23754154.147    23754154.3264   23754160.0474
        39.2004         36.9004
   -396118.17743   -287803.77045  24357047.556    24357042.5904   24357048.5454
        37.6004         35.3004
 -20454224.59547 -15920396.42048  20339112.627    20339112.0784   20339116.5574
        51.0004         48.2004
 16  6 23  1 18 30.0000000  0  7G 6G 7G 2G23G30G 3G 9
 -10524264.35746  -7961201.65047  21001542.021    21001542.5844   21001548.1054
        48.8004         45.9004
 -12170081.89845  -9466598.61647  21938264.736    21938264.3894   21938267.2114
        46.2004         43.3004
 -10208070.31845  -7934647.59547  22040429.291    22040428.9424   22040429.4014
        45.3004         42.5004
 -14529964.56945 -11047728.22747  21909321.556    21909321.1194   21909321.8814
        46.2004         43.3004
  -1912661.64643  -1455286.65246  23733003.339    23733002.0574   23733008.8284
        39.4004         37.1004
   -297688.35142   -211105.22845  24375767.148    24375771.4544   24375778.2924
        37.3004         35.3004
 -20424616.54747 -15897325.21048  20344746.000    20344746.0344   20344750.6914
        51.0004         48.2004
 16  6 23  1 19  0.0000000  0  7G 6G 7G 2G23G30G 3G 9
 -10476798.63446  -7924215.37647  21010574.389    21010575.2994   21010580.5704
        48.8004         45.8004
 -12250282.26445  -9529092.39447  21923002.805    21923002.0524   21923005.2054
        46.2004         43.3004
 -10257208.56545  -7972937.11647  22031078.468    22031077.4014   22031078.5814
        45.3004         42.3004
 -14462188.56945 -10994915.76447  21922218.725    21922218.2964   21922218.5564
        46.2004         43.2004
  -2023691.15043  -1541803.09046  23711874.401    23711873.6894   23711880.4314
        39.6004         37.3004
   -199140.08242   -134314.32445  24394520.993    24394524.0004   24394532.2734
        37.1004         35.2004
 -20394614.91847 -15873947.31848  20350454.667    20350454.9534   20350459.5804
        50.8004         48.0004
 16  6 23  1 19 30.0000000  0  7G 6G 7G 2G23G30G 3G 9
 -10428780.29246  -7886798.50147  21019712.196    21019712.5924   21019717.6574
        48.6004         45.6004
 -12330110.01245  -9591295.81347  21907811.498    21907811.8154   21907814.8114
        46.2004         43.2004
 -10305860.72545  -8010847.88247  22021821.222    22021819.9364   22021819.6944
        45.3004         42.3004
 -14394172.57445 -10941916.29347  21935162.380    21935161.4914   21935161.8844
        46.2004         43.2004
  -2134595.21743  -1628221.79046  23690768.994    23690769.2294   23690775.7674
        39.6004         37.1004
   -100474.35643    -57431.98945  24413298.134    24413299.8894   24413309.2234
        37.6004         35.7004
 -20364220.92247 -15850263.67948  20356238.804    20356238.7684   20356243.4644
        50.8004         48.0004
 16  6 23  1 20  0.0000000  0  7G 6G 7G 2G23G30G 3G 9
 -10380210.80846  -7848952.15647  21028954.830    21028955.0824   21028960.5244
        48.6004         45.6004
 -12409563.22345  -9653207.38747  21892692.845    21892691.9614   21892694.9644
        46.0004         43.2004
 -10354025.40245  -8048378.78247  22012654.736    22012654.2544   22012654.4034
        45.1004         42.3004
 -14325918.15845 -10888731.03647  21948149.640    21948149.9124   21948151.0804
        46.2004         43.2004
  -2245371.24943  -1714540.73946  23669689.473    23669689.9224   23669695.4944
        39.6004         37.3004
     -1692.15443     19541.17045  24432098.529    24432096.9814   24432106.9104
        37.6004         35.5004
 -20333435.73347 -15826275.21748  20362097.141    20362097.0544   20362102.0454
        50.8004         48.0004
 16  6 23  1 20 30.0000000  0  7G 6G 7G 2G23G30G 3G 9
 -10331091.66846  -7810677.50847  21038302.145    21038302.5474   21038307.9814
        48.6004         45.8004
 -12488639.75245  -9714825.43647  21877645.430    21877644.7164   21877647.2044
        46.0004         43.2004
 -10401700.54945  -8085528.23247  22003583.225    22003582.2374   22003582.5354
        45.1004         42.5004
 -14257426.50545 -10835360.93847  21961184.539    21961184.5124   21961183.4974
        46.2004         43.2004
  -2356016.67043  -1800757.91546  23648632.219    23648633.6304   23648641.2144
        39.6004         37.1004
     97205.65543     96604.37445  24450923.958    24450920.5754   24450924.9764
        37.8004         35.5004
 -20302260.58247 -15801982.88548  20368029.369    20368029.3974   20368034.4044
        50.8004         48.0004
 16  6 23  1 21  0.0000000  0  7G 6G 7G 2G23G30G 3G 9
 -10281424.39546  -7771975.74247  21047753.071    21047753.5624   21047758.9674
        48.6004         45.8004
 -12567337.34145  -9776148.21947  21862669.174    21862669.0924   21862672.2214
        46.0004         43.2004
 -10448884.54845  -8122294.96547  21994603.859    21994602.9204   21994604.2184
        45.3004         42.6004
 -14188699.35945 -10781807.32647  21974262.367    21974261.9064   21974262.3324
        46.0004         43.3004
  -2466528.82343  -1886871.23146  23627604.446    23627604.2624   23627609.9564
        39.6004         37.3004
    196217.99743    173756.86845  24469758.481    24469761.7314   24469765.5804
        37.8004         35.5004
 -20270696.68247 -15777387.64048  20374035.768    20374036.1054   20374040.7294
        50.8004         48.2004
 16  6 23  1 21 30.0000000  0  7G 6G 7G 2G23G30G 3G 9
 -10231210.50346  -7732848.04447  21057308.618    21057309.0744   21057314.1484
        48.4004         45.6004
 -12645653.48745  -9837173.76647  21847765.912    21847765.4254   21847768.4794
        46.0004         43.2004
 -10495575.56945  -8158677.56747  21985718.859    21985717.8984   21985718.6394
        45.5004         42.6004
 -14119737.52145 -10728070.83347  21987386.177    21987385.9304   21987385.0774
        46.0004         43.2004
  -2576905.09243  -1972878.67846  23606601.941    23606601.2994   23606606.1304
        39.7004         37.4004
    295344.08743    250998.01145  24488620.303    24488623.2414   24488630.1864
        37.8004         35.7004
 -20238745.23147 -15752490.39748  20380116.285    20380116.4044   20380120.7884
        50.8004         48.0004
 16  6 23  1 22  0.0000000  0  7G 6G 7G 2G23G30G 3G 9
 -10180451.57646  -7693295.64147  21066967.742    21066968.2414   21066973.3514
        48.4004         45.6004
 -12723585.98145  -9897900.36347  21832936.463    21832936.1264   21832937.9314
        46.0004         43.2004
 -10541771.96545  -8194674.74647  21976928.047    21976927.5384   21976928.2734
        45.6004         43.0004
 -14050542.56145 -10674152.68347  22000551.836    22000551.7834   22000552.2124
        45.8004         42.8004
  -2687142.98443  -2058778.29946  23585625.386    23585624.2704   23585628.4484
        39.7004         37.4004
    394582.95743    328326.99745  24507506.678    24507507.4704   24507514.0154
        37.6004         35.3004
 -20206407.47947 -15727292.14048  20386269.312    20386269.7004   20386274.5314
        50.8004         48.0004
 16  6 23  1 22 30.0000000  0  7G 6G 7G 2G23G30G 3G 9
 -10129149.16046  -7653319.74247  21076729.664    21076730.2494   21076736.0234
        48.2004         45.4004
 -12801132.92545  -9958326.52147  21818179.176    21818179.0334   21818181.8534
        46.0004         43.3004
 -10587471.96445  -8230285.12447  21968231.234    21968230.7744   21968231.4634
        45.8004         43.0004
 -13981115.73145 -10620053.87647  22013764.611    22013763.9174   22013763.6074
        45.8004         43.0004
  -2797239.80643  -2144567.98446  23564673.991    23564672.5184   23564678.2164
        40.1004         37.6004
    493933.64943    405743.12945  24526418.525    24526413.7164   24526419.7394
        37.6004         35.7004
 -20173684.60347 -15701793.79048  20392496.732    20392496.8034   20392501.3264
        50.7004         48.0004
 16  6 23  1 23  0.0000000  0  7G 6G 7G 2G23G30G 3G 9
 -10077304.85846  -7612921.59347  21086594.908    21086595.7934   21086601.5354
        48.2004         45.4004
 -12878291.94445 -10018450.41747  21803496.047    21803496.4214   21803498.7114
        46.0004         43.2004
 -10632673.80545  -8265507.34847  21959629.883    21959629.2124   21959629.5484
        45.8004         43.0004
 -13911458.65945 -10565775.63647  22027019.163    22027018.5184   22027018.4494
        45.6004         42.8004
  -2907192.94743  -2230245.71946  23543749.103    23543749.2224   23543755.5334
        40.3004         37.8004
    593395.20443    483245.61545  24545346.619    24545342.7454   24545347.3724
        37.8004         35.7004
 -20140577.85347 -15675996.32247  20398796.346    20398796.8164   20398801.1624
        50.7004         47.8004
 16  6 23  1 23 30.0000000  0  7G 6G 7G 2G23G30G 3G 9
 -10024920.29546  -7572102.46747  21096564.014    21096564.6694   21096569.9794
        48.2004         45.4004
 -12955061.01945 -10078270.45347  21788888.306    21788887.4834   21788889.6544
        45.8004         43.0004
 -10677376.15345  -8300340.33447  21951122.972    21951122.5334   21951122.8164
        45.8004         43.0004
 -13841572.38045 -10511318.80447  22040317.754    22040318.1944   22040317.8744
        45.6004         42.8004
  -3016999.84243  -2315809.50546  23522854.445    23522853.6334   23522859.3254
        40.3004         37.8004
    692966.63942    560833.75745  24564282.779    24564288.4284   24564293.8994
        37.5004         35.2004
 -20107088.45247 -15649900.67747  20405169.607    20405169.4144   20405174.1634
        50.7004         47.8004
 16  6 23  1 24  0.0000000  0  7G 6G 7G 2G23G30G 3G 9
  -9971997.12246  -7530863.63647  21106635.121    21106635.4524   21106641.2674
        48.2004         45.4004
 -13031437.96745 -10137784.94947  21774353.009    21774353.9224   21774356.4134
        45.8004         43.3004
 -10721576.85545  -8334782.43547  21942712.000    21942710.9994   21942712.2424
        45.6004         42.8004
 -13771458.74645 -10456684.80847  22053661.082    22053660.2524   22053660.2664
        45.6004         42.8004
  -3126657.85543  -2401257.28246  23501985.493    23501986.1724   23501991.6364
        40.3004         37.8004
    792647.12342    638506.94045  24583255.531    24583256.1324   24583263.4024
        37.3004         35.3004
 -20073217.65747 -15623507.84047  20411615.295    20411614.9084   20411619.6204
        50.7004         47.8004
 16  6 23  1 24 30.0000000  0  7G 6G 7G 2G23G30G 3G 9
  -9918536.95646  -7489206.37147  21116808.103    21116808.5454   21116814.4004
        48.2004         45.2004
 -13107420.66545 -10196992.22547  21759894.905    21759894.4444   21759897.8304
        46.0004         43.2004
 -10765274.43345  -8368832.48247  21934396.166    21934395.6874   21934396.9534
        45.6004         43.0004
 -13701118.37945 -10401874.14747  22067046.096    22067046.3544   22067045.3624
        45.6004         42.6004
  -3236164.43343  -2486587.02346  23481148.671    23481148.4614   23481152.9844
        40.3004         37.9004
    892435.61942    716264.20045  24602246.045    24602245.5634   24602251.5034
        37.1004         35.0004
 -20038966.65147 -15596818.74747  20418132.578    20418132.7154   20418137.1444
        50.7004         47.8004
 16  6 23  1 25  0.0000000  0  7G 6G 7G 2G23G30G 3G 9
  -9864541.50146  -7447131.99647  21127083.117    21127083.2504   21127088.9904
        48.1004         45.1004
 -13183007.11445 -10255890.74347  21745511.329    21745510.7674   21745513.7724
        46.2004         43.3004
 -10808467.24245  -8402489.21547  21926177.617    21926176.5434   21926178.0984
        45.8004         43.2004
 -13630552.80645 -10346887.97347  22080474.985    22080473.9224   22080473.7824
        45.5004         42.6004
  -3345516.88243  -2571796.70246  23460338.144    23460337.8664   23460344.2604
        40.3004         37.8004
    992331.18942    794104.89845  24621257.067    24621256.6414   24621261.1504
        37.3004         35.5004
 -20004336.71447 -15569834.37047  20424722.612    20424722.3584   20424726.8434
        50.7004         47.8004
 16  6 23  1 25 30.0000000  0  7G 6G 7G 2G23G30G 3G 9
  -9810012.42846  -7404641.82447  21137458.980    21137459.5424   21137465.9454
        47.9004         45.1004
 -13258194.97045 -10314478.67647  21731203.111    21731203.4414   21731205.6314
        46.2004         43.5004
 -10851153.77245  -8435751.44347  21918054.194    21918053.1154   21918054.6344
        45.8004         42.8004
 -13559763.25445 -10291727.29447  22093944.538    22093945.0044   22093944.8294
        45.5004         42.5004
  -3454712.68943  -2656884.29646  23439557.509    23439558.5154   23439564.9234
        40.4004         37.8004
   1092332.94042    872028.33545  24640289.688    24640286.4694   24640291.3664
        37.3004         35.2004
 -19969329.09447 -15542555.69747  20431384.138    20431384.3004   20431389.0574
        50.7004         47.8004
 16  6 23  1 26  0.0000000  0  7G 6G 7G 2G23G30G 3G 9
  -9754951.45646  -7361737.18647  21147937.302    21147937.6614   21147943.4224
        47.9004         45.1004
 -13332981.77045 -10372754.10247  21716971.993    21716972.1994   21716973.8784
        46.2004         43.3004
 -10893332.37045  -8468617.88447  21910027.227    21910026.7674   21910027.8414
        45.6004         42.8004
 -13488751.30745 -10236393.31347  22107458.535    22107457.9154   22107457.4534
        45.5004         42.5004
  -3563749.19743  -2741847.78846  23418809.119    23418809.8274   23418815.3084
        40.4004         37.9004
   1192439.76842    950033.66245  24659334.146    24659337.3154   24659339.3354
        37.5004         35.2004
 -19933945.01847 -15514983.68048  20438117.578    20438117.5964   20438122.4644
        50.7004         48.0004
 16  6 23  1 26 30.0000000  0  7G 6G 7G 2G23G30G 3G 9
  -9699360.31646  -7318419.42547  21158516.232    21158516.4504   21158522.3094
        47.9004         45.1004
 -13407365.92245 -10430715.76747  21702817.497    21702816.9524   21702819.1724
        46.3004         43.5004
 -10935001.35945  -8501087.23347  21902098.060    21902098.2354   21902098.4764
        45.8004         43.2004
 -13417518.39345 -10180887.15447  22121012.449    22121012.1874   22121013.8554
        45.3004         42.6004
  -3672623.80744  -2826685.11946  23398092.129    23398091.7254   23398096.0374
        40.6004         38.1004
   1292650.77842   1028120.23545  24678403.203    24678405.4634   24678410.1734
        37.5004         35.2004
 -19898185.73347 -15487119.29748  20444922.389    20444922.5654   20444926.9414
        50.7004         48.0004
 16  6 23  1 27  0.0000000  0  7G 6G 7G 2G23G30G 3G 9
  -9643240.73846  -7274689.90047  21169195.630    21169196.0144   21169200.8814
        47.9004         45.2004
 -13481345.04545 -10488361.82347  21688739.043    21688738.9524   21688741.5404
        46.3004         43.7004
 -10976159.12445  -8533158.20947  21894266.629    21894265.4854   21894266.7114
        46.0004         43.2004
 -13346065.53245 -10125209.60147  22134609.901    22134609.2284   22134610.5834
        45.3004         42.5004
  -3781333.87844  -2911394.23746  23377405.511    23377406.3214   23377409.4504
        40.6004         38.1004
   1392965.09342   1106287.22145  24697495.740    24697493.4744   24697501.5494
        37.3004         35.3004
 -19862052.50847 -15458963.53347  20451798.060    20451798.4194   20451803.1054
        50.7004         47.8004
 16  6 23  1 27 30.0000000  0  7G 6G 7G 2G23G30G 3G 9
  -9586594.53046  -7230549.99647  21179974.461    21179975.0784   21179981.2364
        48.1004         45.2004
 -13554917.39946 -10545690.91847  21674738.081    21674738.1134   21674741.1994
        46.5004         43.7004
 -11016804.37445  -8564829.83547  21886532.377    21886532.2404   21886532.1494
        46.2004         43.3004
 -13274393.93945 -10069361.61447  22148248.060    22148248.2714   22148248.6684
        45.3004         42.5004
  -3889876.90444  -2995973.19246  23356749.833    23356749.4034   23356754.8854
        40.8004         38.1004
   1493381.62542   1184533.86845  24716602.756    24716602.5034   24716608.8854
        37.5004         35.2004
 -19825546.60147 -15430517.36248  20458745.482    20458745.4094   20458750.1464
        50.7004         48.0004
 16  6 23  1 28  0.0000000  0  7G 6G 7G 2G23G30G 3G 9
  -9529423.45346  -7186001.12247  21190854.413    21190854.9704   21190859.7484
        48.1004         45.2004
 -13628080.66546 -10602701.23247  21660815.953    21660815.5244   21660818.8984
        46.5004         43.7004
 -11056935.31645  -8596100.68847  21878895.633    21878895.1654   21878895.7454
        46.2004         43.3004
 -13202505.30945 -10013344.51347  22161927.769    22161926.9414   22161928.8584
        45.1004         42.1004
  -3998250.17544  -3080419.87046  23336127.640    23336126.8214   23336132.5414
        40.8004         38.3004
   1593899.47842   1262859.47145  24735733.099    24735731.0544   24735737.1834
        37.5004         35.5004
 -19788669.24547 -15401781.75648  20465763.053    20465763.0594   20465767.2624
        50.8004         48.0004
 16  6 23  1 28 30.0000000  0  7G 6G 7G 2G23G30G 3G 9
  -9471729.32346  -7141044.65947  21201833.005    21201833.4194   21201839.0084
        48.1004         45.2004
 -13700832.99646 -10659391.33947  21646970.537    21646970.9494   21646974.3644
        46.5004         43.7004
 -11096550.46145  -8626969.61747  21871357.017    21871356.4204   21871356.8024
        46.3004         43.5004
 -13130400.89045  -9957159.25647  22175649.047    22175649.5504   22175649.4464
        45.1004         42.5004
  -4106451.15644  -3164732.29146  23315537.086    23315537.5534   23315542.6804
        40.9004         38.6004
   1694517.68843   1341263.25945  24754879.304    24754879.4264   24754883.1074
        37.6004         35.7004
 -19751421.72947 -15372757.71048  20472850.573    20472850.7314   20472855.3254
        50.7004         48.0004
 16  6 23  1 29  0.0000000  0  7G 6G 7G 2G23G30G 3G 9
  -9413513.95046  -7095682.03947  21212910.953    21212911.4204   21212916.9784
        48.1004         45.2004
 -13773172.16646 -10715759.52847  21633206.025    21633205.8424   21633208.6264
        46.5004         43.7004
 -11135648.39145  -8657435.54447  21863917.024    21863916.4424   21863917.1954
        46.3004         43.5004
 -13058081.80745  -9900806.73647  22189411.147    22189410.5354   22189411.8604
        45.1004         42.5004
  -4214477.24444  -3248908.41846  23294981.171    23294979.8094   23294986.5974
        41.3004         38.8004
   1795235.18543   1419744.45245  24774041.274    24774043.0944   24774049.6064
        37.6004         35.5004
 -19713805.28747 -15343446.19148  20480009.194    20480009.0504   20480013.5644
        50.7004         48.0004
 16  6 23  1 29 30.0000000  0  7G 6G 7G 2G23G30G 3G 9
  -9354779.17046  -7049914.69847  21224087.913    21224088.4254   21224093.7614
        48.1004         45.1004
 -13845096.38846 -10771804.34147  21619519.160    21619519.4544   21619521.5274
        46.5004         43.7004
 -11174227.44145  -8687497.14047  21856576.017    21856574.9604   21856575.6394
        46.2004         43.2004
 -12985549.28745  -9844287.89747  22203213.683    22203213.9264   22203214.2634
        45.1004         42.3004
  -4322325.81344  -3332946.22546  23274456.435    23274456.6954   23274463.7514
        41.5004         39.0004
   1896051.12343   1498302.32345  24793225.511    24793228.2174   24793235.0574
        38.0004         35.9004
 -19675821.21247 -15313848.20847  20487237.117    20487237.1054   20487241.5044
        50.7004         47.8004
 16  6 23  1 30  0.0000000  0  7G 6G 7G 2G23G30G 3G 9
  -9295526.87746  -7003744.09047  21235363.337    21235363.7424   21235368.6514
        47.9004         45.1004
 -13916603.09746 -10827523.83847  21605911.435    21605911.3874   21605913.9194
        46.5004         43.7004
 -11212286.30245  -8717153.38947  21849332.880    21849332.7314   21849333.3504
        46.2004         43.3004
 -12912804.77045  -9787603.86247  22217056.906    22217056.0774   22217057.3674
        45.1004         42.1004
  -4429994.21444  -3416843.65646  23253968.722    23253969.0134   23253974.7784
        41.8004         39.3004
   1996964.50043   1576936.11645  24812432.046    24812431.2174   24812436.7594
        37.8004         35.7004
 -19637470.75147 -15283964.73147  20494534.598    20494534.6924   20494539.3804
        50.7004         47.7004
 16  6 23  1 30 30.0000000  0  7G 6G 7G 2G23G30G 3G 9
  -9235758.93546  -6957171.67847  21246736.635    21246736.4594   21246742.8904
        47.9004         45.1004
 -13987690.89546 -10882916.91247  21592383.745    21592384.2924   21592386.2654
        46.5004         43.9004
 -11249823.25945  -8746402.96747  21842190.943    21842189.9164   21842190.2764
        46.2004         43.2004
 -12839849.55445  -9730755.64747  22230939.891    22230940.5404   22230940.3774
        45.1004         42.3004
  -4537479.92144  -3500598.72746  23233517.265    23233515.7234   23233520.6764
        42.2004         39.7004
   2097974.31243   1655645.07545  24831657.207    24831653.2384   24831659.8244
        37.8004         35.7004
 -19598755.18147 -15253796.75147  20501902.224    20501901.8404   20501906.6814
        50.5004         47.7004
 16  6 23  1 31  0.0000000  0  8G 6G 7G 2G23G30G 3G 9G16
  -9175477.23146  -6910198.92347  21258207.225    21258208.0404   21258213.8574
        47.9004         44.9004
 -14058357.46946 -10937981.76247  21578936.220    21578937.1124   21578939.4644
        46.7004         44.0004
 -11286837.14445  -8775244.94747  21835146.269    21835145.8574   21835147.0494
        46.0004         43.2004
 -12766684.69745  -9673744.07947  22244862.788    22244862.0224   22244862.5044
        45.1004         42.1004
  -4644780.33744  -3584209.40746  23213096.780    23213097.1344   23213103.2564
        42.3004         39.9004
   2199079.54643   1734428.38045  24850896.287    24850894.0254   24850900.4904
        37.8004         35.7004
 -19559675.77947 -15223345.26047  20509338.497    20509338.2404   20509342.8934
        50.3004         47.5004
                    -41545.89354  24272511.840
                        29.1004
 16  6 23  1 31 30.0000000  0  7G 6G 7G 2G23G30G 3G 9
  -9114683.65346  -6862827.31747  21269776.802    21269777.2954   21269781.9954
        47.9004         44.9004
 -14128600.66246 -10992716.70947  21565569.538    21565570.3014   21565572.5154
        46.9004         44.0004
 -11323326.53545  -8803678.22747  21828202.875    21828201.9664   21828203.1834
        46.0004         43.3004
 -12693311.78645  -9616570.38447  22258825.011    22258825.1164   22258825.4664
        44.9004         42.3004
  -4751892.81644  -3667673.65746  23192714.882    23192714.4534   23192719.8604
        42.3004         39.7004
   2300279.30342   1813285.31045  24870151.910    24870151.3414   24870156.7134
        37.3004         35.0004
 -19520233.83847 -15192611.27847  20516843.701    20516843.8124   20516848.4054
        50.3004         47.5004
 16  6 23  1 32  0.0000000  0  8G 6G 7G 2G23G30G 3G 9G16
  -9053380.18746  -6815058.39047  21281441.353    21281442.1164   21281447.9964
        47.7004         44.7004
 -14198418.82346 -11047120.46047  21552283.494    21552283.7004   21552286.8154
        47.0004         44.2004
 -11359289.73845  -8831701.50847  21821359.228    21821358.6934   21821359.8074
        46.0004         43.0004
 -12619731.94245  -9559235.46146  22272826.252    22272826.1274   22272826.2504
        44.9004         41.8004
  -4858814.77044  -3750989.43246  23172367.443    23172367.2304   23172373.2964
        42.3004         39.7004
   2401572.59542   1892215.13745  24889427.778    24889425.2694   24889432.2104
        36.8004         34.8004
 -19480430.59947 -15161595.76547  20524417.858    20524418.2284   20524423.0434
        50.3004         47.5004
                    -11078.11443  24259124.844
                        23.4004
 16  6 23  1 32 30.0000000  0  7G 6G 7G 2G23G30G 3G 9
  -8991568.74146  -6766893.63247  21293204.379    21293204.6764   21293210.4474
        47.7004         44.9004
 -14267810.10946 -11101191.58147  21539079.242    21539079.4144   21539082.0374
        47.0004         44.2004
 -11394725.58945  -8859313.86247  21814616.043    21814615.7284   21814616.3334
        46.0004         43.2004
 -12545946.62145  -9501740.40147  22286867.809    22286867.0864   22286867.1034
        44.8004         42.3004
  -4965543.64644  -3834154.76646  23152059.142    23152058.1014   23152063.0074
        42.3004         39.5004
   2502958.35042   1971217.04945  24908717.901    24908716.9604   24908725.1764
        36.8004         34.8004
 -19440267.37147 -15130299.73947  20532061.296    20532061.3124   20532065.7124
        50.3004         47.5004
 16  6 23  1 33  0.0000000  0  8G 6G 7G 2G23G30G 3G 9G16
  -8929251.29546  -6718334.59847  21305063.605    21305063.7964   21305068.9314
        47.7004         44.9004
 -14336771.98046 -11154928.08447  21525955.904    21525955.9844   21525959.0194
        47.0004         44.2004
 -11429632.78345  -8886514.27047  21807973.779    21807973.0534   21807974.3974
        46.2004         43.5004
 -12471957.00045  -9444086.16047  22300948.287    22300947.5874   22300947.8114
        44.9004         42.3004
  -5072076.81844  -3917167.58846  23131787.465    23131785.6724   23131791.1404
        42.3004         39.9004
   2604435.57942   2050290.21045  24928022.259    24928027.0204   24928035.2454
        36.6004         34.5004
 -19399745.41547 -15098724.18547  20539772.151    20539772.2494   20539776.8754
        50.3004         47.5004
                    -64197.22145  24246152.225
                        35.2004
 16  6 23  1 33 30.0000000  0  8G 6G 7G 2G23G30G 3G 9G16
  -8866429.82846  -6669382.81547  21317017.723    21317018.4764   21317024.2824
        47.9004         45.1004
 -14405303.02146 -11208328.88447  21512914.527    21512914.8454   21512917.6024
        46.9004         44.2004
 -11464009.64945  -8913301.43747  21801432.066    21801431.1374   21801431.8904
        46.3004         43.5004
 -12397764.07045  -9386273.48847  22315065.781    22315065.7824   22315065.1944
        44.9004         42.1004
  -5178411.70444  -4000025.90146  23111551.320    23111550.3204   23111555.8054
        42.3004         39.7004
   2706003.43742   2129434.00145  24947355.828    24947358.0104   24947364.1834
        36.6004         34.8004
 -19358866.03647 -15066870.12347  20547551.846    20547551.6984   20547556.2344
        50.3004         47.7004
                    -90116.13045  24239820.988                    24239823.5474
                        35.2004
 16  6 23  1 34  0.0000000  0  8G 6G 7G 2G23G30G 3G 9G16
  -8803106.34746  -6620039.85647  21329067.590    21329068.4124   21329073.6584
        47.7004         44.9004
 -14473401.20446 -11261392.38847  21499955.893    21499956.4704   21499959.3374
        46.9004         44.2004
 -11497855.06045  -8939674.47947  21794991.623    21794990.8634   21794992.3484
        46.3004         43.5004
 -12323369.40845  -9328303.62547  22329223.031    22329222.9754   22329222.8654
        44.9004         42.1004
  -5284545.68444  -4082727.68246  23091353.850    23091353.2484   23091359.5784
        42.5004         39.9004
   2807660.75742   2208647.49745  24966708.299    24966702.5064   24966707.4364
        36.1004         34.5004
 -19317630.48547 -15034738.52547  20555398.252    20555398.2014   20555403.2844
        50.5004         47.7004
   -263480.89042   -115605.63345  24233596.370    24233594.6114   24233598.9614
        36.8004         35.0004
 16  6 23  1 34 30.0000000  0  9G 6G26G 7G 2G23G30G 3G 9G16
  -8739282.85946  -6570307.27247  21341212.890    21341213.4274   21341218.5514
        47.7004         44.9004
     53969.46552     37675.83255  25024829.581    25024828.0174   25024834.6894
        36.4004         35.5004
 -14541064.63646 -11314117.13047  21487080.842    21487080.6424   21487083.5904
        47.0004         44.2004
 -11531167.48645  -8965632.22547  21788652.005    21788651.1984   21788652.2144
        46.3004         43.5004
 -12248774.05445  -9270177.37946  22343417.481    22343417.2574   22343418.3994
        44.8004         41.9004
  -5390476.19744  -4165270.90246  23071195.458    23071196.1714   23071200.9964
        42.5004         39.9004
   2909406.68542   2287930.03345  24986067.676    24986065.5484   24986068.7294
        36.4004         34.5004
 -19276040.09247 -15002330.42247  20563312.853    20563312.8604   20563317.8804
        50.5004         47.7004
   -295640.28852   -140664.87455  24227476.508    24227474.6994   24227478.7314
        36.4004         34.5004
 16  6 23  1 35  0.0000000  0  9G 6G26G 7G 2G23G30G 3G 9G16
  -8674961.40046  -6520186.66347  21353453.317    21353453.9574   21353458.7544
        47.7004         44.9004
     74456.17042     53639.50145  25028728.107    25028726.7824   25028733.4354
        37.1004         35.2004
 -14608291.08746 -11366501.36947  21474287.916    21474288.3064   21474291.0064
        47.0004         44.2004
 -11563945.83445  -8991173.79147  21782414.461    21782414.0364   21782414.9694
        46.2004         43.2004
 -12173979.27145  -9211895.74346  22357650.534    22357650.3224   22357651.4074
        44.6004         41.9004
  -5496200.65844  -4247653.56646  23051077.430    23051076.5984   23051082.4874
        42.3004         39.7004
   3011240.11142   2367280.75445  25005438.304    25005440.4884   25005447.1474
        37.0004         35.0004
 -19234096.12547 -14969646.81147  20571294.062    20571294.0664   20571299.1434
        50.3004         47.5004
   -327245.60842   -165292.35845  24221460.096    24221459.7864   24221462.0904
        36.1004         34.1004
 16  6 23  1 35 30.0000000  0  9G 6G26G 7G 2G23G30G 3G 9G16
  -8610144.01946  -6469679.61447  21365786.982    21365787.4724   21365793.4044
        47.7004         44.7004
     95491.71852     70030.84155  25032730.115    25032730.6984   25032735.5644
        36.8004         34.8004
 -14675078.95846 -11418543.84947  21461578.573    21461578.7984   21461580.9154
        47.0004         44.2004
 -11596188.83145  -9016298.20647  21776279.010    21776278.1994   21776278.6134
        46.2004         43.3004
 -12098986.65545  -9153459.92946  22371921.121    22371921.3564   22371922.1904
        44.6004         41.8004
  -5601716.45044  -4329873.63646  23030998.154    23030997.3754   23031003.7714
        42.3004         39.7004
   3113160.09842   2446698.97645  25024832.844    25024836.4334   25024841.8544
        37.0004         35.0004
 -19191799.87847 -14936688.69547  20579342.828    20579342.8354   20579347.7984
        50.3004         47.5004
   -358294.82742   -189486.49645  24215553.685    24215551.8064   24215557.6924
        35.7004         34.1004
 16  6 23  1 36  0.0000000  0  9G 6G26G 7G 2G23G30G 3G 9G16
  -8544832.78846  -6418787.76647  21378215.722    21378215.9134   21378220.9304
        47.5004         44.5004
    117075.50542     86849.38045  25036838.218    25036836.5474   25036843.6304
        37.3004         35.5004
 -14741426.48946 -11470243.20647  21448952.652    21448953.0234   21448955.3724
        47.0004         44.2004
 -11627895.15645  -9041004.43247  21770245.579    21770244.9424   21770245.4034
        46.0004         43.2004
 -12023797.38345  -9094870.89746  22386228.545    22386228.8654   22386229.5204
        44.6004         41.8004
  -5707020.98844  -4411929.10146  23010958.755    23010959.1074   23010964.2954
        42.3004         39.5004
   3215165.70142   2526183.85745  25044248.177    25044247.2224   25044253.1474
        36.4004         34.5004
 -19149152.64247 -14903457.07747  20587458.580    20587458.6224   20587463.3774
        50.3004         47.5004
   -388786.51542   -213246.24045  24209749.378    24209750.9694   24209754.8154
        36.6004         35.0004
 16  6 23  1 36 30.0000000  0  9G 6G26G 7G 2G23G30G 3G 9G16
  -8479029.76846  -6367512.70147  21390737.172    21390737.4644   21390743.5354
        47.4004         44.5004
    139207.02342    104094.69545  25041048.534    25041049.0924   25041054.9854
        37.3004         35.5004
 -14807331.94246 -11521598.08147  21436411.035    21436411.3964   21436413.9474
        47.0004         44.2004
 -11659063.37345  -9065291.35147  21764313.414    21764313.0384   21764313.9734
        45.8004         43.0004
 -11948412.43545  -9036129.39046  22400575.472    22400574.8864   22400574.7664
        44.6004         41.8004
  -5812111.68044  -4493817.92846  22990961.350    22990960.7894   22990966.3314
        42.3004         39.7004
   3317255.85142   2605734.62045  25063674.399    25063676.7284   25063679.1354
        35.6004         33.6004
 -19106155.70547 -14869952.97447  20595640.160    20595640.3654   20595645.0664
        50.2004         47.5004
   -418718.80542   -236570.05745  24204054.998    24204056.2214   24204057.5814
        36.8004         34.8004
 16  6 23  1 37  0.0000000  0  9G 6G26G 7G 2G23G30G 3G 9G16
  -8412737.08446  -6315856.07447  21403352.243    21403352.6634   21403358.5484
        47.4004         44.4004
    161885.69542    121766.35645  25045364.905    25045363.6994   25045370.1574
        37.3004         35.2004
 -14872792.96346 -11572606.65047  21423955.017    21423954.5294   21423957.5084
        47.0004         44.2004
 -11689692.51645  -9089158.22247  21758485.773    21758485.2914   21758485.8594
        45.8004         43.0004
 -11872833.24645  -8977236.51846  22414956.809    22414957.1044   22414957.0584
        44.6004         41.8004
  -5916986.02544  -4575538.17746  22971004.505    22971004.0944   22971009.4354
        42.3004         39.9004
   3419429.53642   2685350.52845  25083115.624    25083114.1784   25083121.3314
        35.7004         34.0004
 -19062810.36747 -14836177.39147  20603888.611    20603888.7204   20603893.2264
        50.2004         47.3004
   -448089.67342   -259456.38745  24198464.837    24198466.3704   24198468.6934
        36.6004         34.6004
 16  6 23  1 37 30.0000000  0  9G 6G26G 7G 2G23G30G 3G 9G16
  -8345956.83046  -6263819.52747  21416061.018    21416061.1394   21416066.1194
        47.4004         44.5004
    185110.89043    139863.88445  25049784.320    25049784.8514   25049790.4194
        37.6004         35.7004
 -14937807.95846 -11623267.66747  21411582.696    21411582.6464   21411585.6124
        47.0004         44.2004
 -11719781.67445  -9112604.31247  21752759.950    21752759.2134   21752759.8694
        45.8004         43.0004
 -11797060.90845  -8918193.15246  22429376.899    22429375.8834   22429375.6944
        44.6004         41.8004
  -6021641.37944  -4657087.77446  22951089.162    22951088.6004   22951094.3854
        42.3004         39.9004
   3521685.77142   2765030.73045  25102578.165    25102576.0724   25102583.1564
        36.1004         34.6004
 -19019117.92447 -14802131.32847  20612203.432    20612203.2314   20612207.5724
        50.2004         47.3004
   -476897.92242   -281904.39245  24192986.549    24192984.0744   24192985.7714
        36.1004         34.3004
 16  6 23  1 38  0.0000000  0  9G 6G26G 7G 2G23G30G 3G 9G16
  -8278691.14846  -6211404.72047  21428860.407    21428860.7284   21428866.2714
        47.2004         44.2004
    208881.93842    158386.80445  25054306.646    25054306.9004   25054312.9434
        37.3004         35.2004
 -15002375.04246 -11673579.66447  21399296.048    21399296.3694   21399299.0454
        47.2004         44.4004
 -11749328.88145  -9135628.10147  21747137.073    21747136.4234   21747136.9464
        45.8004         43.0004
 -11721096.80945  -8859000.34546  22443831.862    22443831.2724   22443830.7864
        44.4004         41.4004
  -6126075.11544  -4738464.69746  22931214.976    22931215.6844   22931220.4804
        42.3004         39.7004
   3624023.55242   2844774.41845  25122047.272    25122048.6324   25122054.0434
        36.3004         34.5004
 -18975079.66947 -14767815.80347  20620583.700    20620583.5374   20620587.7234
        50.2004         47.3004
   -505141.86342   -303912.60145  24187609.628    24187609.0074   24187611.1624
        35.9004         34.1004
 16  6 23  1 38 30.0000000  0  9G 6G26G 7G 2G23G30G 3G 9G16
  -8210942.19246  -6158613.33347  21441752.759    21441753.2254   21441758.4944
        47.0004         44.4004
    233198.25042    177334.58245  25058933.237    25058934.3794   25058941.8924
        37.3004         35.3004
 -15066492.61546 -11723541.40047  21387095.106    21387095.3414   21387097.4314
        47.2004         44.4004
 -11778333.38345  -9158229.00247  21741617.697    21741617.4014   21741617.7794
        46.0004         43.2004
 -11644942.03245  -8799658.96546  22458323.230    22458323.2764   22458323.3894
        44.4004         41.6004
  -6230284.76044  -4819666.99646  22911385.675    22911385.4874   22911389.8924
        42.3004         39.7004
   3726441.83342   2924580.93045  25141535.055    25141538.8444   25141546.9204
        36.6004         34.8004
 -18930696.91347 -14733231.83147  20629029.440    20629029.2664   20629034.1824
        50.2004         47.3004
   -532819.89142   -325479.87645  24182340.695    24182342.3414   24182343.6764
        35.9004         34.3004
 16  6 23  1 39  0.0000000  0  9G 6G26G 7G 2G23G30G 3G 9G16
  -8142712.09346  -6105447.03947  21454736.562    21454737.1884   21454742.4984
        47.2004         44.4004
    258059.16242    196706.67545  25063666.317    25063665.6794   25063670.8294
        37.3004         35.3004
 -15130159.01746 -11773151.56847  21374979.987    21374979.5314   21374982.4554
        47.2004         44.4004
 -11806793.78445  -9180405.94147  21736201.746    21736201.1204   21736202.3214
        46.0004         43.2004
 -11568597.91445  -8740170.04746  22472849.717    22472849.0904   22472852.5454
        44.2004         41.2004
  -6334267.68944  -4900692.62146  22891596.880    22891597.4124   22891604.0294
        42.5004         40.0004
   3828939.70342   3004449.42145  25161044.030    25161044.3634   25161049.3024
        36.4004         34.5004
 -18885970.95447 -14698380.43547  20637540.727    20637540.4824   20637544.7074
        50.2004         47.3004
   -559929.99542   -346604.60845  24177183.608    24177183.4304   24177185.0924
        36.3004         34.5004
 16  6 23  1 39 30.0000000  0  9G 6G26G 7G 2G23G30G 3G 9G16
  -8074002.91846  -6051907.42647  21467811.391    21467811.8694   21467817.6454
        47.2004         44.4004
    283463.86842    216502.57145  25068498.647    25068498.9734   25068505.7954
        37.5004         35.5004
 -15193372.18446 -11822408.57847  21362950.595    21362950.7824   21362953.2814
        47.2004         44.5004
 -11834709.27145  -9202158.27147  21730889.065    21730888.7974   21730890.4014
        46.0004         43.2004
 -11492065.58245  -8680534.46946  22487414.900    22487413.9014   22487415.0364
        44.2004         41.6004
  -6438021.32244  -4981539.59046  22871852.667    22871853.0734   22871860.0804
        42.5004         39.9004
   3931516.05742   3084379.07745  25180566.780    25180563.2534   25180569.3744
        36.8004         34.8004
 -18840903.08647 -14663262.61447  20646116.182    20646116.3004   20646120.9594
        50.2004         47.3004
   -586471.07042   -367285.92945  24172132.711    24172130.6144   24172134.9124
        36.4004         34.6004
 16  6 23  1 40  0.0000000  0  9G 6G26G 7G 2G23G30G 3G 9G16
  -8004817.12846  -5997996.42747  21480977.034    21480978.0824   21480983.7354
        47.4004         44.7004
    309411.81043    236721.71345  25073438.046    25073437.5014   25073445.1094
        37.8004         35.7004
 -15256130.70846 -11871311.30847  21351007.756    21351007.7194   21351010.4404
        47.4004         44.5004
 -11862078.40145  -9223484.88047  21725681.490    21725681.0444   21725681.7044
        46.0004         43.2004
 -11415346.30945  -8620753.21846  22502013.020    22502012.6664   22502014.8624
        44.2004         41.4004
  -6541543.13744  -5062205.91046  22852154.455    22852153.8534   22852159.3604
        42.3004         39.7004
   4034169.84542   3164369.07145  25200101.595    25200099.4444   25200103.1044
        37.5004         35.5004
 -18795494.58347 -14627879.36347  20654757.017    20654757.3204   20654762.0134
        50.0004         47.3004
   -612441.46542   -387522.59345  24167191.457    24167190.5844   24167192.5484
        36.6004         35.0004
 16  6 23  1 40 30.0000000  0  9G 6G26G 7G 2G23G30G 3G 9G16
  -7935156.77746  -5943715.64247  21494232.964    21494233.6684   21494239.2824
        47.4004         44.5004
    335902.12142    257363.48945  25078478.440    25078477.9434   25078484.6624
        37.3004         35.0004
 -15318432.29646 -11919857.98847  21339151.830    21339152.1734   21339155.3284
        47.4004         44.7004
 -11888900.10045  -9244384.90547  21720577.178    21720576.6284   21720578.0694
        46.0004         43.3004
 -11338441.39345  -8560827.33446  22516647.811    22516647.3404   22516649.1344
        44.2004         41.2004
  -6644830.52344  -5142689.54846  22832497.765    22832498.5304   22832505.1594
        42.3004         39.7004
   4136900.07542   3244418.65545  25219650.293    25219647.8704   25219652.9934
        37.1004         35.0004
 -18749746.80447 -14592231.74347  20663462.938    20663463.1594   20663467.4944
        50.2004         47.3004
   -637839.56042   -407313.30345  24162356.697    24162357.1024   24162359.2714
        37.0004         35.2004
 16  6 23  1 41  0.0000000  0  9G 6G26G 7G 2G23G30G 3G 9G16
  -7865024.09346  -5889066.80847  21507579.033    21507579.6744   21507585.1334
        47.4004         44.5004
    362934.10142    278427.38745  25083622.425    25083623.1454   25083629.0684
        36.6004         34.5004
 -15380275.32146 -11968047.33247  21327383.562    21327383.9044   21327386.9464
        47.5004         44.9004
 -11915173.64145  -9264857.78647  21715578.356    21715576.9864   21715578.5614
        46.2004         43.3004
 -11261352.10945  -8500757.77146  22531317.827    22531318.2724   22531317.6604
        44.1004         41.2004
  -6747880.98944  -5222988.58446  22812889.704    22812888.7424   22812895.1204
        42.5004         39.7004
   4239705.84542   3324527.07845  25239213.796    25239212.1554   25239216.5304
        36.8004         34.5004
 -18703661.02747 -14556320.74647  20672232.500    20672232.7054   20672237.4674
        50.0004         47.2004
   -662663.94443   -426656.95446  24157636.850    24157634.5724   24157636.6804
        37.8004         36.0004
 16  6 23  1 41 30.0000000  0  8G 6G26G 7G 2G23G30G 9G16
  -7794421.31346  -5834051.65847  21521014.837    21521015.0314   21521020.4844
        47.4004         44.5004
    390506.97842    299912.73645  25088868.926    25088871.0174   25088876.8394
        36.4004         34.5004
 -15441658.34146 -12015878.24847  21315703.019    21315703.2814   21315706.2024
        47.7004         45.1004
 -11940897.76545  -9284902.56047  21710683.775    21710683.1104   21710682.9284
        46.3004         43.5004
 -11184079.50445  -8440545.35146  22546022.094    22546021.9464   22546023.4774
        44.1004         41.2004
  -6850691.85844  -5303100.94446  22793325.779    22793324.7844   22793330.0434
        42.5004         39.9004
 -18657238.53347 -14520147.36847  20681066.307    20681066.4724   20681071.4324
        50.0004         47.2004
   -686913.07443   -445552.34446  24153020.257    24153020.7534   24153023.0754
        38.2004         36.0004
 16  6 23  1 42  0.0000000  0  8G 6G26G 7G 2G23G30G 9G16
  -7723350.69446  -5778671.96547  21534538.368    21534539.1244   21534544.4564
        47.2004         44.4004
    418619.88242    321818.88445  25094219.112    25094219.9034   25094225.0364
        36.3004         34.5004
 -15502579.61346 -12063349.34747  21304110.250    21304110.1774   21304113.3654
        47.9004         45.1004
 -11966071.52745  -9304518.47747  21705892.944    21705892.1454   21705892.2424
        46.3004         43.5004
 -11106624.64445  -8380190.92446  22560761.886    22560761.5294   22560762.7474
        44.1004         41.4004
  -6953260.69344  -5383024.69146  22773808.041    22773807.5424   22773811.7694
        42.5004         39.9004
 -18610480.65547 -14483712.65947  20689964.500    20689964.4124   20689969.0854
        50.0004         47.2004
   -710585.68343   -463998.51845  24148517.672    24148516.9614   24148515.9274
        38.2004         35.7004
 16  6 23  1 42 30.0000000  0  8G 6G26G 7G 2G23G30G 9G16
  -7651814.50946  -5722929.50147  21548151.681    21548152.2474   21548157.6144
        47.2004         44.4004
    447272.03642    344145.21245  25099670.763    25099671.0234   25099678.1764
        36.4004         34.6004
 -15563037.29446 -12110459.22347  21292605.355    21292605.9214   21292608.3464
        47.9004         45.1004
 -11990693.78546  -9323704.64447  21701207.788    21701206.8374   21701207.8384
        46.5004         43.9004
 -11028988.88945  -8319695.54846  22575534.329    22575534.9404   22575534.9424
        43.7004         41.1004
  -7055584.87444  -5462757.80446  22754335.681    22754335.2344   22754341.1994
        42.7004         40.2004
 -18563388.70047 -14447017.63247  20698926.483    20698926.1824   20698930.3684
        50.0004         47.2004
   -733680.04642   -481994.08845  24144120.291    24144120.1254   24144124.1624
        37.5004         35.2004
 16  6 23  1 43  0.0000000  0  8G 6G26G 7G 2G23G30G 9G16
  -7579815.00246  -5666825.99647  21561852.537    21561853.1244   21561858.0384
        47.0004         44.2004
    476462.61642    366891.08145  25105226.421    25105226.4004   25105231.5524
        36.1004         34.1004
 -15623030.04946 -12157206.80547  21281190.059    21281189.6944   21281191.7304
        48.1004         45.2004
 -12014763.56546  -9342460.32847  21696626.627    21696626.2634   21696627.1154
        46.5004         43.5004
 -10951173.31145  -8259060.02446  22590342.713    22590343.1184   22590343.2944
        43.7004         41.1004
  -7157661.87344  -5542298.29946  22734910.461    22734910.0984   22734917.2814
        42.9004         40.2004
 -18515963.96247 -14410063.28747  20707949.937    20707950.0064   20707954.5534
        50.0004         47.2004
   -756194.83542   -499538.08845  24139834.609    24139835.6964   24139836.5324
        36.6004         34.3004
 16  6 23  1 43 30.0000000  0  8G 6G26G 7G 2G23G30G 9G16
  -7507354.50946  -5610363.28547  21575641.754    21575641.6924   21575647.0654
        47.0004         44.0004
    506190.70942    390055.81345  25110881.965    25110883.6654   25110889.3154
        35.7004         34.1004
 -15682555.81646 -12203590.51147  21269862.332    21269861.9584   21269864.6774
        47.9004         45.1004
 -12038279.92245  -9360784.76447  21692152.158    21692151.4854   21692151.9294
        46.3004         43.5004
 -10873179.43945  -8198285.59646  22605184.952    22605184.6114   22605184.2634
        43.9004         41.1004
  -7259489.13144  -5621644.19046  22715534.084    22715533.8404   22715539.5244
        42.9004         40.2004
 -18468207.75647 -14372850.65647  20717038.379    20717038.5154   20717042.6174
        50.0004         47.2004
   -778128.92942   -516629.57045  24135660.541    24135660.0054   24135663.1084
        36.4004         34.6004
 16  6 23  1 44  0.0000000  0  8G 6G26G 7G 2G23G30G 9G16
  -7434435.29246  -5553543.12747  21589517.206    21589517.9564   21589523.0134
        46.9004         44.0004
    536455.34742    413638.63145  25116643.122    25116642.7964   25116646.5384
        35.9004         34.5004
 -15741613.14546 -12249609.20147  21258623.659    21258624.1194   21258625.9984
        47.9004         45.1004
 -12061241.71445  -9378677.06247  21687781.891    21687781.9544   21687781.9594
        46.3004         43.5004
 -10795008.27645  -8137373.01846  22620060.697    22620060.8094   22620060.2464
        43.9004         41.1004
  -7361064.12744  -5700793.50946  22696205.919    22696204.7544   22696210.0364
        43.0004         40.4004
 -18420121.38747 -14335380.75847  20726188.583    20726188.6154   20726193.3454
        50.0004         47.2004
   -799480.86442   -533267.44445  24131596.157    24131596.8134   24131601.5874
        36.6004         34.8004
 16  6 23  1 44 30.0000000  0  8G 6G26G 7G 2G23G30G 9G16
  -7361059.72546  -5496367.36747  21603480.059    21603480.4514   21603486.0944
        46.7004         43.9004
    567255.74542    437638.90445  25122502.995    25122502.5174   25122511.1444
        35.7004         34.1004
 -15800200.53046 -12295261.69747  21247475.546    21247475.3374   21247477.3874
        47.9004         45.1004
 -12083648.03745  -9396136.54147  21683518.482    21683518.1344   21683518.5784
        46.3004         43.7004
 -10716660.92345  -8076323.12946  22634969.384    22634969.5964   22634968.6594
        43.9004         41.2004
  -7462384.28844  -5779744.25746  22676924.512    22676924.7054   22676930.4064
        43.2004         40.7004
 -18371706.15747 -14297654.59847  20735401.212    20735401.5534   20735406.5894
        50.0004         47.2004
   -820249.31442   -549450.62945  24127645.864    24127645.3994   24127648.6564
        36.8004         34.6004
 16  6 23  1 45  0.0000000  0  8G 6G26G 7G 2G23G30G 9G16
  -7287230.11746  -5438837.81347  21617529.525    21617529.8404   21617535.8404
        46.7004         43.9004
    598590.87542    462055.88645  25128466.261    25128465.8934   25128471.9034
        35.9004         34.1004
 -15858316.17046 -12340546.59347  21236415.724    21236416.2564   21236418.7154
        47.9004         45.1004
 -12105498.23246  -9413162.66747  21679360.930    21679360.7664   21679360.7044
        46.7004         44.0004
 -10638138.73145  -8015137.02146  22649911.942    22649911.1974   22649912.1944
        43.9004         41.4004
  -7563447.12544  -5858494.50546  22657692.272    22657692.9434   22657698.1044
        43.4004         40.7004
 -18322963.36747 -14259673.20347  20744676.704    20744676.7054   20744681.9864
        50.0004         47.0004
   -840432.85342   -565178.08145  24123803.448    24123803.7384   24123806.2554
        36.4004         34.6004
 16  6 23  1 45 30.0000000  0  8G 6G26G 7G 2G23G30G 9G16
  -7212948.80746  -5380956.27847  21631665.490    21631666.1324   21631670.4264
        46.7004         44.0004
    630459.79142    486888.79545  25134530.337    25134529.2864   25134536.7524
        36.3004         34.5004
 -15915958.29546 -12385462.52647  21225447.044    21225447.3194   21225449.4544
        47.9004         45.1004
 -12126791.28346  -9429754.64747  21675309.026    21675308.8004   21675308.6664
        46.9004         43.9004
 -10559442.46145  -7953815.26346  22664888.168    22664886.8194   22664887.6564
        43.9004         41.2004
  -7664250.09644  -5937042.24746  22638510.380    22638510.1734   22638515.6254
        43.4004         40.7004
 -18273894.34047 -14221437.59047  20754014.202    20754014.3064   20754019.5084
        49.8004         47.0004
   -860030.29142   -580448.77645  24120074.641    24120074.5724   24120079.8974
        36.6004         34.8004
 16  6 23  1 46  0.0000000  0  8G 6G26G 7G 2G23G30G 9G16
  -7138218.17946  -5322724.63847  21645885.603    21645886.0824   21645891.9574
        46.9004         43.9004
    662861.56742    512136.88345  25140695.917    25140697.6154   25140702.4624
        35.9004         34.0004
 -15973125.80346 -12430008.62147  21214568.372    21214568.6184   21214570.9644
        47.9004         44.9004
 -12147526.22146  -9445911.74247  21671363.410    21671362.7804   21671362.9564
        46.9004         44.0004
 -10480573.38145  -7892358.87646  22679895.775    22679896.5584   22679894.5014
        43.9004         41.1004
  -7764790.61944  -6015385.47846  22619377.278    22619377.0774   22619383.3834
        43.4004         40.7004
 -18224500.37847 -14182948.78447  20763413.928    20763413.7974   20763418.8254
        49.8004         47.0004
   -879040.45942   -595261.88645  24116457.789    24116457.4784   24116460.5974
        37.0004         35.2004
 16  6 23  1 46 30.0000000  0  8G 6G26G 7G 2G23G30G 9G16
  -7063040.56946  -5264144.69347  21660191.488    21660191.8624   21660198.0404
        46.9004         43.9004
    695795.10242    537799.33145  25146963.645    25146963.9314   25146968.0294
        36.3004         34.3004
 -16029816.89746 -12474183.48747  21203779.990    21203780.6184   21203782.7244
        47.7004         44.9004
 -12167702.11246  -9461633.21647  21667523.640    21667523.3924   21667523.7974
        46.7004         43.9004
 -10401533.25445  -7830769.16946  22694936.725    22694935.7874   22694935.8044
        43.7004         40.9004
  -7865066.21345  -6093522.28946  22600295.928    22600296.1884   22600301.5434
        43.6004         40.7004
 -18174782.80847 -14144207.81547  20772874.726    20772875.2284   20772879.7554
        49.8004         47.0004
   -897461.88142   -609616.25245  24112953.640    24112952.0004   24112953.6094
        37.1004         35.0004
 16  6 23  1 47  0.0000000  0  8G 6G26G 7G 2G23G30G 9G16
  -6987418.38846  -5205218.33047  21674582.063    21674582.7814   21674587.8004
        46.7004         43.9004
    729259.43542    563875.43445  25153330.436    25153330.0234   25153338.7084
        36.3004         34.5004
 -16086029.97446 -12517985.86247  21193083.641    21193083.2934   21193085.7694
        47.7004         44.9004
 -12187318.32946  -9476918.57447  21663790.354    21663789.3574   21663790.7894
        46.5004         43.7004
 -10322322.91245  -7769046.83246  22710010.326    22710009.4354   22710010.1914
        43.7004         41.1004
  -7965074.36945  -6171450.70046  22581266.204    22581265.7874   22581270.7174
        43.6004         40.9004
 -18124742.89447 -14105215.67847  20782397.272    20782397.6924   20782401.9914
        49.8004         47.0004
   -915293.62842   -623511.10545  24109560.335    24109559.4574   24109562.1564
        37.0004         35.0004
 16  6 23  1 47 30.0000000  0  8G 6G26G 7G 2G23G30G 9G16
  -6911354.06146  -5145947.44347  21689056.417    21689056.6564   21689062.4154
        46.5004         43.5004
    763253.57842    590364.36145  25159801.394    25159801.3374   25159805.6724
        36.1004         34.3004
 -16141763.41546 -12561414.50347  21182477.510    21182477.6764   21182479.7264
        47.7004         44.9004
 -12206373.85046  -9491767.02047  21660164.611    21660163.5794   21660164.5604
        46.5004         43.9004
 -10242943.55545  -7707192.80346  22725115.267    22725114.5904   22725114.9464
        43.7004         40.6004
  -8064812.55545  -6249168.73946  22562285.789    22562285.1034   22562290.9674
        43.6004         40.7004
 -18074381.97147 -14065973.40447  20791980.721    20791980.6374   20791984.9734
        49.8004         46.8004
   -932534.34442   -636945.38145  24106276.699    24106275.4364   24106281.3174
        36.6004         34.5004
 16  6 23  1 48  0.0000000  0  8G 6G26G 7G 2G23G30G 9G16
  -6834849.96145  -5086333.86647  21703614.611    21703615.5964   21703620.0594
        46.3004         43.5004
    797776.34642    617265.22345  25166367.359    25166369.3514   25166377.5334
        35.7004         34.0004
 -16197015.87346 -12604468.35147  21171963.114    21171963.3484   21171965.8094
        47.7004         44.7004
 -12224867.86946  -9506177.94247  21656645.631    21656645.0694   21656645.6884
        46.9004         44.0004
 -10163396.14944  -7645207.83446  22740251.758    22740251.9394   22740251.6814
        43.4004         40.6004
  -8164278.27345  -6326674.46446  22543357.634    22543357.7344   22543363.3184
        43.6004         40.9004
 -18023701.32947 -14026482.00047  20801625.296    20801625.2284   20801629.2974
        49.8004         47.0004
   -949182.95342   -649918.30845  24103112.794    24103110.7124   24103112.5884
        36.6004         34.6004
 16  6 23  1 48 30.0000000  0  8G 6G26G 7G 2G23G30G 9G16
  -6757908.52145  -5026379.51847  21718256.446    21718256.9304   21718262.2374
        46.3004         43.7004
    832826.75742    644577.22945  25173038.497    25173040.3194   25173044.7664
        35.7004         34.1004
 -16251785.83746 -12647146.25047  21161541.165    21161541.3034   21161543.1754
        47.7004         44.9004
 -12242799.84946  -9520150.91647  21653231.778    21653231.4234   21653232.8214
        46.7004         43.7004
 -10083681.65744  -7583092.66646  22755422.872    22755421.8534   22755421.1514
        43.4004         40.7004
  -8263469.03645  -6403965.93346  22524481.991    22524481.9794   22524488.3624
        43.6004         41.1004
 -17972702.30947 -13986742.50447  20811329.622    20811329.8474   20811333.9864
        49.6004         46.8004
   -965238.56942   -662429.14945  24100054.613    24100055.6124   24100059.1214
        37.3004         35.5004
 16  6 23  1 49  0.0000000  0  8G 6G26G 7G 2G23G30G 9G16
  -6680532.22245  -4966086.30647  21732980.360    21732981.1204   21732986.2294
        46.3004         43.7004
    868403.64342    672299.47945  25179808.579    25179808.9104   25179817.8034
        35.6004         33.8004
 -16306071.74946 -12689446.94747  21151210.936    21151210.9414   21151212.9204
        47.7004         44.9004
 -12260168.81046  -9533685.17047  21649927.585    21649926.7964   21649927.8124
        46.5004         43.7004
 -10003801.66745  -7520848.51946  22770621.722    22770622.2914   22770622.9864
        43.6004         40.7004
  -8362382.27245  -6481041.16246  22505658.859    22505659.1084   22505665.6494
        43.7004         41.1004
 -17921386.19347 -13946755.91547  20821094.497    20821094.9474   20821098.9604
        49.6004         46.8004
   -980699.91843   -674476.95546  24097113.422    24097113.5354   24097117.1234
        38.2004         36.4004
 16  6 23  1 49 30.0000000  0  8G 6G26G 7G 2G23G30G 9G16
  -6602723.46345  -4905456.12047  21747786.661    21747787.7474   21747793.4514
        46.3004         43.5004
    904505.85742    700431.07145  25186680.739    25186680.3594   25186684.9824
        34.9004         33.4004
 -16359872.35946 -12731369.48547  21140972.718    21140973.0924   21140975.2944
        47.7004         44.9004
 -12276974.34246  -9546780.38547  21646729.296    21646728.8364   21646729.6584
        46.5004         43.5004
  -9923757.16444  -7458476.19846  22785853.668    22785852.4284   22785853.9444
        43.4004         40.4004
  -8461015.53445  -6557898.22846  22486891.254    22486890.6164   22486896.4194
        43.7004         41.2004
 -17869754.28047 -13906523.26047  20830920.257    20830920.1994   20830924.1534
        49.6004         46.8004
   -995565.81143   -686060.77746  24094285.881    24094284.4004   24094287.5824
        38.5004         36.2004
 16  6 23  1 50  0.0000000  0  8G 6G26G 7G 2G23G30G 9G16
  -6524484.74745  -4844490.90547  21762675.562    21762676.4364   21762681.5214
        46.3004         43.7004
    941132.36542    728971.19345  25193647.089    25193649.3974   25193659.5744
        35.0004         33.8004
 -16413186.21946 -12772912.74047  21130827.732    21130827.8044   21130829.5434
        47.9004         45.1004
 -12293215.57445  -9559435.89547  21643637.497    21643637.7604   21643639.5254
        46.3004         43.5004
  -9843549.38144  -7395976.63946  22801116.590    22801116.9554   22801118.0364
        43.4004         40.6004
  -8559366.28045  -6634535.14746  22468175.439    22468174.7024   22468180.4114
        43.9004         41.2004
 -17817807.91547 -13866045.57247  20840804.641    20840804.9824   20840809.7264
        49.6004         46.8004
  -1009835.39343   -697179.94545  24091569.408    24091567.8494   24091573.1474
        38.0004         35.5004
 16  6 23  1 50 30.0000000  0  8G 6G26G 7G 2G23G30G 9G16
  -6445818.49346  -4783192.53847  21777645.440    21777645.7794   21777651.7164
        46.5004         43.7004
    978281.84241    757918.79745  25200717.831    25200717.1874   25200722.9504
        34.3004         32.9004
 -16466011.44746 -12814075.24547  21120775.180    21120775.2104   21120777.7774
        47.9004         45.1004
 -12308891.74945  -9571651.09847  21640655.525    21640654.8664   21640656.0714
        46.3004         43.5004
  -9763179.10545  -7333350.45846  22816410.972    22816411.1804   22816412.1744
        43.6004         40.9004
  -8657432.10845  -6710950.05246  22449513.528    22449513.5834   22449519.5144
        43.9004         41.2004
 -17765548.35547 -13825323.83547  20850749.731    20850749.7554   20850754.2554
        49.6004         46.8004
  -1023507.49442   -707833.54645  24088967.544    24088966.4694   24088968.8464
        37.1004         35.0004
 16  6 23  1 51  0.0000000  0  8G 6G26G 7G 2G23G30G 9G16
  -6366727.24445  -4721563.00747  21792695.424    21792696.5244   21792701.7864
        46.3004         43.7004
   1015953.21041    787273.10245  25207886.275    25207886.9554   25207894.9894
        34.0004         32.9004
 -16518346.75146 -12854855.98747  21110816.203    21110816.2704   21110818.3234
        47.9004         45.1004
 -12324002.09845  -9583425.39147  21637779.907    21637779.2234   21637780.4884
        46.3004         43.5004
  -9682647.88544  -7270598.88046  22831735.544    22831735.9624   22831735.8254
        43.4004         40.7004
  -8755210.46145  -6787140.95246  22430906.523    22430907.1804   22430911.9234
        43.9004         41.2004
 -17712976.92047 -13784359.07947  20860753.531    20860753.4894   20860758.6914
        49.8004         47.0004
  -1036581.01542   -718020.66945  24086476.599    24086477.5384   24086481.8454
        36.6004         34.5004
 16  6 23  1 51 30.0000000  0  8G 6G26G 7G 2G23G30G 9G16
  -6287213.47246  -4659604.22447  21807826.479    21807827.4554   21807833.4834
        46.5004         43.7004
   1054145.25451    817033.14455  25215155.762    25215155.8914   25215168.2414
        33.7004         32.4004
 -16570191.00146 -12895254.06847  21100950.531    21100950.8974   21100953.0274
        48.1004         45.2004
 -12338546.15546  -9594758.43647  21635012.708    21635012.0784   21635013.6704
        46.5004         43.9004
  -9601956.70144  -7207722.65746  22847089.811    22847089.9884   22847091.4644
        43.2004         40.4004
  -8852698.88345  -6863105.93046  22412354.927    22412355.1274   22412360.6764
        43.9004         41.1004
 -17660094.94847 -13743152.35247  20870817.056    20870817.1174   20870821.6134
        49.8004         46.8004
  -1049055.31842   -727740.90245  24084104.762    24084105.7134   24084108.9414
        36.6004         34.8004
 16  6 23  1 52  0.0000000  0  8G 6G26G 7G 2G23G30G 9G16
  -6207279.67545  -4597318.16247  21823037.825    21823037.9534   21823043.6374
        46.3004         43.3004
   1092856.71251    847197.86855  25222518.509    25222519.0424   25222527.8884
        33.5004         32.2004
 -16621542.72246 -12935268.38647  21091178.621    21091178.6934   21091180.4214
        48.1004         45.2004
 -12352523.12546  -9605649.57147  21632353.386    21632352.6034   21632353.5184
        46.7004         43.7004
  -9521106.84544  -7144722.77046  22862476.137    22862474.6674   22862475.6644
        43.0004         40.2004
  -8949894.88945  -6938843.05746  22393859.686    22393859.6144   22393865.0074
        43.9004         41.1004
 -17606903.67347 -13701704.59647  20880938.976    20880938.8214   20880943.5684
        49.8004         46.8004
  -1060929.38042   -736993.44445  24081846.785    24081845.6984   24081848.4024
        37.0004         35.0004
 16  6 23  1 52 30.0000000  0  8G 6G26G 7G 2G23G30G 9G16
  -6126928.42745  -4534706.81047  21838327.010    21838327.9454   21838334.0354
        46.2004         43.3004
   1132086.30041    877766.32345  25229988.243    25229987.0714   25229993.5234
        33.3004         32.4004
 -16672400.46346 -12974897.78047  21081500.131    21081500.6394   21081502.6304
        48.1004         45.2004
 -12365932.53346  -9616098.46147  21629801.690    21629800.7474   21629801.4314
        46.5004         43.7004
  -9440099.06744  -7081599.85646  22877889.895    22877889.4864   22877891.6024
        43.0004         40.2004
  -9046796.04245  -7014350.43246  22375420.691    22375420.4094   22375425.0494
        43.9004         41.2004
 -17553404.46847 -13660016.89947  20891119.380    20891119.5024   20891123.9094
        49.6004         46.8004
  -1072201.89042   -745777.21345  24079697.417    24079701.0224   24079704.5044
        37.0004         35.0004
 16  6 23  1 53  0.0000000  0  8G 6G26G 7G 2G23G30G 9G16
  -6046162.17345  -4471772.08447  21853697.696    21853698.0664   21853703.6164
        46.2004         43.3004
   1171832.84351    908737.65455  25237550.251    25237551.1644   25237556.6094
        33.1004         32.4004
 -16722762.84346 -13014141.17847  21071916.440    21071916.7864   21071919.5544
        48.1004         45.2004
 -12378773.84546  -9626104.66747  21627358.035    21627357.0384   21627358.0394
        46.5004         43.9004
  -9358934.40544  -7018354.70446  22893335.401    22893335.9414   22893336.8974
        42.9004         40.0004
  -9143399.83045  -7089626.09146  22357037.953    22357037.2394   22357042.4064
        43.9004         41.2004
 -17499598.62047 -13618090.26747  20901358.105    20901358.3134   20901362.9324
        49.6004         46.8004
  -1082872.63542   -754092.08145  24077673.067    24077671.4704   24077672.9564
        37.1004         35.2004
 16  6 23  1 53 30.0000000  0  8G 6G26G 7G 2G23G30G 9G16
  -5964983.50345  -4408515.99647  21869144.567    21869144.8234   21869151.9834
        46.0004         43.2004
   1212095.01041    940110.72545  25245210.868    25245212.9434   25245215.0184
        32.6004         31.9004
 -16772628.95246 -13052997.88247  21062427.398    21062428.0214   21062430.1934
        48.1004         45.1004
 -12391046.36946  -9635667.67947  21625022.857    21625021.8804   21625022.6454
        46.9004         44.0004
  -9277614.37344  -6954988.44346  22908809.403    22908809.9144   22908810.8524
        42.7004         39.7004
  -9239703.83945  -7164668.16846  22338711.447    22338710.8464   22338716.3134
        44.1004         41.2004
 -17445487.41347 -13575925.68747  20911655.236    20911655.0734   20911660.1834
        49.6004         46.6004
  -1092940.40442   -761937.12245  24075754.292    24075754.1684   24075758.2414
        37.3004         35.5004
 16  6 23  1 54  0.0000000  0  8G 6G26G 7G 2G23G30G 9G16
  -5883394.98645  -4344940.53147  21884670.448    21884671.1624   21884677.2004
        46.0004         43.3004
   1252871.46251    971884.61055  25252972.553    25252972.2694   25252975.8444
        32.8004         32.0004
 -16821996.73646 -13091466.26947  21053033.268    21053033.4464   21053035.8734
        47.9004         45.1004
 -12402749.59446  -9644787.08447  21622795.519    21622794.2104   21622795.4014
        46.7004         43.7004
  -9196139.86844  -6891501.84646  22924314.869    22924313.4424   22924315.7094
        42.7004         40.0004
  -9335705.59545  -7239474.71446  22320443.714    22320442.9614   22320448.0004
        44.1004         41.4004
 -17391072.12646 -13533524.16047  20922010.174    20922010.0224   20922014.9654
        49.5004         46.6004
  -1102404.11242   -769311.43945  24073956.002    24073953.2594   24073957.2734
        37.3004         35.2004
 16  6 23  1 54 30.0000000  0  8G 6G26G 7G 2G23G30G 9G16
  -5801399.17645  -4281047.71347  21900273.174    21900273.9704   21900280.4264
        46.0004         43.2004
   1294160.89441   1004058.15845  25260829.480    25260830.6104
        32.6004         31.9004
 -16870865.30646 -13129545.66247  21043733.445    21043733.8554   21043736.0344
        47.9004         45.1004
 -12413883.15946  -9653462.58547  21620676.910    21620676.4724   21620676.2614
        46.7004         43.9004
  -9114512.09744  -6827895.79746  22939846.838    22939846.2574   22939849.1114
        42.7004         40.2004
  -9431402.65045  -7314043.82646  22302232.316    22302231.9974   22302237.0654
        44.1004         41.4004
 -17336354.11246 -13490886.73747  20932422.610    20932422.3774   20932427.5414
        49.5004         46.5004
  -1111263.49142   -776214.81845  24072268.252    24072266.8224   24072271.4704
        37.3004         35.2004
 16  6 23  1 55  0.0000000  0  8G 6G26G 7G 2G23G30G 9G16
  -5718998.62545  -4216839.51047  21915954.431    21915954.8494   21915960.9814
        46.0004         43.3004
   1335961.92341   1036630.33245  25268783.557    25268785.0414   25268788.8994
        32.6004         32.0004
 -16919233.49146 -13167235.14547  21034529.145    21034529.6814   21034531.9424
        47.9004         45.1004
 -12424446.38446  -9661693.67447  21618666.488    21618665.8334   21618666.3794
        46.5004         43.5004
  -9032732.20744  -6764171.24246  22955410.038    22955409.8884   22955410.4964
        42.5004         39.7004
  -9526792.56845  -7388373.60946  22284080.334    22284080.1024   22284085.1084
        44.1004         41.4004
 -17281334.62546 -13448014.40847  20942892.390    20942892.6214   20942897.5494
        49.5004         46.6004
  -1119517.64342   -782646.64245  24070696.959    24070697.1484   24070700.8654
        37.3004         35.2004
 16  6 23  1 55 30.0000000  0  8G 6G26G 7G 2G23G30G 9G16
  -5636195.93445  -4152317.95247  21931711.225    21931711.1844   21931717.4784
        46.2004         43.3004
   1378273.21241   1069600.12045  25276836.668    25276834.3534   25276841.1854
        33.1004         32.2004
 -16967100.01446 -13204533.72347  21025421.047    21025421.3354   21025423.2824
        47.9004         45.1004
 -12434438.89945  -9669480.04347  21616764.931    21616764.6294   21616764.7604
        46.3004         43.5004
  -8950801.22144  -6700328.92746  22971000.256    22971000.9424   22971002.3584
        42.5004         39.9004
  -9621872.92145  -7462462.16946  22265986.413    22265985.7334   22265992.0464
        44.2004         41.8004
 -17226014.99146 -13404908.19247  20953419.163    20953419.2034   20953424.3434
        49.5004         46.5004
  -1127165.68242   -788606.12745  24069245.303    24069241.8414   24069244.8824
        37.5004         35.3004
 16  6 23  1 56  0.0000000  0  8G 6G26G 7G 2G23G30G 9G16
  -5552993.71245  -4087485.06747  21947544.433    21947544.9684   21947551.0314
        46.2004         43.5004
   1421093.35341   1102966.50345  25284983.192    25284981.0084   25284992.8444
        33.1004         32.2004
 -17014463.37746 -13241440.22447  21016408.274    21016408.0954   21016410.5294
        48.1004         45.2004
 -12443860.47746  -9676821.53547  21614972.517    21614971.8234   21614971.8394
        46.5004         43.5004
  -8868720.23344  -6636369.71946  22986621.404    22986620.3964   22986621.0624
        42.7004         40.0004
  -9716641.26145  -7536307.61647  22247953.222    22247952.6924   22247958.7674
        44.6004         42.1004
 -17170396.50346 -13361569.10947  20964003.198    20964003.3044   20964008.1644
        49.3004         46.5004
  -1134206.84742   -794092.77445  24067899.998    24067899.7994   24067906.8654
        37.5004         35.3004
 16  6 23  1 56 30.0000000  0  8G 6G26G 7G 2G23G30G 9G16
  -5469394.51945  -4022342.84747  21963452.385    21963452.9534   21963458.8504
        46.2004         43.3004
   1464421.01641   1136728.26245  25293229.469    25293229.4094   25293233.2324
        33.1004         32.2004
 -17061322.39646 -13277953.73747  21007490.788    21007491.1484   21007493.8514
        48.1004         45.4004
 -12452710.48945  -9683717.64047  21613287.364    21613287.4684   21613287.7934
        46.3004         43.5004
  -8786490.24144  -6572294.41646  23002267.824    23002268.3964   23002269.3084
        42.3004         39.5004
  -9811095.17145  -7609908.03747  22229980.699    22229979.5804   22229984.6104
        44.8004         42.3004
 -17114480.45746 -13317998.16547  20974643.684    20974643.7414   20974648.5734
        49.3004         46.5004
  -1140640.51942   -799106.01645  24066678.418    24066677.1574   24066679.3774
        37.5004         35.3004
 16  6 23  1 57  0.0000000  0  8G 6G26G 7G 2G23G30G 9G16
  -5385401.03045  -3956893.38947  21979435.648    21979436.4664   21979441.4204
        46.0004         43.0004
   1508254.68041   1170884.30545  25301569.214    25301570.2374   25301579.1154
        33.7004         32.7004
 -17107675.90246 -13314073.35247  20998670.078    20998670.4044   20998672.5104
        48.2004         45.4004
 -12460988.45046  -9690168.01747  21611712.952    21611712.6234   21611712.6784
        46.5004         43.7004
  -8704112.38944  -6508103.90246  23017944.391    23017943.4984   23017944.9894
        42.3004         39.7004
  -9905232.25345  -7683261.58947  22212065.703    22212064.8284   22212071.0024
        44.9004         42.1004
 -17058268.14046 -13274196.36447  20985340.734    20985340.7204   20985345.1524
        49.3004         46.5004
  -1146465.98342   -803645.30545  24065568.074    24065567.9554   24065573.1024
        37.3004         35.2004
 16  6 23  1 57 30.0000000  0  8G 6G26G 7G 2G23G30G 9G16
  -5301015.84545  -3891138.71247  21995494.592    21995494.2474   21995500.5004
        46.0004         43.2004
   1552592.98441   1205433.58145  25310006.807    25310004.5644   25310016.2924
        33.0004         32.0004
 -17153522.90546 -13349798.25747  20989945.879    20989946.2184   20989948.2784
        48.2004         45.4004
 -12468694.14946  -9696172.45947  21610246.813    21610245.8324   21610246.7974
        46.7004         43.9004
  -8621587.82944  -6443799.06246  23033648.282    23033648.4394   23033650.0254
        42.7004         40.2004
  -9999050.05245  -7756366.35047  22194212.209    22194212.2094   22194218.1204
        44.9004         42.1004
 -17001760.82346 -13230164.69747  20996093.956    20996093.8454   20996098.3434
        49.3004         46.5004
  -1151682.69642   -807710.30845  24064574.987    24064576.0374   24064579.3044
        37.1004         35.2004
 16  6 23  1 58  0.0000000  0  8G 6G26G 7G 2G23G30G 9G16
  -5216241.58145  -3825080.84747  22011625.035    22011625.6084   22011632.3054
        45.8004         43.0004
   1597434.35441   1240374.82445  25318542.773    25318537.0264
        32.4004         31.5004
 -17198862.33646 -13385127.67247  20981318.296    20981318.2374   20981320.6314
        48.2004         45.4004
 -12475826.94546  -9701730.48447  21608890.084    21608889.2304   21608889.1734
        46.9004         44.2004
  -8538917.31244  -6379380.49946  23049380.234    23049379.8944   23049380.9094
        42.7004         39.9004
 -10092546.20445  -7829220.46547  22176421.057    22176419.9114   22176425.8734
        45.1004         42.3004
 -16944959.87246 -13185904.21247  21006902.442    21006902.6264   21006906.9864
        49.3004         46.5004
  -1156289.90142   -811300.33345  24063700.593    24063699.2104   24063702.4604
        37.5004         35.3004
 16  6 23  1 58 30.0000000  0  8G 6G26G 7G 2G23G30G 9G16
  -5131080.87645  -3758721.87147  22027831.928    22027832.1744   22027837.4014
        45.8004         43.0004
   1642777.40041   1275707.05545  25327169.432    25327173.5344
        32.1004         31.5004
 -17243692.43546 -13420060.20447  20972787.016    20972787.0894   20972789.9674
        48.2004         45.4004
 -12482386.65046  -9706841.94447  21607641.562    21607640.9964   21607641.2304
        47.0004         44.4004
  -8456102.00844  -6314849.11146  23065139.320    23065139.3604   23065139.7444
        42.5004         39.7004
 -10185718.30745  -7901822.09747  22158688.918    22158690.1154   22158695.3904
        44.9004         42.3004
 -16887866.49446 -13141415.86147  21017767.504    21017767.4634   21017771.1934
        49.3004         46.5004
  -1160286.98142   -814414.95745  24062937.011    24062938.3834   24062942.6514
        37.5004         35.5004
 16  6 23  1 59  0.0000000  0  8G 6G26G 7G 2G23G30G 9G16
  -5045536.42145  -3692063.86947  22044110.390    22044110.9274   22044115.8744
        45.8004         43.0004
   1688620.63541   1311429.01345  25335891.130    25335892.0784
        32.1004         31.7004
 -17288012.03846 -13454594.94647  20964353.818    20964353.7034   20964356.1044
        48.2004         45.4004
 -12488373.07346  -9711506.68647  21606502.016    21606501.2244   21606501.8394
        47.0004         44.0004
  -8373143.12544  -6250205.84246  23080925.640    23080925.9504   23080926.9144
        42.7004         40.2004
 -10278563.98545  -7974169.35247  22141022.869    22141023.2664   22141027.9424
        45.1004         42.5004
 -16830482.00246 -13096700.67647  21028686.587    21028686.8914   21028691.8434
        49.3004         46.3004
  -1163673.60943   -817053.87645  24062297.463    24062295.2434   24062298.2764
        37.8004         35.7004
 16  6 23  1 59 30.0000000  0  8G 6G26G 7G 2G23G30G 9G16
  -4959610.84945  -3625108.89247  22060461.682    22060461.4974   22060467.3794
        45.8004         42.8004
   1734962.46241   1347539.45145  25344713.043    25344714.3744
        31.7004         31.3004
 -17331820.91446 -13488731.71647  20956016.827    20956016.9554   20956018.7174
        48.2004         45.4004
 -12493785.83446  -9715724.43247  21605471.871    21605471.5424   21605471.8044
        46.9004         43.9004
  -8290041.96144  -6185451.71446  23096739.649    23096739.5534   23096740.2954
        42.5004         39.9004
 -10371080.79645  -8046260.34847  22123417.515    22123416.8834   22123422.7034
        45.3004         42.6004
 -16772807.70346 -13051759.66647  21039662.166    21039661.9664   21039666.6294
        49.3004         46.3004
  -1166449.14843   -819216.62745  24061765.680    24061764.5434   24061767.9194
        37.6004         35.3004
 16  6 23  2  0  0.0000000  0  7G 6G 7G 2G23G30G 9G16
  -4873306.85445  -3557859.04447  22076884.006    22076884.4484   22076891.1564
        45.6004         43.0004
 -17375117.12946 -13522469.01647  20947777.516    20947777.8844   20947780.1644
        48.2004         45.6004
 -12498624.86946  -9719495.10247  21604550.487    21604549.8744   21604551.1504
        46.7004         43.7004
  -8206799.38944  -6120587.39846  23112579.691    23112579.6474   23112581.1034
        42.3004         39.9004
 -10463266.41345  -8118093.27947  22105874.906    22105874.5804   22105879.1874
        45.1004         42.3004
 -16714844.87146 -13006593.82047  21050691.696    21050691.8514   21050696.5544
        49.3004         46.5004
  -1168612.79142   -820902.58245  24061352.827    24061353.5094   24061356.1004
        37.0004         34.8004
 16  6 23  2  0 30.0000000  0  7G 6G 7G 2G23G30G 9G16
  -4786627.07445  -3490316.36547  22093378.972    22093379.9334   22093385.8754
        45.6004         42.8004
 -17417899.81446 -13555806.18147  20939636.876    20939636.5594   20939639.0954
        48.4004         45.6004
 -12502889.76246  -9722818.41147  21603738.627    21603738.7874   21603738.9844
        46.5004         43.5004
  -8123416.18044  -6055613.49046  23128447.779    23128446.1754   23128448.8684
        42.2004         39.5004
 -10555118.43745  -8189666.25847  22088396.323    22088395.3134   22088400.9564
        45.1004         42.3004
 -16656594.78746 -12961204.14747  21061776.573    21061776.6294   21061781.4694
        49.1004         46.3004
  -1170164.57042   -822111.75745  24061060.120    24061059.3204   24061061.1264
        37.0004         35.0004
 16  6 23  2  1  0.0000000  0  7G 6G 7G 2G23G30G 9G16
  -4699574.22345  -3422483.00147  22109944.223    22109944.4024   22109951.2154
        45.5004         42.5004
 -17460167.90346 -13588742.34647  20931593.389    20931593.4224   20931595.6474
        48.4004         45.6004
 -12506580.11646  -9725694.00947  21603037.168    21603036.0874   21603037.1734
        46.5004         43.7004
  -8039893.74444  -5990531.10746  23144340.379    23144341.1494   23144340.8214
        42.0004         39.2004
 -10646634.52845  -8260977.47747  22070980.779    22070980.3194   22070986.0914
        45.1004         42.3004
 -16598058.74346 -12915591.64247  21072915.193    21072915.2424   21072920.2344
        49.1004         46.1004
  -1171103.82943   -822843.66945  24060879.092    24060880.4904   24060883.3754
        37.6004         35.7004
 16  6 23  2  1 30.0000000  0  7G 6G 7G 2G23G30G 9G16
  -4612151.02145  -3354361.03847  22126580.381    22126580.8504   22126587.5864
        45.1004         42.3004
 -17501920.79646 -13621277.05547  20923648.257    20923648.4344   20923650.2534
        48.4004         45.6004
 -12509695.89546  -9728121.89247  21602444.260    21602443.7784   21602444.1734
        46.7004         44.0004
  -7956232.99344  -5925340.93346  23160261.052    23160260.2924   23160262.0734
        41.8004         39.3004
 -10737812.29545  -8332025.08247  22053631.176    22053630.7944   22053634.9874
        45.1004         42.1004
 -16539238.00846 -12869757.30047  21084108.362    21084108.7804   21084113.4214
        49.1004         46.3004
  -1171430.26743   -823098.02645  24060819.525    24060818.7284   24060820.4964
        37.6004         35.3004
 16  6 23  2  2  0.0000000  0  7G 6G 7G 2G23G30G 9G16
  -4524360.13145  -3285952.56547  22143287.445    22143287.4914   22143292.2464
        45.1004         42.5004
 -17543156.80546 -13653409.00047  20915800.994    20915801.1944   20915803.5104
        48.6004         45.8004
 -12512237.00146  -9730101.98847  21601960.451    21601960.0954   21601960.9904
        46.9004         44.2004
  -7872434.83444  -5860043.68346  23176208.339    23176207.4604   23176208.4474
        41.8004         39.3004
 -10828649.47445  -8402807.27547  22036345.320    22036344.7414   22036348.8794
        45.1004         42.3004
 -16480133.86246 -12823702.12647  21095356.154    21095356.0584   21095360.7254
        49.1004         46.3004
  -1171143.33743   -822874.46645  24060871.861    24060872.3954   24060875.7394
        37.6004         35.5004
 16  6 23  2  2 30.0000000  0  7G 6G 7G 2G23G30G 9G16
  -4436204.28545  -3217259.71647  22160062.106    22160063.2514   22160067.8374
        45.1004         42.1004
 -17583874.99046 -13685137.43847  20908052.426    20908052.3254   20908055.0804
        48.6004         45.8004
 -12514203.59746  -9731634.40547  21601586.486    21601585.7514   21601586.8714
        46.9004         44.0004
  -7788500.40344  -5794640.24946  23192178.526    23192178.9804   23192179.6834
        41.6004         38.8004
 -10919143.65445  -8473322.20047  22019123.591    22019124.1144   22019129.4904
        45.1004         42.6004
 -16420747.58746 -12777427.11147  21106656.640    21106657.0804   21106661.6914
        49.1004         46.3004
  -1170242.52042   -822172.53445  24061044.086    24061043.6284   24061046.1954
        37.3004         35.0004
 16  6 23  2  3  0.0000000  0  7G 6G 7G 2G23G30G 9G16
  -4347686.22245  -3148284.60347  22176907.250    22176907.5804   22176912.1534
        45.1004         42.3004
 -17624074.51446 -13716461.72747  20900402.285    20900402.8434   20900405.5814
        48.6004         45.8004
 -12515595.04946  -9732718.65847  21601321.757    21601321.3054   21601321.8924
        46.9004         43.9004
  -7704430.70344  -5729131.41946  23208179.188    23208176.4604   23208178.6294
        41.6004         39.0004
 -11009292.48145  -8543568.01947  22001969.460    22001968.3964   22001974.5794
        45.3004         42.6004
 -16361080.46546 -12730933.25247  21118010.955    21118010.7574   21118015.4744
        48.9004         45.9004
  -1168727.75342   -820992.20045  24061334.334    24061332.3924   24061336.0304
        37.0004         34.8004
 16  6 23  2  3 30.0000000  0  7G 6G 7G 2G23G30G 9G16
  -4258808.65345  -3079029.35947  22193819.052    22193819.1544   22193825.3524
        45.1004         42.1004
 -17663754.49446 -13747381.17247  20892851.909    20892852.0454   20892854.5854
        48.6004         45.8004
 -12516410.97346  -9733354.45347  21601166.319    21601165.4804   21601166.7744
        46.7004         43.9004
  -7620226.90944  -5663518.08846  23224200.485    23224200.8644   23224202.2134
        41.5004         38.6004
 -11099093.67745  -8613542.95947  21984879.523    21984880.3434   21984885.4284
        45.5004         42.8004
 -16301133.74946 -12684221.52347  21129418.577    21129418.6654   21129422.9874
        48.8004         45.9004
  -1166598.63342   -819333.16145  24061735.498    24061737.2934   24061739.5324
        37.0004         35.0004
 16  6 23  2  4  0.0000000  0  8G29G 6G 7G 2G23G30G 9G16
                      2254.60853  24781852.342
                        23.4004
  -4169574.32245  -3009496.12747  22210800.017    22210800.6984   22210806.1984
        44.9004         42.3004
 -17702914.12746 -13777895.16447  20885400.247    20885400.1024   20885402.4464
        48.6004         45.6004
 -12516651.76646  -9733542.10347  21601120.926    21601120.5154   21601120.6434
        46.9004         44.2004
  -7535889.98744  -5597801.02546  23240250.679    23240248.8314   23240250.1624
        41.6004         38.8004
 -11188544.90645  -8683245.18747  21967859.195    21967858.9854   21967863.4954
        45.8004         43.0004
 -16240908.71246 -12637292.93047  21140879.391    21140879.3334   21140883.2324
        48.8004         45.8004
  -1163854.74542   -817195.08745  24062262.764    24062260.6284   24062260.8724
        37.1004         35.2004
 16  6 23  2  4 30.0000000  0  7G 6G 7G 2G23G30G 9G16
  -4079985.95245  -2939687.03547  22227847.415    22227848.4194   22227855.0114
        44.9004         42.3004
 -17741552.01846 -13808002.59947  20878046.917    20878047.2734   20878049.5924
        48.4004         45.6004
 -12516317.31946  -9733281.50547  21601184.015    21601183.5514   21601184.1614
        47.0004         44.2004
  -7451420.87044  -5531980.98646  23256323.044    23256322.5334   23256324.3314
        41.5004         39.0004
 -11277643.86945  -8752672.93047  21950904.344    21950904.2174   21950908.9044
        46.0004         43.3004
 -16180406.65846 -12590148.47447  21152391.902    21152391.9494   21152396.2084
        48.8004         45.8004
  -1160495.58642   -814577.52645  24062897.456    24062896.8864   24062901.0694
        37.0004         35.0004
 16  6 23  2  5  0.0000000  0  8G29G 6G 7G 2G23G30G 9G16
                     19585.91745  24786081.633                    24786084.6704
                        35.5004
  -3990046.31345  -2869604.21147  22244963.065    22244963.3544   22244969.4884
        44.9004         42.1004
 -17779667.45646 -13837702.90447  20870793.824    20870794.2504   20870796.3254
        48.4004         45.6004
 -12515407.92346  -9732572.88247  21601357.307    21601356.4884   21601357.0874
        47.0004         44.0004
  -7366820.49844  -5466058.63746  23272421.543    23272421.7374   23272422.4814
        41.3004         38.1004
 -11366388.24245  -8821824.37447  21934016.283    21934016.1084   21934021.1664
        46.0004         43.3004
 -16119628.83046 -12542789.12747  21163957.709    21163957.2164   21163962.2694
        48.8004         45.8004
  -1156521.77542   -811481.09845  24063654.891    24063655.6834   24063658.9564
        37.0004         35.0004
 16  6 23  2  5 30.0000000  0  8G29G 6G 7G 2G23G30G 9G16
     39797.75843     28891.80446  24788357.128    24788354.5894   24788357.0344
        37.8004         36.0004
  -3899758.14445  -2799249.81447  22262144.378    22262145.5254   22262151.3414
        44.9004         42.3004
 -17817259.53946 -13866995.42047  20863640.605    20863640.8414   20863643.0214
        48.4004         45.8004
 -12513923.24446  -9731415.98947  21601639.841    21601639.1404   21601640.0904
        47.0004         44.2004
  -7282089.99944  -5400034.90946  23288545.840    23288545.1854   23288546.0614
        40.8004         38.5004
 -11454775.72745  -8890697.72347  21917196.241    21917196.7824   21917201.0554
        46.2004         43.2004
 -16058576.49746 -12495215.88447  21175576.103    21175575.9964   21175580.2064
        48.8004         45.9004
  -1151932.68042   -807905.16945  24064530.439    24064527.6344   24064532.0394
        37.1004         35.2004
 16  6 23  2  6  0.0000000  0  8G29G 6G 7G 2G23G30G 9G16
     52287.17743     38623.81845  24790730.188    24790730.8874   24790733.6434
        38.0004         35.9004
  -3809124.26745  -2728626.03147  22279390.982    22279391.8514   22279398.6324
        44.9004         42.1004
 -17854327.62146 -13895879.63047  20856587.597    20856587.6654   20856589.3234
        48.6004         45.9004
 -12511863.30246  -9729810.84647  21602032.126    21602031.1754   21602031.4664
        47.0004         44.0004
  -7197230.48844  -5333910.62146  23304692.532    23304693.9054   23304694.3964
        40.8004         38.5004
 -11542804.03945  -8959291.20047  21900445.147    21900445.0034   21900450.4694
        46.2004         43.3004
 -15997250.91346 -12447429.70947  21187245.169    21187244.8754   21187249.9674
        48.6004         45.8004
  -1146727.96642   -803849.55245  24065516.312    24065517.0844   24065522.4594
        37.0004         35.2004
 16  6 23  2  6 30.0000000  0  8G29G 6G 7G 2G23G30G 9G16
     65322.59552     48781.31355  24793210.386    24793210.9134   24793213.0814
        37.3004         35.0004
  -3718147.41245  -2657734.98846  22296704.238    22296704.3634   22296709.7874
        44.8004         41.8004
 -17890870.40846 -13924354.51347  20849633.341    20849633.3804   20849635.9124
        48.8004         45.9004
 -12509228.12946  -9727757.47347  21602533.706    21602532.6834   21602533.6614
        46.9004         44.0004
  -7112242.66544  -5267686.40346  23320867.802    23320867.5344   23320867.6694
        40.6004         38.1004
 -11630470.97045  -9027603.08047  21883763.628    21883763.1614   21883768.4624
        46.2004         43.5004
 -15935653.35046 -12399431.60747  21198966.326    21198966.8924   21198971.2814
        48.6004         45.8004
  -1140907.74443   -799314.33645  24066630.004    24066627.4894   24066630.1474
        37.8004         35.9004
 16  6 23  2  7  0.0000000  0  8G29G 6G 7G 2G23G30G 9G16
     78903.08442     59363.49545  24795794.939    24795795.9504   24795798.8684
        37.5004         35.5004
  -3626830.39245  -2586578.88546  22314080.284    22314081.2134   22314087.1844
        44.4004         41.8004
 -17926887.09446 -13952419.45247  20842779.777    20842779.2034   20842782.1394
        48.8004         45.9004
 -12506017.87046  -9725255.97547  21603144.151    21603143.4924   21603144.3374
        46.9004         44.0004
  -7027127.77844  -5201363.11346  23337062.991    23337063.6484   23337065.6254
        40.8004         38.3004
 -11717774.16945  -9095631.52947  21867149.324    21867149.3444   21867154.9524
        46.2004         43.5004
 -15873785.07546 -12351222.55847  21210740.247    21210739.8284   21210744.8584
        48.6004         45.8004
  -1134471.61943   -794299.15345  24067851.740    24067851.4124   24067854.0084
        37.6004         35.3004
 16  6 23  2  7 30.0000000  0  8G29G 6G 7G 2G23G30G 9G16
     93027.87942     70369.80845  24798482.826    24798483.3384   24798486.3764
        37.5004         35.5004
  -3535175.94245  -2515159.84446  22331522.724    22331523.0674   22331527.8134
        44.2004         41.4004
 -17962376.97446 -13980073.88747  20836025.657    20836026.1054   20836028.2634
        48.8004         45.9004
 -12502232.59446  -9722306.41547  21603864.301    21603863.3764   21603864.7794
        46.9004         44.0004
  -6941886.84643  -5134941.66446  23353285.018    23353284.1114   23353285.6304
        40.4004         37.8004
 -11804711.41245  -9163374.82047  21850606.342    21850606.0824   21850611.0804
        46.3004         43.5004
 -15811647.34246 -12302803.55447  21222564.492    21222564.5264   21222569.4314
        48.6004         45.8004
  -1127419.59242   -788804.13245  24069194.168    24069194.6034   24069195.5714
        37.5004         35.5004
 16  6 23  2  8  0.0000000  0  8G29G 6G 7G 2G23G30G 9G16
    107696.12042     81799.60845  24801273.395    24801275.1394   24801276.7234
        37.0004         34.8004
  -3443186.86945  -2443480.06046  22349026.094    22349026.6994   22349032.8704
        44.1004         41.1004
 -17997339.39946 -14007317.31447  20829372.919    20829372.7984   20829374.8284
        48.8004         45.9004
 -12497872.25946  -9718908.74547  21604693.894    21604693.1324   21604694.2124
        46.9004         44.0004
  -6856520.71143  -5068422.59946  23369528.452    23369529.8644   23369530.4084
        40.4004         38.1004
 -11891280.42645  -9230831.16547  21834132.755    21834132.5264   21834137.6114
        46.3004         43.7004
 -15749241.40246 -12254175.55147  21234440.006    21234440.0134   21234444.6674
        48.6004         45.8004
  -1119751.72443   -782829.16646  24070655.729    24070654.1564   24070655.8064
        38.0004         36.0004
 16  6 23  2  8 30.0000000  0  8G29G 6G 7G 2G23G30G 9G16
    122906.74542     93652.04645  24804169.185    24804169.6064   24804171.2184
        36.8004         34.6004
  -3350866.01045  -2371541.74546  22366594.828    22366595.8634   22366601.1374
        43.9004         41.2004
 -18031773.40046 -14034148.98747  20822819.668    20822820.1304   20822822.5414
        48.8004         45.9004
 -12492936.96046  -9715063.06647  21605633.721    21605632.9074   21605633.0504
        46.7004         43.9004
  -6771030.26944  -5001806.70246  23385797.701    23385797.8774   23385799.3144
        40.6004         37.9004
 -11977478.99945  -9297998.87247  21817729.251    21817729.0164   21817735.0904
        46.3004         43.5004
 -15686568.49646 -12205339.51947  21246365.738    21246366.0174   21246370.9534
        48.4004         45.6004
  -1111467.94643   -776374.29145  24072227.275    24072228.3904   24072232.2254
        37.8004         35.5004
 16  6 23  2  9  0.0000000  0  8G29G 6G 7G 2G23G30G 9G16
    138658.87242    105926.40845  24807166.644    24807166.1974   24807169.7744
        37.1004         35.3004
  -3258216.16345  -2299347.08146  22384225.236    22384225.5894   22384233.1874
        44.1004         41.2004
 -18065678.03846 -14060568.18047  20816368.321    20816368.3964   20816370.5844
        48.8004         45.9004
 -12487426.99146  -9710769.58947  21606682.460    21606681.6764   21606681.8234
        46.9004         43.9004
  -6685416.68744  -4935094.83946  23402090.961    23402089.7454   23402090.1594
        40.6004         38.3004
 -12063304.87645  -9364876.16947  21801398.182    21801397.4714   21801402.0294
        46.3004         43.5004
 -15623629.89946 -12156296.46147  21258343.008    21258343.0414   21258347.7084
        48.4004         45.6004
  -1102568.23942   -769439.46245  24073924.933    24073922.6714   24073924.0574
        37.5004         35.5004
 16  6 23  2  9 30.0000000  0  8G29G 6G 7G 2G23G30G 9G16
    154951.49242    118621.97345  24810266.385    24810267.4044   24810269.9024
        37.3004         35.3004
  -3165240.09145  -2226898.20946  22401919.298    22401918.3314   22401926.1064
        44.1004         41.4004
 -18099052.76246 -14086574.44647  20810016.854    20810017.3904   20810019.5844
        48.8004         45.9004
 -12481342.38546  -9706028.34347  21607839.933    21607839.2644   21607839.5124
        46.7004         43.7004
  -6599680.75344  -4868287.66146  23418405.795    23418404.9654   23418405.8444
        40.8004         38.3004
 -12148755.85945  -9431461.32947  21785137.099    21785137.0174   21785140.9624
        46.3004         43.5004
 -15560426.72246 -12107047.23047  21270370.224    21270370.3834   21270375.3154
        48.4004         45.6004
  -1093052.19143   -762024.35545  24075730.703    24075731.9794   24075737.6234
        37.6004         35.5004
 16  6 23  2 10  0.0000000  0  8G29G 6G 7G 2G23G30G 9G16
    171783.33342    131737.69445  24813469.666    24813469.9254   24813472.1364
        37.3004         35.3004
  -3071940.64645  -2154197.37146  22419673.013    22419673.3414   22419679.4764
        44.1004         41.2004
 -18131896.79746 -14112167.18547  20803767.134    20803767.4044   20803769.4014
        48.8004         46.1004
 -12474683.81946  -9700839.85747  21609107.232    21609106.6704   21609106.5504
        46.7004         43.9004
  -6513823.77544  -4801386.15346  23434744.166    23434743.8434   23434743.8184
        40.9004         38.5004
 -12233829.70146  -9497752.62247  21768948.003    21768947.9804   21768952.7854
        46.5004         43.7004
 -15496960.45846 -12057592.99847  21282447.461    21282447.3624   21282452.2934
        48.2004         45.4004
  -1082920.31143   -754129.42245  24077660.669    24077660.0624   24077665.6254
        37.8004         35.7004
 16  6 23  2 10 30.0000000  0  8G29G 6G 7G 2G23G30G 9G16
    189153.73142    145273.07245  24816775.409    24816774.6184   24816779.2874
        37.1004         35.2004
  -2978320.67245  -2081246.73346  22437487.841    22437488.6394   22437494.8854
        44.1004         41.2004
 -18164209.43446 -14137345.84947  20797618.478    20797618.8014   20797620.6054
        48.8004         46.1004
 -12467451.30446  -9695204.13747  21610483.579    21610482.7134   21610483.6094
        46.7004         43.9004
  -6427846.56444  -4734390.94246  23451102.474    23451104.0184   23451104.3234
        40.8004         38.1004
 -12318524.21246  -9563748.33647  21752830.353    21752830.5324   21752835.6424
        46.5004         43.7004
 -15433232.22046 -12007934.63747  21294574.572    21294574.3694   21294579.5154
        48.2004         45.2004
  -1072172.53443   -745754.48745  24079705.944    24079705.6294   24079709.8684
        37.8004         35.7004
 16  6 23  2 11  0.0000000  0  8G29G 6G 7G 2G23G30G 9G16
    207061.59342    159227.26145  24820182.642    24820183.0494   24820186.0654
        36.3004         34.1004
  -2884382.94745  -2008048.53046  22455364.100    22455364.8234   22455370.1604
        43.9004         41.2004
 -18195990.22946 -14162110.08647  20791569.979    20791570.2704   20791572.7574
        48.8004         46.1004
 -12459644.87446  -9689121.20847  21611968.802    21611968.2964   21611969.1754
        46.9004         43.9004
  -6341749.84744  -4667302.63046  23467487.905    23467487.5714   23467489.8434
        40.8004         38.3004
 -12402837.17746  -9629446.73247  21736785.873    21736785.8334   21736791.3454
        46.5004         43.7004
 -15369243.26546 -11958073.11347  21306750.861    21306750.9274   21306755.5184
        48.1004         45.2004
  -1060809.30743   -736900.02145  24081868.748    24081868.7104   24081872.9344
        38.0004         35.9004
 16  6 23  2 11 30.0000000  0  8G29G 6G 7G 2G23G30G 9G16
    225505.78042    173599.35845  24823691.545    24823690.9224   24823695.9164
        35.6004         33.6004
  -2790130.38645  -1934604.97946  22473299.842    22473300.2714   22473305.4874
        43.7004         41.1004
 -18227238.31246 -14186459.23747  20785623.839    20785624.4084   20785626.7564
        48.9004         46.1004
 -12451265.00346  -9682591.44747  21613562.892    21613562.7244   21613563.6044
        46.9004         43.9004
  -6255534.86444  -4600122.17146  23483894.520    23483894.1534   23483894.3034
        40.8004         38.1004
 -12486766.44546  -9694846.14547  21720814.993    21720814.6634   21720820.2594
        46.5004         43.9004
 -15304994.79446 -11908009.37947  21318977.007    21318977.0154   21318982.4974
        48.1004         45.2004
  -1048830.27443   -727565.75845  24084148.467    24084147.7904   24084151.4974
        37.8004         35.3004
 16  6 23  2 12  0.0000000  0  8G29G 6G 7G 2G23G30G 9G16
    244485.10542    188388.46745  24827304.294    24827304.5154   24827307.6504
        35.0004         33.4004
  -2695565.72945  -1860918.24846  22491295.412    22491295.6884   22491301.7434
        43.7004         41.1004
 -18257952.76346 -14210392.55747  20779779.736    20779779.8064   20779782.1384
        48.9004         46.3004
 -12442311.89046  -9675615.00347  21615267.578    21615266.3674   21615267.4884
        46.9004         43.9004
  -6169202.57044  -4532850.28246  23500322.761    23500322.4894   23500322.3004
        40.6004         37.9004
 -12570309.80446  -9759944.84347  21704917.576    21704917.0674   21704922.5274
        46.7004         44.0004
 -15240488.11446 -11857744.44147  21331252.073    21331252.3104   21331257.1544
        48.1004         45.2004
  -1036235.79543   -717751.86945  24086545.128    24086543.5304   24086547.8364
        37.8004         35.7004
 16  6 23  2 12 30.0000000  0  8G29G 6G 7G 2G23G30G 9G16
    263998.94641    203594.05545  24831017.580    24831017.6104   24831017.4114
        34.3004         32.7004
  -2600691.88645  -1786990.59346  22509348.828    22509349.3284   22509355.1944
        43.7004         41.2004
 -18288133.26246 -14233909.82447  20774037.307    20774037.2024   20774038.5584
        49.1004         46.3004
 -12432785.89046  -9668192.15647  21617079.957    21617079.3824   21617079.8154
        46.5004         43.5004
  -6082753.77243  -4465487.58946  23516771.904    23516772.6704   23516773.5484
        40.4004         38.1004
 -12653465.09546  -9824741.16847  21689093.108    21689093.4964   21689098.2784
        46.9004         44.0004
 -15175724.40146 -11807279.21147  21343576.645    21343576.6094   21343581.2314
        48.1004         45.1004
  -1023026.19642   -707458.68445  24089056.838    24089057.9594   24089062.1144
        37.5004         35.2004
 16  6 23  2 13  0.0000000  0  8G29G 6G 7G 2G23G30G 9G16
    284045.34441    219214.61245  24834830.300    24834830.8594   24834836.2464
        33.7004         32.6004
  -2505511.70445  -1712824.23746  22527460.172    22527460.9914   22527467.4074
        43.6004         40.9004
 -18317778.97646 -14257010.36447  20768395.821    20768395.7014   20768397.0594
        49.1004         46.1004
 -12422687.39145  -9660323.20347  21619001.512    21619001.1144   21619001.2614
        46.3004         43.3004
  -5996189.35443  -4398034.82346  23533245.908    23533245.8724   23533246.6334
        40.4004         37.9004
 -12736230.16346  -9889233.41547  21673343.672    21673343.7664   21673348.6184
        46.9004         44.0004
 -15110704.90446 -11756614.66947  21355948.946    21355949.0474   21355953.8854
        47.9004         45.1004
  -1009201.50843   -696686.20045  24091690.718    24091689.8414   24091693.4994
        37.6004         35.7004
 16  6 23  2 13 30.0000000  0  8G29G 6G 7G 2G23G30G 9G16
    304623.28141    235249.37745  24838748.183    24838748.2554   24838753.9914
        33.8004         32.7004
  -2410028.04544  -1638421.39746  22545630.616    22545630.8364   22545637.4684
        43.4004         40.7004
 -18346889.38246 -14279693.78047  20762855.316    20762855.6064   20762857.3934
        48.9004         46.1004
 -12412016.70045  -9652008.40747  21621032.041    21621031.7584   21621032.5114
        46.3004         43.5004
  -5909510.43743  -4330492.84346  23549739.215    23549739.3894   23549739.0974
        40.3004         37.6004
 -12818602.89146  -9953419.93847  21657668.611    21657668.6414   21657673.6804
        46.9004         44.0004
 -15045430.87146 -11705751.78447  21368371.155    21368370.8744   21368375.2814
        47.9004         45.1004
   -994761.97943   -685434.61245  24094437.193    24094436.1674   24094441.1114
        37.8004         35.9004
 16  6 23  2 14  0.0000000  0  9G29G 6G 7G 5G 2G23G30G 9G16
    325731.92741    251697.67545  24842765.158    24842762.9494   24842768.5564
        33.7004         32.6004
  -2314243.72444  -1563784.29846  22563856.218    22563857.9094   22563864.4034
        43.2004         40.4004
 -18375463.98546 -14301959.69147  20757416.885    20757417.7734   20757420.1334
        48.9004         46.1004
   -263713.80753   -191484.69456  22904317.880    22904318.0464   22904320.9944
        39.4004         37.8004
 -12400774.10846  -9643247.94547  21623171.614    21623171.1244   21623171.5114
        46.5004         43.7004
  -5822717.94543  -4262862.36546  23566256.045    23566255.1624   23566255.7824
        39.9004         37.6004
 -12900581.10646 -10017299.05347  21642068.135    21642068.1134   21642073.8344
        46.9004         44.0004
 -14979903.50746 -11654691.51247  21380839.583    21380840.1484   21380844.7124
        47.9004         45.1004
   -979707.87043   -673704.17345  24097300.330    24097300.8344   24097302.8904
        38.0004         35.9004
 16  6 23  2 14 30.0000000  0  9G29G 6G 7G 5G 2G23G30G 9G16
    347369.95641    268558.45945  24846882.368    24846883.8814   24846885.5364
        33.1004         32.2004
  -2218161.66644  -1488915.17846  22582141.119    22582142.3924   22582148.3044
        43.2004         40.6004
 -18403502.28846 -14323807.70147  20752081.602    20752082.0194   20752084.8504
        48.9004         46.3004
   -355205.65844   -262777.01246  22886907.967    22886907.1224   22886911.0004
        40.6004         38.3004
 -12388960.23546  -9634042.33347  21625419.487    21625418.7064   21625419.7154
        46.5004         43.5004
  -5735812.77943  -4195144.11346  23582794.474    23582793.5064   23582793.3044
        40.1004         37.4004
 -12982162.66946 -10080869.08747  21626543.860    21626544.2784   21626549.5094
        47.0004         44.4004
 -14914124.05546 -11603434.79947  21393357.681    21393357.4964   21393361.9994
        47.9004         45.1004
   -964039.49643   -661495.06046  24100286.469    24100285.2754   24100288.0414
        38.2004         36.0004
 16  6 23  2 15  0.0000000  0  9G29G 6G 7G 5G 2G23G30G 9G16
    369536.01441    285830.69145  24851101.055    24851103.1454   24851103.3514
        32.8004         32.2004
  -2121784.69344  -1413816.25846  22600481.877    22600481.7074   22600487.9234
        43.2004         40.6004
 -18431003.69746 -14345237.35947  20746849.628    20746849.2564   20746851.5094
        49.1004         46.5004
   -446507.72854   -333921.45656  22869533.245    22869533.3124   22869536.9304
        41.3004         38.8004
 -12376575.64045  -9624392.00047  21627776.011    21627775.4404   21627776.5224
        46.3004         43.3004
  -5648795.86743  -4127338.71446  23599350.218    23599352.1464   23599352.2064
        40.1004         37.4004
 -13063345.50346 -10144128.43147  21611095.766    21611095.2894   21611101.1184
        47.2004         44.4004
 -14848093.67846 -11551982.55847  21405922.665    21405922.2354   21405927.3754
        47.7004         44.9004
   -947757.11343   -648807.50045  24103382.062    24103382.3644   24103384.3424
        38.0004         35.7004
 16  6 23  2 15 30.0000000  0  9G29G 6G 7G 5G 2G23G30G 9G16
    392229.19141    303513.67645  24855418.786    24855420.9694
        32.3004         31.7004
  -2025115.72844  -1338489.80446  22618877.619    22618878.1834   22618883.8194
        43.4004         40.7004
 -18457967.57146 -14366248.15947  20741718.362    20741718.3694   20741720.5754
        49.1004         46.5004
   -537618.47644   -404916.81946  22852195.717    22852195.8164   22852198.6844
        41.8004         39.3004
 -12363620.17345  -9614296.84847  21630241.250    21630241.2664   21630241.1824
        46.2004         43.2004
  -5561668.25143  -4059447.09946  23615934.067    23615931.3294   23615932.4894
        40.1004         37.4004
 -13144127.55146 -10207075.47047  21595722.956    21595723.0084   21595728.7324
        47.2004         44.4004
 -14781813.62746 -11500335.77247  21418535.885    21418535.6434   21418540.3234
        47.7004         44.9004
   -930861.12243   -635641.80445  24106597.574    24106597.1454   24106599.3104
        37.6004         35.5004
 16  6 23  2 16  0.0000000  0  9G29G 6G 7G 5G 2G23G30G 9G16
                    321605.99855  24859836.139
                        31.3004
  -1928157.60845  -1262938.04046  22637329.482    22637329.8534   22637334.7324
        43.6004         40.7004
 -18484393.35946 -14386839.67347  20736689.454    20736689.2974   20736691.4434
        49.1004         46.1004
   -628536.03944   -475761.64946  22834895.085    22834894.9134   22834897.1744
        42.2004         39.9004
 -12350094.76845  -9603757.58647  21632816.177    21632815.1954   21632815.5274
        46.3004         43.5004
  -5474430.65843  -3991469.77846  23632532.704    23632533.0524   23632533.4074
        40.3004         37.9004
 -13224506.58446 -10269708.46747  21580427.145    21580427.0564   21580433.6524
        47.4004         44.5004
 -14715285.12846 -11448495.39747  21431195.973    21431195.7314   21431200.4884
        47.7004         45.1004
   -913352.00743   -621998.36245  24109930.669    24109930.1534   24109932.7134
        37.6004         35.9004
 16  6 23  2 16 30.0000000  0  9G29G 6G 7G 5G 2G23G30G 9G16
    439190.98451    340107.19845  24864356.153    24864351.3064
        32.3004         31.7004
  -1830913.22644  -1187163.20146  22655832.033    22655833.1324   22655839.5814
        43.4004         40.7004
 -18510280.64546 -14407011.56447  20731762.685    20731763.0634   20731765.1644
        48.9004         46.1004
   -719258.24644   -546454.26546  22817630.497    22817631.1864   22817632.9554
        42.5004         40.0004
 -12336000.13946  -9592774.76747  21635497.920    21635497.4464   21635498.3704
        46.5004         43.9004
  -5387083.96743  -3923407.44646  23649154.881    23649154.4784   23649157.0324
        40.3004         38.1004
 -13304480.56646 -10332025.84847  21565208.788    21565208.9524   21565214.3854
        47.2004         44.2004
 -14648509.39846 -11396462.37047  21443902.487    21443902.4744   21443907.1964
        47.7004         44.9004
   -895229.99142   -607877.31445  24113375.730    24113374.9824   24113381.6194
        37.3004         35.2004
 16  6 23  2 17  0.0000000  0  9G29G 6G 7G 5G 2G23G30G 9G16
                      8723.80843  24868973.721
                        23.4004
  -1733385.50444  -1111167.59646  22674393.343    22674393.6584   22674399.0884
        43.2004         40.4004
 -18535628.99246 -14426763.51247  20726939.045    20726939.0944   20726941.6384
        48.9004         46.1004
   -809783.18644   -616993.15846  22800404.486    22800404.6614   22800406.9444
        43.0004         40.4004
 -12321336.41546  -9581348.48547  21638287.887    21638287.4344   21638288.3014
        46.7004         43.9004
  -5299629.22943  -3855260.93346  23665797.782    23665796.7404   23665797.2914
        40.1004         37.6004
 -13384047.45046 -10394026.00547  21550068.329    21550068.0844   21550072.2714
        47.2004         44.2004
 -14581487.61146 -11344237.61347  21456657.063    21456657.1204   21456660.9524
        47.7004         44.9004
   -876495.62142   -593279.12645  24116943.109    24116943.2314   24116944.0384
        37.1004         35.0004
 16  6 23  2 17 30.0000000  0  9G29G 6G 7G 5G 2G23G30G 9G16
                     28006.96754  24873688.087
                        29.8004
  -1635577.23944  -1034953.39146  22693003.974    22693004.7484   22693011.0304
        43.0004         40.4004
 -18560437.75946 -14446095.01247  20722218.418    20722218.4894   20722220.5694
        48.9004         46.3004
   -900108.93344   -687376.83746  22783216.693    22783216.3784   22783218.6234
        43.4004         40.9004
 -12306104.42046  -9569479.39847  21641186.336    21641185.4274   21641186.8884
        46.5004         43.5004
  -5212067.41543  -3787030.96546  23682459.639    23682458.3804   23682460.1134
        39.9004         37.3004
 -13463205.16546 -10455707.32447  21535005.084    21535004.8054   21535010.2134
        47.0004         44.2004
 -14514221.03146 -11291822.10747  21469456.779    21469457.1044   21469461.8494
        47.7004         45.1004
   -857149.32042   -578204.09245  24120623.036    24120624.8204   24120626.8084
        36.8004         34.6004
 16  6 23  2 18  0.0000000  0  9G29G 6G 7G 5G 2G23G30G 9G16
                     47675.32754  24878506.630
                        29.6004
  -1537491.43844   -958522.91346  22711669.378    22711670.0824   22711674.8814
        42.9004         40.2004
 -18584706.67746 -14465005.84747  20717600.210    20717600.6494   20717602.6254
        49.1004         46.3004
   -990233.58645   -757603.81346  22766066.183    22766066.3934   22766068.9854
        44.1004         41.6004
 -12290304.59945  -9557167.86247  21644192.488    21644191.7204   21644193.4124
        46.3004         43.5004
  -5124399.30543  -3718718.19946  23699140.340    23699140.2374   23699144.0124
        39.9004         37.6004
 -13541951.66746 -10517068.22147  21520019.666    21520019.8354   21520025.1174
        47.0004         44.4004
 -14446710.83546 -11239216.77047  21482303.148    21482303.3814   21482308.2164
        47.7004         44.9004
   -837191.41142   -562652.48545  24124419.064    24124418.6314   24124424.9354
        36.4004         34.6004
 16  6 23  2 18 30.0000000  0  9G29G 6G 7G 5G 2G23G30G 9G16
                      7604.58353  24883421.138
                        23.4004
  -1439130.94044   -881878.38846  22730387.291    22730387.4134   22730391.8314
        42.9004         40.2004
 -18608435.59046 -14483495.90347  20713085.559    20713085.2194   20713087.4694
        49.1004         46.5004
  -1080154.89245   -827672.34846  22748954.424    22748954.7274   22748957.3174
        44.4004         41.8004
 -12273937.69546  -9544414.45847  21647307.488    21647306.6154   21647308.4794
        46.5004         43.7004
  -5036625.87643  -3650323.36646  23715844.760    23715844.1304   23715846.2234
        39.9004         37.4004
 -13620284.91346 -10578107.10647  21505113.844    21505113.5124   21505118.2884
        47.2004         44.4004
 -14378958.19446 -11186422.51647  21495196.551    21495196.3604   21495201.6614
        47.7004         44.9004
   -816622.56142   -546624.83045  24128336.721    24128335.9234   24128337.4464
        36.8004         34.8004
 16  6 23  2 19  0.0000000  0  9G29G 6G 7G 5G 2G23G30G 9G16
                     28146.59754  24888431.567
                        29.4004
  -1340498.66044   -805022.06246  22749155.286    22749156.2194   22749162.1254
        42.7004         40.2004
 -18631623.79746 -14501564.62747  20708672.477    20708672.2624   20708674.8884
        49.1004         46.5004
  -1169871.48745   -897581.34746  22731882.328    22731881.9344   22731884.9354
        44.6004         41.9004
 -12257004.22746  -9531219.55747  21650530.237    21650528.9744   21650530.1804
        46.5004         43.7004
  -4948748.07243  -3581847.17546  23732566.833    23732566.0604   23732567.4854
        39.7004         37.1004
 -13698202.86946 -10638822.38447  21490286.643    21490285.9924   21490291.2394
        47.4004         44.5004
 -14310964.33446 -11133440.29647  21508134.664    21508134.8504   21508140.3874
        47.5004         44.7004
   -795443.29142   -530121.50645  24132365.344    24132365.9244   24132367.1544
        36.4004         34.6004
 16  6 23  2 19 30.0000000  0  9G29G 6G 7G 5G 2G23G30G 9G16
                     49103.15155  24893545.500
                        30.0004
  -1241597.50444   -727956.24546  22767977.188    22767976.9724   22767981.9784
        42.7004         39.9004
 -18654271.08246 -14519211.84847  20704362.795    20704362.8674   20704365.4064
        49.1004         46.3004
  -1259381.34545   -967329.26847  22714848.907    22714849.1754   22714851.7794
        44.8004         42.3004
 -12239504.83445  -9517583.65747  21653859.687    21653859.4964   21653860.2084
        46.3004         43.3004
  -4860766.77743  -3513290.36046  23749307.935    23749307.9174   23749311.0524
        39.6004         37.3004
 -13775703.51446 -10699212.48747  21475538.899    21475538.5744   21475543.2234
        47.4004         44.5004
 -14242730.49246 -11080271.06847  21521119.544    21521119.2544   21521123.8934
        47.4004         44.5004
   -773654.09542   -513142.93745  24136512.929    24136511.5584   24136514.7464
        36.4004         34.8004
 16  6 23  2 20  0.0000000  0  9G29G 6G 7G 5G 2G23G30G 9G16
                      6270.46253  24898753.757
                        23.4004
  -1142430.38544   -650683.18446  22786845.825    22786846.4464   22786852.3184
        42.5004         39.7004
 -18676377.22346 -14536437.39847  20700155.820    20700156.0994   20700158.5214
        49.1004         46.3004
  -1348682.57445  -1036914.61547  22697855.183    22697855.4744   22697858.6904
        44.9004         42.1004
 -12221440.15645  -9503507.30047  21657297.961    21657296.7374   21657297.7464
        46.2004         43.3004
  -4772682.67443  -3444653.42746  23766071.909    23766071.3354   23766072.8744
        39.6004         37.3004
 -13852784.85746 -10759275.85347  21460870.527    21460870.5224   21460874.9604
        47.4004         44.5004
 -14174257.75146 -11026915.70447  21534149.632    21534149.6354   21534154.5414
        47.4004         44.7004
   -751255.89742   -495689.77245  24140776.000    24140774.5124   24140777.7614
        37.0004         35.2004
 16  6 23  2 20 30.0000000  0  8G 6G 7G 5G 2G23G30G 9G16
  -1043000.18044   -573205.11746  22805768.193    22805768.6374   22805774.4604
        42.3004         39.5004
 -18697941.56346 -14553240.76947  20696052.079    20696052.2874   20696054.7974
        48.9004         46.3004
  -1437772.84045  -1106335.58447  22680901.575    22680902.0524   22680904.7794
        45.1004         42.1004
 -12202810.93745  -9488991.04947  21660842.709    21660841.9434   21660842.7114
        46.3004         43.5004
  -4684496.89143  -3375937.24946  23782853.000    23782852.7444   23782851.7264
        39.6004         36.9004
 -13929444.88746 -10819010.92547  21446282.197    21446282.0934   21446287.4044
        47.4004         44.5004
 -14105547.39746 -10973375.18247  21547224.464    21547225.0224   21547229.9554
        47.4004         44.5004
   -728248.96742   -477762.31045  24145153.172    24145154.0374   24145154.7014
        36.8004         34.8004
 16  6 23  2 21  0.0000000  0  8G 6G 7G 5G 2G23G30G 9G16
   -943309.85144   -495524.37046  22824737.537    22824738.5844   22824743.9644
        42.0004         39.3004
 -18718963.78846 -14569621.71347  20692051.347    20692051.6894   20692054.5344
        49.1004         46.3004
  -1526650.41145  -1175590.80947  22663988.968    22663989.4154   22663991.9254
        45.1004         42.3004
 -12183617.85845  -9474035.41347  21664495.139    21664494.1974   21664495.3184
        46.3004         43.3004
  -4596210.29143  -3307142.54646  23799653.568    23799652.6344   23799653.7344
        39.2004         36.9004
 -14005681.64046 -10878416.17847  21431775.394    21431775.3604   21431779.7304
        47.4004         44.7004
 -14036600.57246 -10919650.39547  21560345.451    21560345.3324   21560349.9174
        47.4004         44.5004
   -704633.88742   -459361.02245  24149644.893    24149644.1194   24149649.1124
        36.4004         34.5004
 16  6 23  2 21 30.0000000  0  8G 6G 7G 5G 2G23G30G 9G16
   -843362.24744   -417643.17046  22843757.536    22843758.0934   22843762.7794
        41.8004         39.2004
 -18739443.82346 -14585580.17047  20688154.960    20688154.9024   20688157.1164
        49.1004         46.5004
  -1615313.18145  -1244678.66147  22647117.446    22647117.5064   22647120.0144
        45.1004         42.1004
 -12163861.93745  -9458641.18147  21668254.185    21668253.6714   21668254.7244
        46.2004         43.2004
  -4507823.85243  -3238270.05046  23816471.348    23816472.2094   23816471.9414
        39.2004         36.7004
 -14081493.15146 -10937490.06747  21417348.880    21417348.4824   21417353.5684
        47.5004         44.9004
 -13967418.47246 -10865742.27747  21573509.818    21573510.0714   21573514.9414
        47.4004         44.5004
   -680411.43242   -440486.39145  24154255.056    24154255.4314   24154258.3344
        36.6004         34.6004
 16  6 23  2 22  0.0000000  0  8G 6G 7G 5G 2G23G30G 9G16
   -743160.37744   -339563.82346  22862824.973    22862825.6314   22862831.3274
        41.8004         39.2004
 -18759381.56646 -14601116.06347  20684360.204    20684360.5654   20684363.2124
        49.1004         46.5004
  -1703759.22645  -1313597.62947  22630286.523    22630286.3944   22630289.1934
        44.9004         42.3004
 -12143543.62545  -9442808.74547  21672121.570    21672120.8174   21672121.1924
        46.2004         43.5004
  -4419338.22843  -3169320.21646  23833311.648    23833310.3214   23833310.7644
        38.9004         36.4004
 -14156877.41646 -10996231.04147  21403003.667    21403003.4374   21403008.7224
        47.7004         45.2004
 -13898002.27746 -10811651.75147  21586719.269    21586719.4074   21586723.9364
        47.2004         44.4004
   -655582.35842   -421139.03845  24158980.658    24158980.1994   24158985.4004
        36.8004         34.8004
 16  6 23  2 22 30.0000000  0  8G 6G 7G 5G 2G23G30G 9G16
   -642707.09544   -261288.55846  22881940.811    22881941.6254   22881947.1164
        41.8004         39.2004
 -18778776.45746 -14616228.97847  20680669.967    20680670.1594   20680672.0944
        49.3004         46.5004
  -1791986.56145  -1382346.17847  22613497.216    22613497.3524   22613499.4224
        44.9004         42.1004
 -12122663.63445  -9426538.64047  21676094.708    21676093.7524   21676094.4764
        46.2004         43.3004
  -4330754.16443  -3100293.71346  23850166.992    23850166.8494   23850166.6464
        38.5004         36.2004
 -14231832.53746 -11054637.61447  21388738.934    21388739.4074   21388745.3144
        47.9004         45.2004
 -13828353.14746 -10757379.71347  21599972.836    21599973.0664   21599978.4334
        47.2004         44.4004
   -630147.24642   -401319.48545  24163819.050    24163818.6194   24163823.7014
        37.0004         35.0004
 16  6 23  2 23  0.0000000  0  8G 6G 7G 5G 2G23G30G 9G16
   -542005.37844   -182819.71346  22901103.401    22901103.8484   22901109.1834
        41.6004         38.8004
 -18797628.48546 -14630918.83747  20677082.596    20677082.6604   20677085.0244
        49.3004         46.6004
  -1879993.35245  -1450922.87846  22596750.374    22596750.2644   22596752.3654
        44.8004         41.9004
 -12101223.14945  -9409831.77147  21680174.171    21680174.0944   21680173.9574
        46.2004         43.2004
  -4242072.94643  -3031191.46146  23867043.244    23867042.8914   23867042.2734
        38.5004         36.6004
 -14306356.55646 -11112708.26747  21374558.680    21374557.9844   21374563.4504
        48.1004         45.2004
 -13758472.28346 -10702927.10347  21613271.417    21613270.9414   21613276.1764
        47.2004         44.2004
   -604107.06842   -381028.47245  24168776.511    24168775.8094   24168780.9774
        37.0004         35.2004
 16  6 23  2 23 30.0000000  0  8G 6G 7G 5G 2G23G30G 9G16
   -441058.14844   -104159.55746  22920312.974    22920313.9674   22920319.6874
        41.6004         39.0004
 -18815937.26646 -14645185.41247  20673598.369    20673598.6474   20673601.0054
        49.3004         46.5004
  -1967777.75945  -1519326.28346  22580045.130    22580045.6874   22580047.8304
        44.6004         41.9004
 -12079222.73945  -9392688.60047  21684360.578    21684360.2434   21684361.0664
        46.2004         43.5004
  -4153295.19743  -2962014.05646  23883938.375    23883936.3944   23883936.0474
        38.7004         36.4004
 -14380447.57046 -11170441.51547  21360459.177    21360458.8334   21360464.6114
        48.1004         45.2004
 -13688360.81546 -10648294.81147  21626611.662    21626612.4864   21626617.2884
        47.0004         44.0004
   -577462.45242   -360266.44745  24173846.284    24173844.9664   24173849.5574
        37.0004         35.0004
 16  6 23  2 24  0.0000000  0  8G 6G 7G 5G 2G23G30G 9G16
   -339868.25544    -25310.31346  22939570.125    22939570.6134   22939575.9844
        41.6004         39.2004
 -18833702.48446 -14659028.43447  20670217.489    20670217.8744   20670220.4514
        49.3004         46.5004
  -2055337.53145  -1587554.65446  22563383.027    22563383.2684   22563386.1014
        44.6004         41.8004
 -12056663.43845  -9375109.93647  21688653.617    21688652.6654   21688653.9854
        46.2004         43.2004
  -4064421.36943  -2892761.74446  23900849.067    23900849.1794   23900849.9484
        39.0004         36.7004
 -14454103.66946 -11227835.86347  21346442.801    21346442.3674   21346448.4084
        48.1004         45.2004
 -13618019.93046 -10593483.74447  21639998.474    21639998.1004   21640003.4774
        47.0004         44.4004
   -550214.25542   -339034.07745  24179031.095    24179029.6464   24179033.7534
        36.6004         34.5004
 16  6 23  2 24 30.0000000  0  8G 6G 7G 5G 2G23G30G 9G16
   -238438.70444     53725.68046  22958870.467    22958871.1284   22958876.5604
        41.8004         39.2004
 -18850924.06946 -14672447.84047  20666940.542    20666940.2364   20666942.8864
        49.1004         46.3004
  -2142670.66745  -1655606.41746  22546764.318    22546764.1794   22546766.7314
        44.4004         41.8004
 -12033545.88545  -9357096.26947  21693052.536    21693052.3294   21693053.9984
        46.2004         43.3004
  -3975453.16543  -2823435.90546  23917780.327    23917779.9944   23917779.6264
        39.2004         36.9004
 -14527322.94746 -11284889.82847  21332509.617    21332508.9574   21332515.0104
        47.9004         44.9004
 -13547450.82846 -10538494.84047  21653426.240    21653426.9434   21653432.4004
        47.0004         44.2004
   -522363.13642   -317331.96845  24184331.184    24184332.3424   24184334.9824
        37.0004         35.2004
 16  6 23  2 25  0.0000000  0  8G 6G 7G 5G 2G23G30G 9G16
   -136772.44144    132946.10046  22978217.300    22978218.1424   22978223.2104
        41.8004         39.5004
 -18867601.81546 -14685443.48647  20663767.130    20663767.3634   20663769.3884
        49.1004         46.3004
  -2229775.32645  -1723480.15746  22530189.022    22530189.4024   22530191.2414
        44.4004         41.8004
 -12009871.21345  -9338648.48447  21697558.264    21697557.6334   21697558.1004
        46.2004         43.5004
  -3886391.07943  -2754036.89546  23934726.328    23934727.2714   23934727.6624
        38.9004         36.4004
 -14600103.52546 -11341601.95147  21318660.096    21318659.8784   21318665.0454
        47.9004         45.1004
 -13476654.58646 -10483328.96347  21666899.794    21666899.6054   21666904.4054
        47.0004         44.4004
   -493910.05042   -295160.76945  24189746.204    24189745.2404   24189749.2224
        37.3004         35.2004
 16  6 23  2 25 30.0000000  0  8G 6G 7G 5G 2G23G30G 9G16
    -34872.33244    212348.75346  22997608.268    22997608.8184   22997614.3864
        42.0004         39.5004
 -18883736.03546 -14698015.59347  20660696.811    20660696.4814   20660699.1874
        49.1004         46.3004
  -2316649.53245  -1791174.32746  22513656.814    22513657.6534   22513658.9014
        44.4004         41.6004
 -11985640.26445  -9319767.23847  21702169.023    21702168.8074   21702169.5084
        46.3004         43.7004
  -3797235.91143  -2684565.39046  23951693.906    23951693.8684   23951695.0394
        38.9004         36.7004
 -14672443.59846 -11397970.82447  21304894.290    21304893.8274   21304899.4744
        47.9004         45.1004
 -13405632.46346 -10427987.06447  21680414.163    21680414.4514   21680419.3524
        47.2004         44.4004
   -464855.82942   -272521.12545  24195275.060    24195272.7354   24195278.3664
        37.1004         35.0004
 16  6 23  2 26  0.0000000  0  8G 6G 7G 5G 2G23G30G 9G16
     67258.62844    291931.29046  23017043.387    23017044.4214   23017049.9244
        42.3004         39.9004
 -18899325.91346 -14710163.54647  20657730.137    20657730.2524   20657732.5454
        49.1004         46.5004
  -2403291.32845  -1858687.39246  22497169.544    22497170.3124   22497171.9534
        44.2004         41.6004
 -11960854.08045  -9300453.33947  21706885.458    21706885.1354   21706885.8344
        46.3004         43.3004
  -3707988.38843  -2615021.91046  23968675.229    23968676.0824   23968677.5774
        39.0004         36.9004
 -14744341.19446 -11453994.91047  21291212.472    21291212.2004   21291217.7094
        47.9004         45.1004
 -13334385.53546 -10372469.99747  21693972.150    21693972.1824   21693976.7094
        47.0004         44.0004
   -435201.31942   -249413.74745  24200918.534    24200918.3744   24200920.1634
        37.1004         35.0004
 16  6 23  2 26 30.0000000  0  8G 6G 7G 5G 2G23G30G 9G16
    169617.50244    371691.42046  23036521.203    23036521.7504   23036528.0724
        42.3004         39.7004
 -18914371.86046 -14721887.65047  20654867.370    20654867.4454   20654869.2664
        49.3004         46.5004
  -2489698.50745  -1926017.63346  22480726.311    22480726.9014   22480729.9314
        44.4004         41.6004
 -11935513.48145  -9280707.42547  21711708.232    21711707.8754   21711708.4404
        46.2004         43.3004
  -3618649.56143  -2545407.27546  23985678.220    23985677.5144   23985678.4974
        39.2004         36.7004
 -14815794.51346 -11509672.81347  21277614.938    21277614.4264   21277620.8774
        47.9004         44.9004
 -13262914.99346 -10316778.68147  21707572.103    21707572.5774   21707577.1284
        46.9004         44.0004
   -404947.43042   -225839.32445  24206677.322    24206677.1254   24206677.6254
        37.3004         35.2004
 16  6 23  2 27  0.0000000  0  8G 6G 7G 5G 2G23G30G 9G16
    272201.38444    451626.87546  23056042.694    23056043.0554   23056048.6974
        42.2004         39.5004
 -18928873.83046 -14733187.87947  20652107.852    20652107.5594   20652109.8044
        49.3004         46.6004
  -2575869.02945  -1993163.48646  22464329.089    22464329.7354   22464331.8654
        44.4004         41.8004
 -11909619.44545  -9260530.26547  21716635.261    21716634.6524   21716635.5284
        46.0004         43.2004
  -3529220.29043  -2475722.16446  24002692.015    24002693.7624   24002696.3034
        38.9004         36.2004
 -14886801.73146 -11565003.10047  21264102.558    21264102.8674   21264107.9554
        47.9004         45.1004
 -13191221.98446 -10260914.00247  21721215.198    21721215.0454   21721220.3014
        46.9004         44.0004
   -374095.18842   -201798.65045  24212546.008    24212545.0794   24212549.0204
        37.3004         35.5004
 16  6 23  2 27 30.0000000  0  8G 6G 7G 5G 2G23G30G 9G16
    375007.29344    531735.33946  23075605.619    23075606.0784   23075613.0734
        42.0004         39.3004
 -18942831.51246 -14744063.99447  20649451.081    20649451.5514   20649453.5004
        49.5004         46.6004
  -2661801.07545  -2060123.51446  22447976.668    22447976.7374   22447979.8324
        44.4004         41.8004
 -11883173.03645  -9239922.68747  21721667.347    21721667.0574   21721668.1104
        46.0004         43.2004
  -3439701.06143  -2405966.99446  24019731.690    24019728.0004   24019732.4564
        38.5004         36.4004
 -14957361.01046 -11619984.34447  21250676.118    21250675.7214   21250681.1004
        47.9004         45.1004
 -13119307.63146 -10204876.86147  21734899.438    21734899.6224   21734905.0954
        46.7004         43.9004
   -342645.91142   -177292.76845  24218530.746    24218531.9984   24218533.6364
        37.0004         34.8004
 16  6 23  2 28  0.0000000  0  8G 6G 7G 5G 2G23G30G 9G16
    478032.31644    612014.56046  23095210.990    23095211.5194   23095217.8264
        41.8004         39.0004
 -18956245.08546 -14754516.12647  20646898.677    20646899.0614   20646900.9024
        49.5004         46.6004
  -2747492.44945  -2126895.98246  22431670.344    22431670.0994   22431672.5524
        44.4004         41.8004
 -11856175.37345  -9218885.56647  21726805.335    21726805.2434   21726805.5964
        46.2004         43.3004
  -3350092.99343  -2336142.58246  24036782.466    24036781.2454   24036782.7254
        38.5004         36.2004
 -15027470.54846 -11674615.15547  21237334.888    21237334.6814   21237339.8874
        48.1004         45.2004
 -13047173.06646 -10148668.11847  21748627.360    21748626.5204   21748631.7424
        46.5004         43.7004
   -310600.28942   -152322.15145  24224629.033    24224628.8784   24224631.7394
        37.0004         35.0004
 16  6 23  2 28 30.0000000  0  8G 6G 7G 5G 2G23G30G 9G16
    581273.53844    692462.22746  23114856.758    23114857.3684   23114863.5094
        41.5004         38.8004
 -18969114.29246 -14764544.07347  20644449.728    20644449.6794   20644451.9974
        49.3004         46.6004
  -2832941.20345  -2193479.40546  22415409.702    22415410.5144   22415412.8494
        44.4004         41.8004
 -11828627.65945  -9197419.81547  21732047.129    21732046.7954   21732047.9934
        46.2004         43.3004
  -3260396.80643  -2266249.47646  24053847.608    24053848.8384   24053853.3444
        38.5004         36.4004
 -15097128.61446 -11728894.16247  21224079.712    21224079.3704   21224084.3814
        48.1004         45.4004
 -12974819.47946 -10092288.72347  21762394.285    21762395.1434   21762399.8474
        46.5004         43.5004
   -277959.03842   -126887.43645  24230840.784    24230840.9684   24230841.2664
        37.5004         35.3004
 16  6 23  2 29  0.0000000  0  8G 6G 7G 5G 2G23G30G 9G16
    684727.91644    773076.02246  23134542.890    23134544.3464   23134550.8914
        41.3004         38.6004
 -18981439.14346 -14774147.84147  20642104.898    20642104.6284   20642106.7084
        49.3004         46.6004
  -2918145.40945  -2259872.28447  22399195.519    22399195.8394   22399198.9584
        44.6004         42.1004
 -11800530.76645  -9175526.14747  21737393.837    21737393.0724   21737394.3644
        46.2004         43.3004
  -3170613.51243  -2196288.53745  24070936.989    24070935.7984   24070936.4994
        38.2004         35.9004
 -15166333.36646 -11782819.93347  21210910.795    21210910.5604   21210915.6574
        48.2004         45.4004
 -12902247.96345 -10035739.51047  21776205.504    21776205.1984   21776209.4764
        46.3004         43.3004
   -244723.95342   -100990.00245  24237165.200    24237164.7894   24237168.9424
        37.0004         35.0004
 16  6 23  2 29 30.0000000  0  8G 6G 7G 5G 2G23G30G 9G16
    788392.61744    853853.67446  23154272.170    23154272.0014   23154276.8264
        41.3004         38.6004
 -18993219.91846 -14783327.65047  20639862.570    20639862.9104   20639864.7414
        49.3004         46.6004
  -3003103.10945  -2326073.06646  22383028.878    22383028.8454   22383032.0934
        44.6004         41.9004
 -11771885.91345  -9153205.51047  21742845.083    21742844.8004   21742844.9194
        46.0004         43.2004
  -3080743.96143  -2126260.34846  24088033.996    24088036.2224   24088039.0264
        38.5004         36.4004
 -15235083.05846 -11836391.10747  21197827.442    21197827.1674   21197832.6454
        48.1004         45.2004
 -12829459.66845  -9979021.36647  21790055.121    21790056.2974   21790061.1664
        46.3004         43.5004
   -210895.65542    -74630.31945  24243601.868    24243601.3274   24243604.9074
        37.0004         35.0004
 16  6 23  2 30  0.0000000  0  8G 6G 7G 5G 2G23G30G 9G16
    892264.58244    934792.86046  23174035.807    23174036.9244   23174042.4754
        41.1004         38.5004
 -19004456.25946 -14792083.23347  20637724.824    20637724.5194   20637726.7514
        49.3004         46.6004
  -3087811.85945  -2392079.85346  22366909.182    22366909.4794   22366911.9724
        44.6004         41.9004
 -11742694.12045  -9130458.68047  21748400.488    21748399.9164   21748400.3264
        45.8004         43.0004
  -2990788.70743  -2056165.38546  24105155.131    24105154.1944   24105156.5934
        38.3004         36.2004
 -15303375.95546 -11889606.33447  21184831.091    21184831.4804   21184837.0344
        48.1004         45.2004
 -12756455.70245  -9922135.18547  21803948.946    21803948.3984   21803953.6854
        46.3004         43.5004
   -176475.19942    -47809.20645  24250154.716    24250154.2864   24250157.1634
        37.1004         35.0004
 16  6 23  2 30 30.0000000  0  8G 6G 7G 5G 2G23G30G 9G16
    996340.94944   1015891.29346  23193843.296    23193843.6884   23193848.0364
        41.1004         38.5004
 -19015148.59846 -14800414.91647  20635689.383    20635689.4724   20635691.9094
        49.3004         46.6004
  -3172270.15145  -2457891.48546  22350836.874    22350837.4454   22350840.3254
        44.6004         41.9004
 -11712956.79045  -9107286.73647  21754059.064    21754058.8544   21754059.2524
        45.8004         43.0004
  -2900748.66043  -1986004.33645  24122287.762    24122289.2124   24122289.3124
        38.2004         35.9004
 -15371210.33046 -11942464.26847  21171923.072    21171923.0254   21171928.7214
        48.1004         45.4004
 -12683237.23745  -9865081.84647  21817881.202    21817880.6414   21817886.6774
        46.3004         43.3004
   -141463.53442    -20527.42445  24256814.481    24256814.3664   24256816.1024
        37.0004         34.8004
 16  6 23  2 31  0.0000000  0  8G 6G 7G 5G 2G23G30G 9G16
   1100618.73744   1097146.70446  23213684.459    23213685.4914   23213692.4914
        40.9004         38.5004
 -19025296.89846 -14808322.67247  20633758.412    20633758.2264   20633761.0944
        49.5004         46.6004
  -3256475.58445  -2523506.10646  22334813.713    22334813.5614   22334815.7034
        44.8004         41.8004
 -11682674.69945  -9083690.30947  21759822.027    21759820.7804   21759821.3514
        46.0004         43.2004
  -2810624.68343  -1915777.89745  24139440.615    24139437.7644   24139440.3524
        38.0004         35.7004
 -15438584.41446 -11994963.54647  21159102.063    21159102.1964   21159107.5954
        48.2004         45.4004
 -12609805.33545  -9807862.20147  21831855.114    21831854.6214   21831860.3434
        46.2004         43.2004
   -105861.99642      7213.98245  24263591.160    24263591.2934   24263591.0314
        36.4004         34.6004
 16  6 23  2 31 30.0000000  0  8G 6G 7G 5G 2G23G30G 9G16
   1205095.02644   1178556.77246  23233566.902    23233567.5824   23233572.6614
        40.9004         38.3004
 -19034901.43946 -14815806.72247  20631930.537    20631931.0684   20631933.4094
        49.5004         46.6004
  -3340426.33845  -2588922.26247  22318838.062    22318838.9084   22318840.9334
        44.8004         42.1004
 -11651849.22345  -9059670.47847  21765687.298    21765686.8504   21765687.8144
        45.8004         42.6004
  -2720417.69343  -1845486.79945  24156605.666    24156605.4174   24156605.7594
        37.8004         35.7004
 -15505496.54146 -12047102.85647  21146369.587    21146369.5774   21146374.5044
        48.2004         45.4004
 -12536161.15945  -9750477.15147  21845869.540    21845869.0754   21845874.2864
        46.3004         43.3004
    -69671.99042     35413.99045  24270478.553    24270476.3124   24270478.5564
        36.3004         34.3004
 16  6 23  2 32  0.0000000  0  8G 6G 7G 5G 2G23G30G 9G16
   1309766.83644   1260119.19246  23253485.089    23253485.0184   23253490.7614
        40.8004         38.1004
 -19043961.97246 -14822866.86847  20630206.684    20630206.8954   20630208.9284
        49.5004         46.8004
  -3424120.39245  -2654138.39646  22302911.481    22302911.6344   22302913.9284
        44.8004         41.9004
 -11620481.81545  -9035228.35247  21771655.994    21771655.2934   21771655.9644
        45.3004         42.3004
  -2630128.26743  -1775131.41746  24173785.400    24173786.5304   24173789.0984
        38.2004         36.0004
 -15571945.03146 -12098880.88247  21133724.785    21133724.1584   21133729.5714
        48.2004         45.4004
 -12462305.77645  -9692927.52447  21859923.532    21859923.3894   21859928.5464
        46.2004         43.3004
    -32894.47642     64071.75745  24277474.618    24277474.6024   24277478.2754
        36.3004         34.5004
 16  6 23  2 32 30.0000000  0  8G 6G 7G 5G 2G23G30G 9G16
   1414631.20344   1341831.66446  23273439.039    23273441.1124   23273446.4994
        40.6004         38.1004
 -19052478.73647 -14829503.30547  20628586.535    20628586.5494   20628588.3324
        49.6004         46.8004
  -3507555.25245  -2719152.55347  22287034.420    22287034.6844   22287037.5544
        44.8004         42.1004
 -11588573.36145  -9010364.63647  21777728.169    21777728.7954   21777728.5624
        45.6004         43.2004
  -2539757.44143  -1704712.63445  24190987.872    24190985.1244   24190985.2084
        38.0004         35.7004
 -15637928.18346 -12150296.31247  21121168.893    21121168.1544   21121173.7654
        48.2004         45.4004
 -12388240.32845  -9635214.20847  21874018.785    21874018.4384   21874022.8134
        46.3004         43.5004
      4469.24542     93186.31945  24284584.895    24284584.3164   24284587.6964
        36.4004         34.6004
 16  6 23  2 33  0.0000000  0  8G 6G 7G 5G 2G23G30G 9G16
   1519685.22543   1423691.92346  23293430.541    23293431.3584   23293437.5544
        40.4004         37.8004
 -19060452.10947 -14835716.31747  20627069.136    20627069.1954   20627070.9974
        49.6004         46.8004
  -3590729.18245  -2783963.39847  22271207.227    22271207.1884   22271210.4144
        44.8004         42.1004
 -11556125.30045  -8985080.43347  21783903.470    21783902.8664   21783903.3994
        45.8004         43.0004
  -2449305.58543  -1634230.72945  24208197.927    24208197.5564   24208197.6824
        38.0004         35.9004
 -15703444.32646 -12201347.83447  21108700.962    21108700.9864   21108706.6084
        48.4004         45.6004
 -12313965.94045  -9577338.07747  21888151.689    21888151.3864   21888157.0864
        46.2004         43.3004
     42418.05842    122756.78045  24291806.628    24291806.9794   24291810.0544
        36.8004         34.8004
 16  6 23  2 33 30.0000000  0  8G 6G 7G 5G 2G23G30G 9G16
   1624925.92543   1505697.64746  23313459.039    23313459.1944   23313463.9474
        40.3004         37.8004
 -19067882.05247 -14841505.87947  20625655.704    20625655.3134   20625657.3484
        49.6004         46.8004
  -3673640.22545  -2848569.39447  22255429.477    22255429.4564   22255432.7814
        44.9004         42.1004
 -11523138.89445  -8959376.74847  21790180.111    21790179.5054   21790179.7194
        45.5004         42.3004
  -2358773.97043  -1563686.64945  24225423.947    24225422.7404   24225424.0384
        37.8004         35.5004
 -15768491.83146 -12252034.18747  21096323.356    21096322.6094   21096328.1974
        48.4004         45.8004
 -12239483.70045  -9519299.98847  21902325.909    21902325.9504   21902330.1414
        46.2004         43.5004
     80950.55042    152782.04545  24299139.055    24299138.8064   24299140.5504
        36.6004         34.5004
 16  6 23  2 34  0.0000000  0  8G 6G 7G 5G 2G23G30G 9G16
   1730350.32943   1587846.49646  23333519.966    23333519.9724   23333523.9494
        40.1004         37.4004
 -19074768.74447 -14846872.12947  20624344.881    20624344.7764   20624346.4014
        49.6004         46.8004
  -3756286.22845  -2912968.86347  22239702.681    22239702.7204   22239704.9234
        44.9004         42.1004
 -11489615.37145  -8933254.53747  21796559.125    21796558.6034   21796559.2264
        45.5004         42.8004
  -2268163.23243  -1493080.90945  24242669.663    24242665.9974   24242665.1804
        37.6004         35.3004
 -15833069.03546 -12302354.07847  21084034.497    21084034.3214   21084039.4894
        48.6004         45.8004
 -12164794.70945  -9461100.79047  21916538.471    21916538.9334   21916542.8944
        46.2004         43.2004
    120065.53242    183261.26145  24306582.758    24306583.1144   24306585.9054
        37.0004         35.3004
 16  6 23  2 34 30.0000000  0  8G 6G 7G 5G 2G23G30G 9G16
   1835955.56043   1670136.27246  23353616.319    23353616.7534   23353621.9604
        40.1004         37.8004
 -19081112.73146 -14851815.48647  20623137.127    20623137.2504   20623139.2694
        49.5004         46.6004
  -3838665.07445  -2977160.15847  22224026.331    22224026.5294   22224029.6594
        44.9004         42.3004
 -11455556.21645  -8906714.94747  21803040.971    21803040.0804   21803041.0034
        45.6004         42.8004
  -2177474.05942  -1422414.08945  24259924.901    24259927.6474   24259923.6504
        37.3004         35.2004
 -15897174.33346 -12352306.24847  21071836.127    21071835.5974   21071840.9744
        48.8004         46.1004
 -12089900.04545  -9402741.32947  21930790.573    21930790.2714   21930795.2554
        46.2004         43.3004
    159761.74942    214193.31045  24314137.364    24314137.4164   24314137.9854
        37.5004         35.5004
 16  6 23  2 35  0.0000000  0  8G 6G 7G 5G 2G23G30G 9G16
   1941738.59443   1752564.58346  23373746.463    23373746.7394   23373752.8414
        40.4004         37.9004
 -19086913.84346 -14856335.82947  20622033.022    20622033.2234   20622035.3544
        49.5004         46.5004
  -3920774.83845  -3041141.77647  22208401.170    22208401.4234   22208404.1674
        45.1004         42.5004
 -11420962.59945  -8879758.86247  21809623.622    21809622.8824   21809624.3734
        45.8004         43.0004
  -2086707.16942  -1351686.67445  24277198.204    24277197.2784   24277196.6534
        37.5004         35.5004
 -15960806.13846 -12401889.46047  21059727.119    21059727.1564   21059732.0834
        48.9004         46.1004
 -12014800.83445  -9344222.48847  21945080.203    21945081.0084   21945086.0834
        46.0004         43.2004
    200037.60243    245577.04245  24321802.938    24321802.2604   24321803.0234
        37.8004         35.9004
 16  6 23  2 35 30.0000000  0  8G 6G 7G 5G 2G23G30G 9G16
   2047696.50243   1835129.16246  23393906.848    23393908.3074   23393914.1884
        40.3004         37.6004
 -19092172.54246 -14860433.51047  20621032.154    20621032.3374   20621034.5914
        49.3004         46.6004
  -4002613.23645  -3104911.94347  22192828.474    22192828.1794   22192831.8004
        45.5004         42.8004
 -11385836.05645  -8852387.54947  21816308.757    21816308.4804   21816308.4634
        45.8004         43.0004
  -1995863.70943  -1280899.62445  24294485.181    24294484.9744   24294485.2144
        37.8004         35.7004
 -16023962.84946 -12451102.47047  21047709.244    21047708.5724   21047713.4704
        48.9004         46.1004
 -11939498.15545  -9285545.09147  21959410.902    21959410.3924   21959416.2524
        46.0004         43.2004
    240891.98943    277411.62745  24329575.521    24329575.4064   24329579.2044
        37.8004         35.5004
 16  6 23  2 36  0.0000000  0  8G 6G 7G 5G 2G23G30G 9G16
   2153826.35943   1917827.72746  23414105.037    23414104.4684   23414111.1094
        40.1004         37.4004
 -19096889.03546 -14864108.68747  20620134.494    20620134.7624   20620137.3524
        49.3004         46.6004
  -4084178.38645  -3168469.17947  22177306.504    22177307.0544   22177309.7714
        45.6004         42.8004
 -11350177.66945  -8824601.81447  21823093.643    21823093.2584   21823094.5644
        45.8004         42.8004
  -1904944.21243  -1210053.27245  24311785.673    24311786.0574   24311785.6974
        37.6004         35.5004
 -16086642.84346 -12499944.02147  21035780.977    21035781.0704   21035786.0804
        48.9004         46.1004
 -11863993.07345  -9226709.98747  21973778.276    21973778.5654   21973783.5334
        46.0004         43.2004
    282323.34943    309695.73845  24337460.307    24337459.8084   24337463.4674
        37.8004         35.9004
 16  6 23  2 36 30.0000000  0  8G 6G 7G 5G 2G23G30G 9G16
   2260125.23643   2000657.96746  23434333.232    23434333.2864   23434339.1474
        40.1004         37.6004
 -19101063.73246 -14867361.69047  20619340.260    20619340.2724   20619342.9724
        49.5004         46.6004
  -4165468.27645  -3231811.94447  22161837.630    22161838.2274   22161841.0184
        45.8004         43.2004
 -11313989.42445  -8796403.19247  21829979.615    21829979.5714   21829982.1904
        45.8004         43.2004
  -1813949.32943  -1139148.26245  24329104.628    24329100.8954   24329102.6954
        37.6004         35.5004
 -16148844.64546 -12548412.94647  21023944.383    21023944.4984   21023949.3704
        48.9004         46.1004
 -11788286.71245  -9167718.04947  21988186.014    21988185.7774   21988190.4784
        46.0004         43.3004
    324330.28043    342428.38945  24345456.320    24345454.9864   24345456.6614
        37.8004         35.7004
 16  6 23  2 37  0.0000000  0  8G 6G 7G 5G 2G23G30G 9G16
   2366590.10843   2083617.60346  23454590.458    23454591.7444   23454598.5424
        39.7004         37.3004
 -19104696.62146 -14870192.50947  20618648.438    20618648.9994   20618651.7714
        49.5004         46.8004
  -4246480.63745  -3294938.45147  22146421.747    22146422.4284   22146425.0514
        46.0004         43.3004
 -11277272.34745  -8767792.49747  21836966.809    21836966.0854   21836967.6794
        45.6004         42.6004
  -1722880.16842  -1068185.28945  24346427.803    24346430.9184   24346431.4124
        37.5004         35.3004
 -16210566.66146 -12596508.00947  21012199.663    21012199.4344   21012204.0164
        49.1004         46.3004
 -11712380.12145  -9108570.08747  22002629.193    22002630.1504   22002634.6784
        46.0004         43.2004
    366911.37442    375608.40445  24353554.261    24353555.1664   24353558.8094
        37.1004         35.0004
 16  6 23  2 37 30.0000000  0  8G 6G 7G 5G 2G23G30G 9G16
   2473218.14843   2166704.35246  23474882.477    23474882.8074   23474887.9064
        39.6004         37.1004
 -19107788.32546 -14872601.64247  20618060.718    20618060.8524   20618063.2874
        49.5004         46.6004
  -4327213.56745  -3357847.21047  22131058.475    22131058.5904   22131062.1474
        46.2004         43.3004
 -11240027.89645  -8738770.87647  21844054.125    21844053.2034   21844054.5364
        45.3004         42.1004
  -1631736.98742   -997164.66045  24363776.296    24363772.9694   24363776.8174
        37.0004         34.8004
 -16271807.37946 -12644228.02947  21000545.068    21000545.0234   21000550.4964
        48.9004         46.1004
 -11636274.42045  -9049266.95747  22017112.963    22017113.0414   22017116.8004
        46.0004         43.2004
    410065.36642    409234.85945  24361769.560    24361769.4894   24361770.7744
        37.1004         35.2004
